	Station Code	Station Name	Country	Station type	Latitude	Longitude	Network	PM10 measured concentration (microg/m^3)	PM10 today forecast mean concentration (microg/m^3)	PM10 tomorrow forecast mean concentration (microg/m^3)	Today air quality	Tomorrow air quality	Actions
0	SPO-DK0034A_00005_100	Copenhagen/1103	Denmark	traffic	55.6743	12.5711	European Envioronmental Agency (EEA)				Very unhealthy	Very unhealthy	
1	SPO-DK0012R_00005_101	Risoe	Denmark	background	55.6942	12.0889	European Envioronmental Agency (EEA)				Very unhealthy	Very unhealthy	
2	SPO-FI00570_00005_100	Raahen keskusta 2	Finland	traffic	64.6834	24.4816	European Envioronmental Agency (EEA)	13.311600916666668	6.577546575795049	5.98217657338018	Good	Good	
3	SPO-FI00349_00005_100	Utö	Finland	background	59.7792	21.374	European Envioronmental Agency (EEA)	6.5107118333333345	11.574449850165326	9.642138481140137	Good	Good	
4	SPO-FI00427_00005_100	Matorova	Finland	background	68.0005	24.2457	European Envioronmental Agency (EEA)	2.7329637083333336	2.135097332622694	2.268990493339041	Good	Good	
5	SPO-FI00893_00005_100	Virolahti 2	Finland	background	60.53	27.6754	European Envioronmental Agency (EEA)				Very unhealthy	Very unhealthy	
6	SPO-FI00549_00005_100	Pirkankatu	Finland	traffic	61.4987	23.7357	European Envioronmental Agency (EEA)	9.823599250000001	6.38039029162863	8.542294885801232	Good	Good	
7	SPO-FI00838_00005_100	Epila 2	Finland	traffic	61.5085	23.6758	European Envioronmental Agency (EEA)	4.433743916666667	4.496695508127627	6.697061092957206	Good	Good	
8	SPO-FI00208_00005_101	Luukki	Finland	background	60.3144	24.6849	European Envioronmental Agency (EEA)	5.8894590833333345	6.6751142481099	7.638698702273161	Good	Good	
9	SPO-FI00370_00005_100	Tikkurila 3	Finland	traffic	60.2899	25.0395	European Envioronmental Agency (EEA)	11.856326166666669	9.42855891974076	11.942308861276377	Good	Good	
10	SPO-FI00425_00005_100	Kallio 2	Finland	background	60.1874	24.9506	European Envioronmental Agency (EEA)	7.862536250000001	8.49258686148602	10.640054557634437	Good	Good	
11	SPO-FI00564_00005_100	Mannerheimintie	Finland	traffic	60.1696	24.9392	European Envioronmental Agency (EEA)	11.713773541666669	12.647493735603664	17.260975049889606	Good	Good	
12	SPO-FI00781_00005_100	Vartiokylä Huivipolku	Finland	background	60.2239	25.1024	European Envioronmental Agency (EEA)	6.219342	7.843051786008089	8.415476011193316	Good	Good	
13	SPO-FI00841_00005_100	Leppävaara 4	Finland	traffic	60.2202	24.8113	European Envioronmental Agency (EEA)	13.479491833333332	9.662049728891123	13.075838296309762	Good	Good	
14	SPO-FI00902_00005_100	Mäkelänkatu	Finland	traffic	60.1964	24.952	European Envioronmental Agency (EEA)				Very unhealthy	Very unhealthy	
15	SPO-FI00301_00005_100	Pyykösjärvi	Finland	background	65.0434	25.4979	European Envioronmental Agency (EEA)	9.484529958333333	5.0659467448358955	5.003152671067611	Good	Good	
16	SPO-FI00446_00005_100	Oulun keskusta 2	Finland	traffic	65.01	25.4713	European Envioronmental Agency (EEA)	12.853600291666666	6.476966588393502	6.445801226989083	Good	Good	
17	SPO-FI00952_00005_100	Jyväskylä Hannikaisenkatu	Finland	traffic	62.2382	25.7479	European Envioronmental Agency (EEA)	9.901729125000001	4.750146544497946	7.789429042650306	Good	Good	
18	SPO-FI00455_00005_100	Laune	Finland	traffic	60.967	25.6549	European Envioronmental Agency (EEA)	18.786423125000002	5.764237901438838	8.461837478305982	Good	Good	
19	SPO-FI00889_00005_100	Saimaankatu	Finland	traffic	60.9913	25.6658	European Envioronmental Agency (EEA)	14.825987625000002	8.215633039889129	9.21822446325551	Good	Good	
20	SPO-FI00444_00005_100	Naantalin keskusta	Finland	traffic	60.4674	22.0284	European Envioronmental Agency (EEA)	4.9059087083333335	9.069025972615117	12.467418981635053	Good	Good	
21	SPO-FI00558_00005_100	Maaherrankatu	Finland	traffic	62.8933	27.6869	European Envioronmental Agency (EEA)	8.693074458333333	14.521858028743578	13.016788607058318	Good	Good	
22	SPO-FI00839_00005_100	Tasavallankatu	Finland	traffic	62.882	27.6619	European Envioronmental Agency (EEA)	15.50254225	22.072002079175867	19.58752093107804	Good	Good	
23	SPO-FI00928_00005_100	Pori Paanakedonkatu	Finland	traffic	61.4823	21.8133	European Envioronmental Agency (EEA)	6.642504124999999	8.40006278908771	13.038090208302373	Good	Good	
24	SPO-FI00080_00005_100	Rautionkylä	Finland	traffic	61.2381	28.8737	European Envioronmental Agency (EEA)				Very unhealthy	Very unhealthy	
25	SPO-FI00378_00005_100	Lauritsala	Finland	traffic	61.0719	28.2641	European Envioronmental Agency (EEA)				Very unhealthy	Very unhealthy	
26	SPO-FI00424_00005_100	Mansikkala	Finland	traffic	61.1889	28.7701	European Envioronmental Agency (EEA)	6.434030375	9.147673441016156	9.168617974156918	Good	Good	
27	SPO-FI00433_00005_100	Teppanala	Finland	industrial	61.153	28.8101	European Envioronmental Agency (EEA)	6.3345753333333334	8.183250468710195	8.930539462877357	Good	Good	
28	SPO-FI00434_00005_100	Joutsenon keskusta	Finland	traffic	61.1171	28.4985	European Envioronmental Agency (EEA)				Very unhealthy	Very unhealthy	
29	SPO-FI00606_00005_100	Lappeenrannan keskusta 4	Finland	traffic	61.0558	28.1843	European Envioronmental Agency (EEA)	13.967965125	9.718081837115081	10.594014748283055	Good	Good	
30	SPO-FI00972_00005_100	Lohja Harjula	Finland	background	60.249	24.0695	European Envioronmental Agency (EEA)	9.395815541666666	8.441476676775062	10.715698781220809	Good	Good	
31	SPO-FI00404_00005_100	Keskusta Pitkänsillankatu	Finland	traffic	63.8376	23.1316	European Envioronmental Agency (EEA)				Very unhealthy	Very unhealthy	
32	SPO-FI00892_00005_100	Kankaan Koulu	Finland	traffic	60.8704	26.701	European Envioronmental Agency (EEA)	15.413302583333333	5.633105029230532	7.935089277184528	Good	Good	
33	SPO-FI00179_00005_100	Pirkkala	Finland	industrial	61.3316	22.1431	European Envioronmental Agency (EEA)	5.275980208333334	8.063933185909105	9.717355106187904	Good	Good	
34	SPO-FI00184_00005_100	Kaleva	Finland	industrial	61.3135	22.135	European Envioronmental Agency (EEA)	5.669169833333334	7.320987183114757	9.693063715229863	Good	Good	
35	SPO-FI00465_00005_100	Vaasan keskusta	Finland	traffic	63.0951	21.6183	European Envioronmental Agency (EEA)				Very unhealthy	Very unhealthy	
36	SPO-FI00586_00005_100	Vaasa vesitorni	Finland	background	63.0935	21.6127	European Envioronmental Agency (EEA)				Very unhealthy	Very unhealthy	
37	SPO-FI00397_00005_100	Bottenviksvägen	Finland	traffic	63.6791	22.7184	European Envioronmental Agency (EEA)	31.37833295833333	6.673748700515084	9.801240651503853	Good	Good	
38	SPO-IS0005A_00005_103	Reykjavik Grensas	Iceland	traffic	64.1301	-21.8747	European Envioronmental Agency (EEA)	16.39340833333333	8.034252083819846	10.70061649446902	Good	Good	
39	SPO-IS0052A_00005_100	Akureyri Strandgata (við Hof)	Iceland	traffic	65.6841	-18.0882	European Envioronmental Agency (EEA)	7.208333333333333	12.206811345141867	13.706308515175529	Good	Good	
40	SPO-IS0025A_00005_100	Grundartangi Kríuvarða	Iceland	industrial	64.3736	-21.7591	European Envioronmental Agency (EEA)				Very unhealthy	Very unhealthy	
41	SPO-IS0041A_00005_100	Grundartangi Gröf	Iceland	industrial	64.3342	-21.8357	European Envioronmental Agency (EEA)	10.582016666666666	6.11499864122142	6.240932671920113	Good	Good	
42	SPO-IS0037A_00005_100	Kópavogur Dalsmári	Iceland	background	64.105	-21.889	European Envioronmental Agency (EEA)	8.022916666666667	7.565097715543664	7.939822404280953	Good	Good	
43	SPO-IS0046A_00005_101	Hafnarfjörður Norðurhella	Iceland	background	64.0442	-21.9854	European Envioronmental Agency (EEA)	4.919945833333334	7.253041433251423	6.408602030380912	Good	Good	
44	SPO-IS0049A_00005_100	PCC norður	Iceland	industrial	66.0793	-17.3422	European Envioronmental Agency (EEA)				Very unhealthy	Very unhealthy	
45	SPO-IS0050A_00005_100	PCC suður	Iceland	industrial	66.0549	-17.3476	European Envioronmental Agency (EEA)				Very unhealthy	Very unhealthy	
46	SPO_NO0071A_5_38	Manglerud	Norway	traffic	59.8986	10.8149	European Envioronmental Agency (EEA)				Very unhealthy	Very unhealthy	
47	SPO_NO0093A_5_1039	Hjortnes	Norway	traffic	59.9113	10.704	European Envioronmental Agency (EEA)	16.115	13.112316401108451	15.841237399889076	Good	Good	
48	SPO_NO0095A_5_934	Smestad	Norway	traffic	59.9325	10.6699	European Envioronmental Agency (EEA)	9.85798095652174	9.121334760085396	11.705336570739746	Good	Good	
49	SPO_NO0101A_5_332	Rv 4 Aker sykehus	Norway	traffic	59.941	10.798	European Envioronmental Agency (EEA)				Very unhealthy	Very unhealthy	
50	SPO_NO0122A_5_2945	E6 Alna senter	Norway	traffic	59.9256	10.8504	European Envioronmental Agency (EEA)	11.182297666666669	14.412507430366848	13.338156098904816	Good	Good	
51	SPO_NO0002R_5_1572	Birkenesobservatoriet	Norway	background	58.3885	8.2519	European Envioronmental Agency (EEA)				Very unhealthy	Very unhealthy	
52	SPO_NO0039R_5_1546	Kårvatn	Norway	background	62.7825	8.8766	European Envioronmental Agency (EEA)				Very unhealthy	Very unhealthy	
53	SPO_NO0056R_5_1539	Hurdal25	Norway	background	60.3729	11.0741	European Envioronmental Agency (EEA)				Very unhealthy	Very unhealthy	
54	SPO_NO0011A_5_19	Kirkeveien	Norway	traffic	59.9323	10.7245	European Envioronmental Agency (EEA)	11.024317083333335	13.92239587203316	12.081589263418447	Good	Good	
55	SPO_NO0057A_5_41	Alnabru	Norway	traffic	59.9277	10.8466	European Envioronmental Agency (EEA)	7.916130249999999	11.733198103697404	13.60741316753885	Good	Good	
56	SPO_NO0072A_5_352	Skøyen	Norway	background	59.9197	10.6897	European Envioronmental Agency (EEA)	9.489158375	7.314999694409578	10.063736003378164	Good	Good	
57	SPO_NO0073A_5_552	Sofienbergparken	Norway	background	59.923	10.7657	European Envioronmental Agency (EEA)	8.32656404347826	7.980244429215141	9.486627018969992	Good	Good	
58	SPO_NO0083A_5_793	Bygdøy Alle	Norway	traffic	59.9193	10.6965	European Envioronmental Agency (EEA)	15.729166666666666	23.4409935163415	20.206028772437055	Good	Good	
59	SPO_NO0140A_5_3171	Spikersuppa	Norway	background	59.9141	10.736	European Envioronmental Agency (EEA)	6.7449315	8.254334004028983	8.869103887806768	Good	Good	
60	SPO_NO0143A_5_3173	Vahl skole	Norway	traffic	59.9169	10.766	European Envioronmental Agency (EEA)				Very unhealthy	Very unhealthy	
61	SPO_NO0146A_5_3145	Loallmenningen	Norway	background	59.9031	10.7584	European Envioronmental Agency (EEA)				Very unhealthy	Very unhealthy	
62	SPO_NO0059A_5_11	Danmarks plass	Norway	traffic	60.3741	5.3404	European Envioronmental Agency (EEA)	4.62340775	10.860790916111158	12.529639347739842	Good	Good	
63	SPO_NO0108A_5_2071	Rolland Åsane	Norway	background	60.4627	5.3324	European Envioronmental Agency (EEA)	4.202518666666667	8.711138787476912	7.177275828693224	Good	Good	
64	SPO_NO0109A_5_2067	Loddefjord	Norway	traffic	60.3611	5.2369	European Envioronmental Agency (EEA)	3.8653431250000003	9.70445786351743	13.18030546022498	Good	Good	
65	SPO_NO0120A_5_2902	Klosterhaugen	Norway	background	60.3959	5.3127	European Envioronmental Agency (EEA)	4.7175809583333335	9.63909267342609	9.295291133548902	Good	Good	
66	SPO_NO0121A_5_2888	Rådal	Norway	traffic	60.2943	5.3246	European Envioronmental Agency (EEA)	3.7648401250000005	9.037262667780338	8.598391895708831	Good	Good	
67	SPO_NO0135A_5_3126	Backeparken	Norway	background	59.7495	10.1653	European Envioronmental Agency (EEA)	5.568818458333333	8.53734799053358	9.13878283293351	Good	Good	
68	SPO_NO0136A_5_3124	Vårveien	Norway	traffic	59.7536	10.1444	European Envioronmental Agency (EEA)	11.728095375	11.381172242371932	12.00222583439039	Good	Good	
69	SPO_NO0060A_5_1685	Elgeseter	Norway	traffic	63.4174	10.3968	European Envioronmental Agency (EEA)	8.447711666666669	11.436245192652164	14.86598763258561	Good	Good	
70	SPO_NO0089A_5_1082	Torvet	Norway	background	63.4304	10.3936	European Envioronmental Agency (EEA)				Very unhealthy	Very unhealthy	
71	SPO_NO0102A_5_1530	E6-Tiller	Norway	traffic	63.3576	10.3717	European Envioronmental Agency (EEA)	11.712010833333332	10.432898376298988	12.843421251877494	Good	Good	
72	SPO_NO0145A_5_3060	Omkjøringsvegen	Norway	traffic	63.4105	10.4444	European Envioronmental Agency (EEA)				Very unhealthy	Very unhealthy	
73	SPO_NO0061A_5_713	Lensmannsdalen	Norway	traffic	59.1593	9.6357	European Envioronmental Agency (EEA)				Very unhealthy	Very unhealthy	
74	SPO_NO0106A_5_1231	Sverresgate	Norway	traffic	59.1382	9.6522	European Envioronmental Agency (EEA)	16.790000000000003	11.915730041006338	14.74160789406818	Good	Good	
75	SPO_NO0115A_5_2473	Furulund	Norway	industrial	59.0573	9.6956	European Envioronmental Agency (EEA)	9.337464500000001	5.99464085827703	9.309672998345416	Good	Good	
76	SPO_NO0118A_5_2723	Knarrdalstranda	Norway	background	59.1335	9.6219	European Envioronmental Agency (EEA)	11.567875333333333	6.387096933696581	10.304842389148215	Good	Good	
77	SPO_NO0063A_5_192	Stener Heyerdahl	Norway	background	58.1489	7.9918	European Envioronmental Agency (EEA)	9.042204041666666	6.888614830763443	8.793758578922438	Good	Good	
78	SPO_NO0134A_5_3121	Bjørndalssletta	Norway	traffic	58.1623	8.0238	European Envioronmental Agency (EEA)				Very unhealthy	Very unhealthy	
79	SPO_NO0065A_5_52	Våland	Norway	background	58.9616	5.7314	European Envioronmental Agency (EEA)	9.586514000000001	13.443800905476445	13.400024496990701	Good	Good	
80	SPO_NO0076A_5_46	Kannik	Norway	traffic	58.9642	5.7279	European Envioronmental Agency (EEA)	5.479488208333334	9.655138378557952	9.669576893682065	Good	Good	
81	SPO_NO0125A_5_3017	Schancheholen	Norway	traffic	58.9519	5.7219	European Envioronmental Agency (EEA)	6.301630833333334	12.825675736302914	11.905322987100352	Good	Good	
82	SPO_NO0141A_5_3178	Vågen	Norway	background	58.9726	5.7265	European Envioronmental Agency (EEA)				Very unhealthy	Very unhealthy	
83	SPO_NO0074A_5_539	Bankplassen	Norway	traffic	61.1129	10.4649	European Envioronmental Agency (EEA)	17.188521750000003	7.406869437383569	14.488609023716139	Good	Good	
84	SPO_NO0075A_5_544	Lillehammer barnehage	Norway	background	61.1209	10.4656	European Envioronmental Agency (EEA)	7.809998291666666	6.24541990135027	9.480291698289955	Good	Good	
85	SPO_NO0079A_5_392	Hansjordnesbukta	Norway	traffic	69.6562	18.9637	European Envioronmental Agency (EEA)	109.22312466666669	35.39206952634065	21.238962961279828	Moderate	Good	
86	SPO_NO0124A_5_2957	Rambergan	Norway	background	69.6543	18.9564	European Envioronmental Agency (EEA)	38.289701083333334	24.05909882421079	17.52365775730299	Good	Good	
87	SPO_NO0084A_5_967	St.Croix	Norway	traffic	59.2103	10.9454	European Envioronmental Agency (EEA)	10.652890708333333	10.313326400259268	12.38338103501693	Good	Good	
88	SPO_NO0114A_5_2325	Bekkestua	Norway	background	59.9182	10.5839	European Envioronmental Agency (EEA)	5.354166666666667	7.9082317144974414	10.512304865795633	Good	Good	
89	SPO_NO0142A_5_3183	E18 Høvik kirke	Norway	traffic	59.8988	10.5759	European Envioronmental Agency (EEA)				Very unhealthy	Very unhealthy	
90	SPO_NO0110A_5_2064	Alvim	Norway	traffic	59.2738	11.0892	European Envioronmental Agency (EEA)	7.634759958333333	7.357316151909206	9.692585364631984	Good	Good	
91	SPO_NO0112A_5_1221	Kransen	Norway	traffic	59.4335	10.6618	European Envioronmental Agency (EEA)	7.503259750000001	10.776983499526978	12.840505993884543	Good	Good	
92	SPO_NO0119A_5_2701	Leiret	Norway	traffic	60.8836	11.5593	European Envioronmental Agency (EEA)	7.471927458333333	3.857080920882847	8.0102262807929	Good	Good	
93	SPO_NO0104A_5_1671	Vangsveien Hamar	Norway	traffic	60.7965	11.0978	European Envioronmental Agency (EEA)				Very unhealthy	Very unhealthy	
94	SPO_NO0111A_5_1692	Vigernes	Norway	traffic	59.9555	11.074	European Envioronmental Agency (EEA)				Very unhealthy	Very unhealthy	
95	SPO_NO0128A_5_2972	Nedre Langgate	Norway	traffic	59.2637	10.4112	European Envioronmental Agency (EEA)	12.094033833333334	6.6127467984738555	11.980670586876247	Good	Good	
96	SPO_NO0129A_5_2950	Solheim	Norway	traffic	59.9286	10.9532	European Envioronmental Agency (EEA)	7.388029625000001	8.926601441010185	11.195917730746062	Good	Good	
97	SPO_NO0127A_5_2964	Seljestad Rv83	Norway	traffic	68.7922	16.5374	European Envioronmental Agency (EEA)	43.02830383333333	28.31918368132218	20.093468002651047	Moderate	Good	
98	SPO_NO0130A_5_3000	Ringsakervegen	Norway	traffic	60.8859	10.9379	European Envioronmental Agency (EEA)	5.2625	6.884356001149053	8.613804755003557	Good	Good	
99	SPO_NO0147A_5_3157	Vollaparken øst	Norway	background	59.9583	11.0429	European Envioronmental Agency (EEA)				Very unhealthy	Very unhealthy	
100	SPO-SE0001A_00005_100	Malmö Rådhuset	Sweden	background	55.6064	13.002	European Envioronmental Agency (EEA)	15.698749999999999	11.130640651868736	13.605422476063604	Good	Good	
101	SPO-SE0056A_00005_101	Landskrona Eriksgatan	Sweden	traffic	55.8774	12.8336	European Envioronmental Agency (EEA)				Very unhealthy	Very unhealthy	
102	SPO-SE0058A_00005_100	Malmö Dalaplan	Sweden	traffic	55.5847	13.0062	European Envioronmental Agency (EEA)	20.080416666666668	13.47981301597927	15.418744626252547	Good	Good	
103	SPO-SE0085A_00005_101	Helsingborg Drottninggatan	Sweden	traffic	56.0472	12.6916	European Envioronmental Agency (EEA)	19.892416666666666	14.02533182890519	14.172422450521719	Good	Good	
104	SPO-SE155531_00005_100	Trelleborg Hamngatan	Sweden	traffic	55.3729	13.1575	European Envioronmental Agency (EEA)				Very unhealthy	Very unhealthy	
105	SPO-SE38350_00005_100	Lund Trollebergsvägen	Sweden	traffic	55.7033	13.1803	European Envioronmental Agency (EEA)	18.499583333333334	12.868627009184465	13.366798691127611	Good	Good	
106	SPO-SE343956_00005_100	Karlstad Jungmansgatan 8	Sweden	traffic	59.3767	13.4903	European Envioronmental Agency (EEA)				Very unhealthy	Very unhealthy	
107	SPO-SE344172_00005_100	Västerås Stora Gatan 78	Sweden	traffic	59.6077	16.5359	European Envioronmental Agency (EEA)	5.533625	6.605343860128651	11.958191809446916	Good	Good	
108	SPO-SE344172_00005_101	Västerås Stora Gatan 78	Sweden	traffic	59.6077	16.5359	European Envioronmental Agency (EEA)				Very unhealthy	Very unhealthy	
109	SPO-SE0003A_00005_100	Stockholm Hornsgatan 108 Gata	Sweden	traffic	59.3172	18.0487	European Envioronmental Agency (EEA)	2.22880575	6.399770705596261	9.179178217182988	Good	Good	
110	SPO-SE0022A_00005_100	Stockholm Torkel Knutssongatan	Sweden	background	59.316	18.0578	European Envioronmental Agency (EEA)	3.3766666250000004	4.2712486826855205	5.865059748939846	Good	Good	
111	SPO-SE0027A_00005_100	Stockholm Sveavägen 59 Gata	Sweden	traffic	59.3408	18.0583	European Envioronmental Agency (EEA)	7.754352428571428	7.952367844788925	10.07963280055834	Good	Good	
112	SPO-SE0066A_00005_100	Norr Malma	Sweden	background	59.8324	18.6313	European Envioronmental Agency (EEA)	2.887088666666667	2.4982860192008642	4.169223391491434	Good	Good	
113	SPO-SE0071A_00005_100	Sollentuna E4 Häggvik	Sweden	traffic	59.4435	17.9224	European Envioronmental Agency (EEA)	5.0127250000000005	5.6920197321021035	6.378222278926684	Good	Good	
114	SPO-SE0072A_00005_100	Södertälje Turingegatan 26	Sweden	traffic	59.1981	17.6211	European Envioronmental Agency (EEA)	5.605262499999999	6.171383800713913	9.541178174640821	Good	Good	
115	SPO-SE0087A_00005_100	Stockholm E4/E20 Lilla Essingen	Sweden	traffic	59.3255	18.0044	European Envioronmental Agency (EEA)	11.385333208333336	11.179499553597491	13.21768569946289	Good	Good	
116	SPO-SE0114A_00005_100	Södertälje Birkakorset	Sweden	traffic	59.2013	17.6348	European Envioronmental Agency (EEA)				Very unhealthy	Very unhealthy	
117	SPO-SE0117A_00005_101	Visby Österväg 17	Sweden	traffic	57.6369	18.3036	European Envioronmental Agency (EEA)	31.248566583333332	39.34212377797002	35.339162826538086	Moderate	Moderate	
118	SPO-SE156417_00005_100	Uppsala Kungsgatan 67	Sweden	traffic	59.8571	17.6463	European Envioronmental Agency (EEA)	3.5358791250000006	5.209289965422257	8.512179447257001	Good	Good	
119	SPO-SE157992_00005_100	Stockholm St Eriksgatan 83	Sweden	traffic	59.3405	18.037	European Envioronmental Agency (EEA)	5.194562500000001	6.73433926831121	7.333979907243148	Good	Good	
120	SPO-SE157993_00005_100	Stockholm E4 Skonertvägen	Sweden	traffic	59.3133	18.004	European Envioronmental Agency (EEA)				Very unhealthy	Very unhealthy	
121	SPO-SE159402_00005_100	Sollentuna Danderydsvägen	Sweden	traffic	59.4459	17.955	European Envioronmental Agency (EEA)	3.5101291666666667	5.124424929204195	6.614226714424465	Good	Good	
122	SPO-SE159403_00005_100	Stockholm Folkungagatan 70	Sweden	traffic	59.3146	18.0771	European Envioronmental Agency (EEA)				Very unhealthy	Very unhealthy	
123	SPO-SE159404_00005_100	Uppsala Dragarbrunnsgatan 23 tak	Sweden	background	59.8605	17.6376	European Envioronmental Agency (EEA)	3.6336875	3.43137948927672	3.910480084626571	Good	Good	
124	SPO-SE164905_00005_100	Solna Råsundavägen 107	Sweden	traffic	59.3651	17.9969	European Envioronmental Agency (EEA)				Very unhealthy	Very unhealthy	
125	SPO-SE274652_00005_100	Sollentuna Sollentunavägen 192	Sweden	traffic	59.4336	17.9497	European Envioronmental Agency (EEA)	5.774916583333334	5.843663485153861	7.591369867324829	Good	Good	
126	SPO-SE301111_00005_100	Norrköping Kungsgatan 32	Sweden	traffic	58.5915	16.1779	European Envioronmental Agency (EEA)	17.285933333333332	5.042633232863053	6.033392823260764	Good	Good	
127	SPO-SE301113_00005_100	Norrköping Trädgårdsgatan 21	Sweden	background	58.592	16.1893	European Envioronmental Agency (EEA)	5.787752083333334	3.652431653893512	4.329457065333491	Good	Good	
128	SPO-SE301757_00005_100	Sundbyberg Tulegatan 9	Sweden	traffic	59.3643	17.9763	European Envioronmental Agency (EEA)	5.612720833333333	5.3750043640966	6.568575434062792	Good	Good	
129	SPO-SE313381_00005_100	Visby Brömsebroväg 8	Sweden	background	57.6399	18.3097	European Envioronmental Agency (EEA)	15.227079083333336	19.561329053795856	16.0473691691523	Good	Good	
130	SPO-SE338683_00005_100	Gävle Staketgatan 22	Sweden	traffic	60.6762	17.1376	European Envioronmental Agency (EEA)	5.230341625	3.8998731789381607	10.12268290312394	Good	Good	
131	SPO-SE338685_00005_100	Linköping Hamngatan 10	Sweden	traffic	58.4124	15.6301	European Envioronmental Agency (EEA)	11.1030125	6.293789842854375	10.059084736782571	Good	Good	
132	SPO-SE344250_00005_100	Danderyd Gymnasiet	Sweden	background	59.4156	18.0424	European Envioronmental Agency (EEA)				Very unhealthy	Very unhealthy	
133	SPO-SE344252_00005_100	Danderyd Mörbyskolan	Sweden	background	59.3939	18.0441	European Envioronmental Agency (EEA)				Very unhealthy	Very unhealthy	
134	SPO-SE37479_00005_100	Sollentuna Ekmans Väg 11	Sweden	traffic	59.489	17.9199	European Envioronmental Agency (EEA)	6.5141333333333336	6.27892369809358	6.999220371246338	Good	Good	
135	SPO-SE0004A_00005_100	Göteborg Femman	Sweden	background	57.709	11.9702	European Envioronmental Agency (EEA)	20.593464166666667	15.450816942297894	16.363199482793394	Good	Good	
136	SPO-SE0005R_00005_101	Bredkälen	Sweden	background	63.8455	15.3197	European Envioronmental Agency (EEA)	0.9916666666666667	1.379073054894157	2.1700025123098623	Good	Good	
137	SPO-SE0014R_00005_100	Råö	Sweden	background	57.3936	11.9142	European Envioronmental Agency (EEA)	27.208333333333332	16.491139204605766	15.457175047501273	Good	Good	
138	SPO-SE0116A_00005_100	Hallahus	Sweden	background	56.0424	13.1486	European Envioronmental Agency (EEA)				Very unhealthy	Very unhealthy	
139	SPO-SE159388_00005_100	Norunda Stenen	Sweden	background	60.0858	17.5053	European Envioronmental Agency (EEA)				Very unhealthy	Very unhealthy	
140	SPO-SE159388_00005_101	Norunda Stenen	Sweden	background	60.0858	17.5053	European Envioronmental Agency (EEA)	3.1012204347826087	2.7990666213242905	3.5063165270763896	Good	Good	
141	SPO-SE0021A_00005_100	Göteborg Gårda	Sweden	traffic	57.7009	11.9946	European Envioronmental Agency (EEA)	26.8625	20.041011271269426	20.539801887843918	Good	Good	
142	SPO-SE0067A_00005_100	Göteborg Haga	Sweden	traffic	57.6979	11.9605	European Envioronmental Agency (EEA)	27.284330833333332	18.158887199733567	22.15088122823964	Good	Good	
143	SPO-SE274590_00005_100	Göteborg Övre Husargatan	Sweden	traffic	57.6937	11.9568	European Envioronmental Agency (EEA)	23.016154166666666	17.762568349423617	19.646299901215926	Good	Good	
144	SPO-SE0113A_00005_100	Borås Kungsgatan	Sweden	traffic	57.7208	12.9447	European Envioronmental Agency (EEA)				Very unhealthy	Very unhealthy	
145	SPO-SE165095_00005_100	Hedemora Gussarvsgatan	Sweden	traffic	60.2814	15.9891	European Envioronmental Agency (EEA)	5.8452375000000005	3.5738198342530625	6.319118271703306	Good	Good	
146	SPO-SE157868_00005_100	Jönköping Kungsgatan 2A	Sweden	traffic	57.7782	14.1595	European Envioronmental Agency (EEA)				Very unhealthy	Very unhealthy	
147	SPO-SE36365_00005_100	Jönköping Lantmätaregränd	Sweden	background	57.7816	14.1737	European Envioronmental Agency (EEA)				Very unhealthy	Very unhealthy	
148	SPO-SE0012A_00005_101	Timrå	Sweden	background	62.4868	17.3244	European Envioronmental Agency (EEA)				Very unhealthy	Very unhealthy	
149	SPO-SE0095A_00005_100	Sundsvall Köpmangatan	Sweden	traffic	62.3886	17.3089	European Envioronmental Agency (EEA)	3.7756250000000002	11.183240289273469	11.667670094448587	Good	Good	
150	SPO-SE09569_00005_100	Sundsvall Bergsgatan	Sweden	traffic	62.3865	17.3032	European Envioronmental Agency (EEA)	4.1465000000000005	11.746200582255488	13.947152199952498	Good	Good	
151	SPO-SE313140_00005_100	Örnsköldsvik Centralesplanaden - Nygatan 24	Sweden	traffic	63.2918	18.7175	European Envioronmental Agency (EEA)	5.570833333333333	5.739959094835364	6.431078133375748	Good	Good	
152	SPO-SE181002_00005_100	Växjö Liedbergsgatan 11	Sweden	traffic	56.8799	14.7993	European Envioronmental Agency (EEA)	35.35	13.135901782823646	13.479124649711277	Good	Good	
153	SPO-SE32288_00005_100	Karlskrona N Smedjegatan Ö Köpmansgatan	Sweden	traffic	56.164	15.5889	European Envioronmental Agency (EEA)	19.3125	14.305205054905104	13.365944862365723	Good	Good	
154	SPO-SE181993_00005_100	Kalmar Södra Vägen	Sweden	traffic	56.6642	16.3336	European Envioronmental Agency (EEA)	16.433333333333334	19.52859866100809	18.27484118420145	Good	Good	
155	SPO-SE36364_00005_100	Örebro Rudbecksskolan	Sweden	traffic	59.2683	15.2149	European Envioronmental Agency (EEA)				Very unhealthy	Very unhealthy	
156	SPO-SE181259_00005_100	Östersund Rådhusgatan	Sweden	traffic	63.1739	14.6411	European Envioronmental Agency (EEA)	1.1666666666666667	4.669655146806137	13.416713807893837	Good	Good	
157	SPO-SE0059A_00005_100	Umeå Västra Esplanaden	Sweden	traffic	63.8289	20.2585	European Envioronmental Agency (EEA)	12.095833333333333	5.665522134822348	8.004396708115287	Good	Good	
158	SPO-SE274953_00005_100	Skellefteå Kv Pantern	Sweden	traffic	64.7495	20.9601	European Envioronmental Agency (EEA)	6.042245833333332	9.105353106623111	15.145511419876762	Good	Good	
159	SPO-SE0100A_00005_100	Luleå Sandviksgatan	Sweden	traffic	65.5806	22.1404	European Envioronmental Agency (EEA)				Very unhealthy	Very unhealthy	
160	SPO-SE31752_00005_100	Piteå Prästgårdsgatan	Sweden	traffic	65.3181	21.4792	European Envioronmental Agency (EEA)				Very unhealthy	Very unhealthy	
161	FI_5_101983	Muonio Sammaltunturi	Finland		67.97	24.12	Finnish Meteorological Institute	2.6041666666666665	2.278273877890214	2.6762514373530513	Good	Good	
162	FI_5_100656	Virolahti Koivuniemi Ääpälä	Finland		60.53	27.68	Finnish Meteorological Institute				Very unhealthy	Very unhealthy	
