	Station Code	Station Name	Country	Station type	Latitude	Longitude	Network	PM10 measured concentration (microg/m^3)	PM10 today forecast mean concentration (microg/m^3)	PM10 tomorrow forecast mean concentration (microg/m^3)	Today air quality	Tomorrow air quality	Actions
0	SPO-DK0034A_00005_100	Copenhagen/1103	Denmark	traffic	55.6743	12.5711	European Envioronmental Agency (EEA)				Very unhealthy	Very unhealthy	
1	SPO-DK0012R_00005_101	Risoe	Denmark	background	55.6942	12.0889	European Envioronmental Agency (EEA)				Very unhealthy	Very unhealthy	
2	SPO-FI00570_00005_100	Raahen keskusta 2	Finland	traffic	64.6834	24.4816	European Envioronmental Agency (EEA)	8.004557			Very unhealthy	Very unhealthy	
3	SPO-FI00349_00005_100	Utö	Finland	background	59.7792	21.374	European Envioronmental Agency (EEA)	5.800160791666667	6.048374901647153	5.925808149835338	Good	Good	
4	SPO-FI00427_00005_100	Matorova	Finland	background	68.0005	24.2457	European Envioronmental Agency (EEA)	9.458212833333334	5.674499024515566	5.329872463060462	Good	Good	
5	SPO-FI00893_00005_100	Virolahti 2	Finland	background	60.53	27.6754	European Envioronmental Agency (EEA)				Very unhealthy	Very unhealthy	
6	SPO-FI00549_00005_100	Pirkankatu	Finland	traffic	61.4987	23.7357	European Envioronmental Agency (EEA)	6.734655125000001	10.35489150752192	12.120376628378164	Good	Good	
7	SPO-FI00838_00005_100	Epila 2	Finland	traffic	61.5085	23.6758	European Envioronmental Agency (EEA)	24.49740429166667	9.5375773181086	11.626668515412703	Good	Good	
8	SPO-FI00208_00005_101	Luukki	Finland	background	60.3144	24.6849	European Envioronmental Agency (EEA)	7.289610375	7.793087109275486	7.807441504105277	Good	Good	
9	SPO-FI00370_00005_100	Tikkurila 3	Finland	traffic	60.2899	25.0395	European Envioronmental Agency (EEA)	10.469748125	13.020197826883066	13.822779323743736	Good	Good	
10	SPO-FI00425_00005_100	Kallio 2	Finland	background	60.1874	24.9506	European Envioronmental Agency (EEA)	9.52966675	10.911259920700736	10.52478551864624	Good	Good	
11	SPO-FI00564_00005_100	Mannerheimintie	Finland	traffic	60.1696	24.9392	European Envioronmental Agency (EEA)	14.104209500000001	18.848238820615023	17.755477096723475	Good	Good	
12	SPO-FI00781_00005_100	Vartiokylä Huivipolku	Finland	background	60.2239	25.1024	European Envioronmental Agency (EEA)	8.132137833333333	8.339356795601223	8.91300918744958	Good	Good	
13	SPO-FI00841_00005_100	Leppävaara 4	Finland	traffic	60.2202	24.8113	European Envioronmental Agency (EEA)	9.250320208333333	13.971001044563625	12.585029602050781	Good	Good	
14	SPO-FI00902_00005_100	Mäkelänkatu	Finland	traffic	60.1964	24.952	European Envioronmental Agency (EEA)				Very unhealthy	Very unhealthy	
15	SPO-FI00301_00005_100	Pyykösjärvi	Finland	background	65.0434	25.4979	European Envioronmental Agency (EEA)	7.086767714285715			Very unhealthy	Very unhealthy	
16	SPO-FI00446_00005_100	Oulun keskusta 2	Finland	traffic	65.01	25.4713	European Envioronmental Agency (EEA)	10.92206943478261	14.941550130429475	12.922115004580954	Good	Good	
17	SPO-FI00952_00005_100	Jyväskylä Hannikaisenkatu	Finland	traffic	62.2382	25.7479	European Envioronmental Agency (EEA)	6.992891166666666	13.275768425153649	13.32550807621168	Good	Good	
18	SPO-FI00455_00005_100	Laune	Finland	traffic	60.967	25.6549	European Envioronmental Agency (EEA)	7.235175208333334	14.338929217794668	13.615076811417289	Good	Good	
19	SPO-FI00889_00005_100	Saimaankatu	Finland	traffic	60.9913	25.6658	European Envioronmental Agency (EEA)	7.502110291666668	12.587336540222168	14.379378380982772	Good	Good	
20	SPO-FI00444_00005_100	Naantalin keskusta	Finland	traffic	60.4674	22.0284	European Envioronmental Agency (EEA)	7.310169291666667	11.453341877978781	11.500675305076268	Good	Good	
21	SPO-FI00558_00005_100	Maaherrankatu	Finland	traffic	62.8933	27.6869	European Envioronmental Agency (EEA)	7.368321666666667	14.792724733767303	14.945904980535092	Good	Good	
22	SPO-FI00839_00005_100	Tasavallankatu	Finland	traffic	62.882	27.6619	European Envioronmental Agency (EEA)	6.833533833333334	13.137555619944697	18.618352185124937	Good	Good	
23	SPO-FI00928_00005_100	Pori Paanakedonkatu	Finland	traffic	61.4823	21.8133	European Envioronmental Agency (EEA)	7.8359366249999995	10.211774649827376	13.87726232279902	Good	Good	
24	SPO-FI00080_00005_100	Rautionkylä	Finland	traffic	61.2381	28.8737	European Envioronmental Agency (EEA)				Very unhealthy	Very unhealthy	
25	SPO-FI00378_00005_100	Lauritsala	Finland	traffic	61.0719	28.2641	European Envioronmental Agency (EEA)				Very unhealthy	Very unhealthy	
26	SPO-FI00424_00005_100	Mansikkala	Finland	traffic	61.1889	28.7701	European Envioronmental Agency (EEA)	5.49718047826087	9.099954584370488	11.049198254295018	Good	Good	
27	SPO-FI00433_00005_100	Teppanala	Finland	industrial	61.153	28.8101	European Envioronmental Agency (EEA)	5.206159	8.930036689924156	10.299404641856318	Good	Good	
28	SPO-FI00434_00005_100	Joutsenon keskusta	Finland	traffic	61.1171	28.4985	European Envioronmental Agency (EEA)				Very unhealthy	Very unhealthy	
29	SPO-FI00606_00005_100	Lappeenrannan keskusta 4	Finland	traffic	61.0558	28.1843	European Envioronmental Agency (EEA)	6.812015250000001	9.428424026655113	10.227613055187723	Good	Good	
30	SPO-FI00972_00005_100	Lohja Harjula	Finland	background	60.249	24.0695	European Envioronmental Agency (EEA)	7.865573	9.754634380340576	9.709381704745086	Good	Good	
31	SPO-FI00404_00005_100	Keskusta Pitkänsillankatu	Finland	traffic	63.8376	23.1316	European Envioronmental Agency (EEA)				Very unhealthy	Very unhealthy	
32	SPO-FI00892_00005_100	Kankaan Koulu	Finland	traffic	60.8704	26.701	European Envioronmental Agency (EEA)	6.476246125	9.44082732822584	10.926169105198072	Good	Good	
33	SPO-FI00179_00005_100	Pirkkala	Finland	industrial	61.3316	22.1431	European Envioronmental Agency (EEA)	7.541006166666667	8.702029933100162	9.934539670529572	Good	Good	
34	SPO-FI00184_00005_100	Kaleva	Finland	industrial	61.3135	22.135	European Envioronmental Agency (EEA)	6.531780333333334	8.04823923110962	9.208072268444559	Good	Good	
35	SPO-FI00465_00005_100	Vaasan keskusta	Finland	traffic	63.0951	21.6183	European Envioronmental Agency (EEA)				Very unhealthy	Very unhealthy	
36	SPO-FI00586_00005_100	Vaasa vesitorni	Finland	background	63.0935	21.6127	European Envioronmental Agency (EEA)				Very unhealthy	Very unhealthy	
37	SPO-FI00397_00005_100	Bottenviksvägen	Finland	traffic	63.6791	22.7184	European Envioronmental Agency (EEA)	8.650658583333334	9.553747332614401	13.453242654385773	Good	Good	
38	SPO-IS0005A_00005_103	Reykjavik Grensas	Iceland	traffic	64.1301	-21.8747	European Envioronmental Agency (EEA)	4.087629166666667	10.309084145919137	12.791567989017652	Good	Good	
39	SPO-IS0052A_00005_100	Akureyri Strandgata (við Hof)	Iceland	traffic	65.6841	-18.0882	European Envioronmental Agency (EEA)	4.380952380952381	6.914127567540044	8.312092221301535	Good	Good	
40	SPO-IS0025A_00005_100	Grundartangi Kríuvarða	Iceland	industrial	64.3736	-21.7591	European Envioronmental Agency (EEA)	3.7126625000000004	3.0550745466481084	3.7759046139924424	Good	Good	
41	SPO-IS0041A_00005_100	Grundartangi Gröf	Iceland	industrial	64.3342	-21.8357	European Envioronmental Agency (EEA)	1.757815	3.5416030261827554	4.828135303829027	Good	Good	
42	SPO-IS0037A_00005_100	Kópavogur Dalsmári	Iceland	background	64.105	-21.889	European Envioronmental Agency (EEA)	3.656566666666667	6.726902308671371	6.743170305438664	Good	Good	
43	SPO-IS0046A_00005_101	Hafnarfjörður Norðurhella	Iceland	background	64.0442	-21.9854	European Envioronmental Agency (EEA)				Very unhealthy	Very unhealthy	
44	SPO-IS0049A_00005_100	PCC norður	Iceland	industrial	66.0793	-17.3422	European Envioronmental Agency (EEA)				Very unhealthy	Very unhealthy	
45	SPO-IS0050A_00005_100	PCC suður	Iceland	industrial	66.0549	-17.3476	European Envioronmental Agency (EEA)				Very unhealthy	Very unhealthy	
46	SPO_NO0071A_5_38	Manglerud	Norway	traffic	59.8986	10.8149	European Envioronmental Agency (EEA)				Very unhealthy	Very unhealthy	
47	SPO_NO0093A_5_1039	Hjortnes	Norway	traffic	59.9113	10.704	European Envioronmental Agency (EEA)				Very unhealthy	Very unhealthy	
48	SPO_NO0095A_5_934	Smestad	Norway	traffic	59.9325	10.6699	European Envioronmental Agency (EEA)	10.091375166666667	20.267606403516687	19.30831880154817	Good	Good	
49	SPO_NO0101A_5_332	Rv 4 Aker sykehus	Norway	traffic	59.941	10.798	European Envioronmental Agency (EEA)				Very unhealthy	Very unhealthy	
50	SPO_NO0122A_5_2945	E6 Alna senter	Norway	traffic	59.9256	10.8504	European Envioronmental Agency (EEA)	8.474195708333333	15.419093132019043	14.342318576315176	Good	Good	
51	SPO_NO0002R_5_1572	Birkenesobservatoriet	Norway	background	58.3885	8.2519	European Envioronmental Agency (EEA)				Very unhealthy	Very unhealthy	
52	SPO_NO0039R_5_1546	Kårvatn	Norway	background	62.7825	8.8766	European Envioronmental Agency (EEA)				Very unhealthy	Very unhealthy	
53	SPO_NO0056R_5_1539	Hurdal25	Norway	background	60.3729	11.0741	European Envioronmental Agency (EEA)				Very unhealthy	Very unhealthy	
54	SPO_NO0011A_5_19	Kirkeveien	Norway	traffic	59.9323	10.7245	European Envioronmental Agency (EEA)	9.599401625	14.543531542238982	13.146448715873387	Good	Good	
55	SPO_NO0057A_5_41	Alnabru	Norway	traffic	59.9277	10.8466	European Envioronmental Agency (EEA)	9.722000041666668	15.9801781281181	15.277869017227836	Good	Good	
56	SPO_NO0072A_5_352	Skøyen	Norway	background	59.9197	10.6897	European Envioronmental Agency (EEA)	8.812834875	13.974072456359863	12.536407802415932	Good	Good	
57	SPO_NO0073A_5_552	Sofienbergparken	Norway	background	59.923	10.7657	European Envioronmental Agency (EEA)	9.022647958333334	12.372778581536334	11.92714608233908	Good	Good	
58	SPO_NO0083A_5_793	Bygdøy Alle	Norway	traffic	59.9193	10.6965	European Envioronmental Agency (EEA)	11.179166666666665	16.63238888201506	16.05197104163792	Good	Good	
59	SPO_NO0140A_5_3171	Spikersuppa	Norway	background	59.9141	10.736	European Envioronmental Agency (EEA)	10.643159666666667	11.839356380960215	11.8582298444665	Good	Good	
60	SPO_NO0143A_5_3173	Vahl skole	Norway	traffic	59.9169	10.766	European Envioronmental Agency (EEA)				Very unhealthy	Very unhealthy	
61	SPO_NO0146A_5_3145	Loallmenningen	Norway	background	59.9031	10.7584	European Envioronmental Agency (EEA)				Very unhealthy	Very unhealthy	
62	SPO_NO0059A_5_11	Danmarks plass	Norway	traffic	60.3741	5.3404	European Envioronmental Agency (EEA)	7.8431435416666675	12.9909377305404	13.69320355290952	Good	Good	
63	SPO_NO0108A_5_2071	Rolland Åsane	Norway	background	60.4627	5.3324	European Envioronmental Agency (EEA)	6.9680353749999995	8.859564366547957	7.380445392235465	Good	Good	
64	SPO_NO0109A_5_2067	Loddefjord	Norway	traffic	60.3611	5.2369	European Envioronmental Agency (EEA)	7.719125291666667	11.785826745240584	11.370463267616604	Good	Good	
65	SPO_NO0120A_5_2902	Klosterhaugen	Norway	background	60.3959	5.3127	European Envioronmental Agency (EEA)	8.189555958333335	10.419357610785443	10.08096628603728	Good	Good	
66	SPO_NO0121A_5_2888	Rådal	Norway	traffic	60.2943	5.3246	European Envioronmental Agency (EEA)	8.448407708333333	9.499028475388236	7.986878389897554	Good	Good	
67	SPO_NO0135A_5_3126	Backeparken	Norway	background	59.7495	10.1653	European Envioronmental Agency (EEA)	7.439818791666667	11.37361312949139	9.964945129726244	Good	Good	
68	SPO_NO0136A_5_3124	Vårveien	Norway	traffic	59.7536	10.1444	European Envioronmental Agency (EEA)	9.556201583333333	16.7448033457217	12.550441306570303	Good	Good	
69	SPO_NO0060A_5_1685	Elgeseter	Norway	traffic	63.4174	10.3968	European Envioronmental Agency (EEA)	8.143387250000002	15.013508703397667	16.1965099003004	Good	Good	
70	SPO_NO0089A_5_1082	Torvet	Norway	background	63.4304	10.3936	European Envioronmental Agency (EEA)				Very unhealthy	Very unhealthy	
71	SPO_NO0102A_5_1530	E6-Tiller	Norway	traffic	63.3576	10.3717	European Envioronmental Agency (EEA)	7.703185583333334	15.331864437331324	13.483736292175625	Good	Good	
72	SPO_NO0145A_5_3060	Omkjøringsvegen	Norway	traffic	63.4105	10.4444	European Envioronmental Agency (EEA)				Very unhealthy	Very unhealthy	
73	SPO_NO0061A_5_713	Lensmannsdalen	Norway	traffic	59.1593	9.6357	European Envioronmental Agency (EEA)				Very unhealthy	Very unhealthy	
74	SPO_NO0106A_5_1231	Sverresgate	Norway	traffic	59.1382	9.6522	European Envioronmental Agency (EEA)	14.029583333333335	16.312919056933858	16.204540169757344	Good	Good	
75	SPO_NO0115A_5_2473	Furulund	Norway	industrial	59.0573	9.6956	European Envioronmental Agency (EEA)	9.220981875000001	11.40558852320132	10.526730724003004	Good	Good	
76	SPO_NO0118A_5_2723	Knarrdalstranda	Norway	background	59.1335	9.6219	European Envioronmental Agency (EEA)	21.460627875	27.28634846728781	21.58829519023066	Moderate	Good	
77	SPO_NO0063A_5_192	Stener Heyerdahl	Norway	background	58.1489	7.9918	European Envioronmental Agency (EEA)	8.667970083333335	10.590171440787937	9.78398028663967	Good	Good	
78	SPO_NO0134A_5_3121	Bjørndalssletta	Norway	traffic	58.1623	8.0238	European Envioronmental Agency (EEA)				Very unhealthy	Very unhealthy	
79	SPO_NO0065A_5_52	Våland	Norway	background	58.9616	5.7314	European Envioronmental Agency (EEA)	8.465389833333335	13.722413477690324	12.353557089100713	Good	Good	
80	SPO_NO0076A_5_46	Kannik	Norway	traffic	58.9642	5.7279	European Envioronmental Agency (EEA)	11.021733708333334	13.487288516500723	11.511452198028564	Good	Good	
81	SPO_NO0125A_5_3017	Schancheholen	Norway	traffic	58.9519	5.7219	European Envioronmental Agency (EEA)	10.441428083333333	14.329768180847168	13.21122119737708	Good	Good	
82	SPO_NO0141A_5_3178	Vågen	Norway	background	58.9726	5.7265	European Envioronmental Agency (EEA)				Very unhealthy	Very unhealthy	
83	SPO_NO0074A_5_539	Bankplassen	Norway	traffic	61.1129	10.4649	European Envioronmental Agency (EEA)	9.275060458333334	14.83508238585099	12.554052000460418	Good	Good	
84	SPO_NO0075A_5_544	Lillehammer barnehage	Norway	background	61.1209	10.4656	European Envioronmental Agency (EEA)	7.099571583333334	10.249673490938934	9.319014113882314	Good	Good	
85	SPO_NO0079A_5_392	Hansjordnesbukta	Norway	traffic	69.6562	18.9637	European Envioronmental Agency (EEA)	13.459339958333336	25.669263093367867	20.700348895529043	Moderate	Good	
86	SPO_NO0124A_5_2957	Rambergan	Norway	background	69.6543	18.9564	European Envioronmental Agency (EEA)	12.493249708333332	19.238742040551227	16.53830851679263	Good	Good	
87	SPO_NO0084A_5_967	St.Croix	Norway	traffic	59.2103	10.9454	European Envioronmental Agency (EEA)	7.713450333333334	12.951349652331809	13.15875532316125	Good	Good	
88	SPO_NO0114A_5_2325	Bekkestua	Norway	background	59.9182	10.5839	European Envioronmental Agency (EEA)	8.629166666666668	15.918681041054104	15.368817308674688	Good	Good	
89	SPO_NO0142A_5_3183	E18 Høvik kirke	Norway	traffic	59.8988	10.5759	European Envioronmental Agency (EEA)				Very unhealthy	Very unhealthy	
90	SPO_NO0110A_5_2064	Alvim	Norway	traffic	59.2738	11.0892	European Envioronmental Agency (EEA)	7.7340600833333335	12.019333497337673	12.465442056241242	Good	Good	
91	SPO_NO0112A_5_1221	Kransen	Norway	traffic	59.4335	10.6618	European Envioronmental Agency (EEA)	11.543789291666664	19.5151831170787	17.865332976631496	Good	Good	
92	SPO_NO0119A_5_2701	Leiret	Norway	traffic	60.8836	11.5593	European Envioronmental Agency (EEA)	7.4642082499999995	10.614464884218963	10.1143943745157	Good	Good	
93	SPO_NO0104A_5_1671	Vangsveien Hamar	Norway	traffic	60.7965	11.0978	European Envioronmental Agency (EEA)				Very unhealthy	Very unhealthy	
94	SPO_NO0111A_5_1692	Vigernes	Norway	traffic	59.9555	11.074	European Envioronmental Agency (EEA)				Very unhealthy	Very unhealthy	
95	SPO_NO0128A_5_2972	Nedre Langgate	Norway	traffic	59.2637	10.4112	European Envioronmental Agency (EEA)	7.317857416666667	12.802009271538775	11.4859327647997	Good	Good	
96	SPO_NO0129A_5_2950	Solheim	Norway	traffic	59.9286	10.9532	European Envioronmental Agency (EEA)	7.423238125000001	13.840711780216383	14.027327371680219	Good	Good	
97	SPO_NO0127A_5_2964	Seljestad Rv83	Norway	traffic	68.7922	16.5374	European Envioronmental Agency (EEA)	9.468482166666668	15.165712729744289	11.453787326812744	Good	Good	
98	SPO_NO0130A_5_3000	Ringsakervegen	Norway	traffic	60.8859	10.9379	European Envioronmental Agency (EEA)	6.758333333333334	14.931042194366455	13.593958191249682	Good	Good	
99	SPO_NO0147A_5_3157	Vollaparken øst	Norway	background	59.9583	11.0429	European Envioronmental Agency (EEA)				Very unhealthy	Very unhealthy	
100	SPO-SE0001A_00005_100	Malmö Rådhuset	Sweden	background	55.6064	13.002	European Envioronmental Agency (EEA)	5.179166666666667	8.556794975114906	10.355515148328697	Good	Good	
101	SPO-SE0056A_00005_101	Landskrona Eriksgatan	Sweden	traffic	55.8774	12.8336	European Envioronmental Agency (EEA)				Very unhealthy	Very unhealthy	
102	SPO-SE0058A_00005_100	Malmö Dalaplan	Sweden	traffic	55.5847	13.0062	European Envioronmental Agency (EEA)				Very unhealthy	Very unhealthy	
103	SPO-SE0085A_00005_101	Helsingborg Drottninggatan	Sweden	traffic	56.0472	12.6916	European Envioronmental Agency (EEA)	6.112125	9.871582777603813	11.952428403108016	Good	Good	
104	SPO-SE155531_00005_100	Trelleborg Hamngatan	Sweden	traffic	55.3729	13.1575	European Envioronmental Agency (EEA)				Very unhealthy	Very unhealthy	
105	SPO-SE38350_00005_100	Lund Trollebergsvägen	Sweden	traffic	55.7033	13.1803	European Envioronmental Agency (EEA)	7.192083333333334	9.51882847495701	9.718187808990479	Good	Good	
106	SPO-SE343956_00005_100	Karlstad Jungmansgatan 8	Sweden	traffic	59.3767	13.4903	European Envioronmental Agency (EEA)				Very unhealthy	Very unhealthy	
107	SPO-SE344172_00005_100	Västerås Stora Gatan 78	Sweden	traffic	59.6077	16.5359	European Envioronmental Agency (EEA)	8.337416666666668	16.006809276083242	18.85227686425914	Good	Good	
108	SPO-SE344172_00005_101	Västerås Stora Gatan 78	Sweden	traffic	59.6077	16.5359	European Envioronmental Agency (EEA)				Very unhealthy	Very unhealthy	
109	SPO-SE0003A_00005_100	Stockholm Hornsgatan 108 Gata	Sweden	traffic	59.3172	18.0487	European Envioronmental Agency (EEA)	5.74262075	11.675129071525905	14.157075177068295	Good	Good	
110	SPO-SE0022A_00005_100	Stockholm Torkel Knutssongatan	Sweden	background	59.316	18.0578	European Envioronmental Agency (EEA)	4.531983291666667	7.170693076175192	9.00940754102624	Good	Good	
111	SPO-SE0027A_00005_100	Stockholm Sveavägen 59 Gata	Sweden	traffic	59.3408	18.0583	European Envioronmental Agency (EEA)	13.951879083333333	14.698713509932809	15.256667012753693	Good	Good	
112	SPO-SE0066A_00005_100	Norr Malma	Sweden	background	59.8324	18.6313	European Envioronmental Agency (EEA)	5.413129083333334	4.6637130405591884	6.1278105922367265	Good	Good	
113	SPO-SE0071A_00005_100	Sollentuna E4 Häggvik	Sweden	traffic	59.4435	17.9224	European Envioronmental Agency (EEA)	6.359458291666667	11.977294673090396	11.430280768353006	Good	Good	
114	SPO-SE0072A_00005_100	Södertälje Turingegatan 26	Sweden	traffic	59.1981	17.6211	European Envioronmental Agency (EEA)	6.0687	13.98989548890487	14.44566299604333	Good	Good	
115	SPO-SE0087A_00005_100	Stockholm E4/E20 Lilla Essingen	Sweden	traffic	59.3255	18.0044	European Envioronmental Agency (EEA)	9.581758291666668	19.668295155400816	21.80620736661165	Good	Good	
116	SPO-SE0114A_00005_100	Södertälje Birkakorset	Sweden	traffic	59.2013	17.6348	European Envioronmental Agency (EEA)				Very unhealthy	Very unhealthy	
117	SPO-SE0117A_00005_101	Visby Österväg 17	Sweden	traffic	57.6369	18.3036	European Envioronmental Agency (EEA)	9.370074916666667	18.890007392219875	18.444216044052787	Good	Good	
118	SPO-SE156417_00005_100	Uppsala Kungsgatan 67	Sweden	traffic	59.8571	17.6463	European Envioronmental Agency (EEA)	15.468024916666666	19.406309625376824	18.888602961664613	Good	Good	
119	SPO-SE157992_00005_100	Stockholm St Eriksgatan 83	Sweden	traffic	59.3405	18.037	European Envioronmental Agency (EEA)	8.918749958333335	15.028547121130902	15.353800607764203	Good	Good	
120	SPO-SE157993_00005_100	Stockholm E4 Skonertvägen	Sweden	traffic	59.3133	18.004	European Envioronmental Agency (EEA)				Very unhealthy	Very unhealthy	
121	SPO-SE159402_00005_100	Sollentuna Danderydsvägen	Sweden	traffic	59.4459	17.955	European Envioronmental Agency (EEA)	5.666112458333333	9.964222254960433	11.70551822496497	Good	Good	
122	SPO-SE159403_00005_100	Stockholm Folkungagatan 70	Sweden	traffic	59.3146	18.0771	European Envioronmental Agency (EEA)				Very unhealthy	Very unhealthy	
123	SPO-SE159404_00005_100	Uppsala Dragarbrunnsgatan 23 tak	Sweden	background	59.8605	17.6376	European Envioronmental Agency (EEA)	4.86045	8.089014488717783	8.241153613380764	Good	Good	
124	SPO-SE164905_00005_100	Solna Råsundavägen 107	Sweden	traffic	59.3651	17.9969	European Envioronmental Agency (EEA)				Very unhealthy	Very unhealthy	
125	SPO-SE274652_00005_100	Sollentuna Sollentunavägen 192	Sweden	traffic	59.4336	17.9497	European Envioronmental Agency (EEA)	8.391858333333333	13.723489118658978	14.856197875478994	Good	Good	
126	SPO-SE301111_00005_100	Norrköping Kungsgatan 32	Sweden	traffic	58.5915	16.1779	European Envioronmental Agency (EEA)	7.702908333333333	10.920835266942563	12.15870011371115	Good	Good	
127	SPO-SE301113_00005_100	Norrköping Trädgårdsgatan 21	Sweden	background	58.592	16.1893	European Envioronmental Agency (EEA)	4.503620833333334	5.942579808442489	7.571129633032757	Good	Good	
128	SPO-SE301757_00005_100	Sundbyberg Tulegatan 9	Sweden	traffic	59.3643	17.9763	European Envioronmental Agency (EEA)	9.161879125	13.908673120581586	13.777928062107252	Good	Good	
129	SPO-SE313381_00005_100	Visby Brömsebroväg 8	Sweden	background	57.6399	18.3097	European Envioronmental Agency (EEA)	6.0648375	11.548536114070727	10.55482356444649	Good	Good	
130	SPO-SE338683_00005_100	Gävle Staketgatan 22	Sweden	traffic	60.6762	17.1376	European Envioronmental Agency (EEA)	7.798508291666667	10.13738577262215	17.671794455984365	Good	Good	
131	SPO-SE338685_00005_100	Linköping Hamngatan 10	Sweden	traffic	58.4124	15.6301	European Envioronmental Agency (EEA)	6.279095791666667	16.351571995279063	15.793136057646379	Good	Good	
132	SPO-SE344250_00005_100	Danderyd Gymnasiet	Sweden	background	59.4156	18.0424	European Envioronmental Agency (EEA)				Very unhealthy	Very unhealthy	
133	SPO-SE344252_00005_100	Danderyd Mörbyskolan	Sweden	background	59.3939	18.0441	European Envioronmental Agency (EEA)				Very unhealthy	Very unhealthy	
134	SPO-SE37479_00005_100	Sollentuna Ekmans Väg 11	Sweden	traffic	59.489	17.9199	European Envioronmental Agency (EEA)	9.12185825	10.371840601382049	10.416860725568688	Good	Good	
135	SPO-SE0004A_00005_100	Göteborg Femman	Sweden	background	57.709	11.9702	European Envioronmental Agency (EEA)	8.893570833333333	14.056312353714652	14.156820297241211	Good	Good	
136	SPO-SE0005R_00005_101	Bredkälen	Sweden	background	63.8455	15.3197	European Envioronmental Agency (EEA)	3.3125	5.855112884355628	6.449957961621492	Good	Good	
137	SPO-SE0014R_00005_100	Råö	Sweden	background	57.3936	11.9142	European Envioronmental Agency (EEA)	7.475000000000001	9.080411060996678	9.66265052297841	Good	Good	
138	SPO-SE0116A_00005_100	Hallahus	Sweden	background	56.0424	13.1486	European Envioronmental Agency (EEA)				Very unhealthy	Very unhealthy	
139	SPO-SE159388_00005_100	Norunda Stenen	Sweden	background	60.0858	17.5053	European Envioronmental Agency (EEA)				Very unhealthy	Very unhealthy	
140	SPO-SE159388_00005_101	Norunda Stenen	Sweden	background	60.0858	17.5053	European Envioronmental Agency (EEA)				Very unhealthy	Very unhealthy	
141	SPO-SE0021A_00005_100	Göteborg Gårda	Sweden	traffic	57.7009	11.9946	European Envioronmental Agency (EEA)	8.604166666666666	16.745471415312394	16.500738517097805	Good	Good	
142	SPO-SE0067A_00005_100	Göteborg Haga	Sweden	traffic	57.6979	11.9605	European Envioronmental Agency (EEA)	8.17475	12.137861251831055	12.490281395290209	Good	Good	
143	SPO-SE274590_00005_100	Göteborg Övre Husargatan	Sweden	traffic	57.6937	11.9568	European Envioronmental Agency (EEA)	8.071020833333334	14.36889117697011	14.805074733236562	Good	Good	
144	SPO-SE0113A_00005_100	Borås Kungsgatan	Sweden	traffic	57.7208	12.9447	European Envioronmental Agency (EEA)				Very unhealthy	Very unhealthy	
145	SPO-SE165095_00005_100	Hedemora Gussarvsgatan	Sweden	traffic	60.2814	15.9891	European Envioronmental Agency (EEA)	5.915291666666666	11.882035421288531	15.999913070512855	Good	Good	
146	SPO-SE157868_00005_100	Jönköping Kungsgatan 2A	Sweden	traffic	57.7782	14.1595	European Envioronmental Agency (EEA)				Very unhealthy	Very unhealthy	
147	SPO-SE36365_00005_100	Jönköping Lantmätaregränd	Sweden	background	57.7816	14.1737	European Envioronmental Agency (EEA)				Very unhealthy	Very unhealthy	
148	SPO-SE0012A_00005_101	Timrå	Sweden	background	62.4868	17.3244	European Envioronmental Agency (EEA)				Very unhealthy	Very unhealthy	
149	SPO-SE0095A_00005_100	Sundsvall Köpmangatan	Sweden	traffic	62.3886	17.3089	European Envioronmental Agency (EEA)	8.164541666666667	26.300693366838537	25.59144990340523	Moderate	Moderate	
150	SPO-SE09569_00005_100	Sundsvall Bergsgatan	Sweden	traffic	62.3865	17.3032	European Envioronmental Agency (EEA)	11.048708333333332	29.160542944203254	28.837208955184273	Moderate	Moderate	
151	SPO-SE313140_00005_100	Örnsköldsvik Centralesplanaden - Nygatan 24	Sweden	traffic	63.2918	18.7175	European Envioronmental Agency (EEA)	5.787499999999999	10.362843741541324	11.763137361277705	Good	Good	
152	SPO-SE181002_00005_100	Växjö Liedbergsgatan 11	Sweden	traffic	56.8799	14.7993	European Envioronmental Agency (EEA)	5.358333333333334	7.210725006849869	8.227932390959367	Good	Good	
153	SPO-SE32288_00005_100	Karlskrona N Smedjegatan Ö Köpmansgatan	Sweden	traffic	56.164	15.5889	European Envioronmental Agency (EEA)	6.658333333333334	11.582479145215904	12.514457889225172	Good	Good	
154	SPO-SE181993_00005_100	Kalmar Södra Vägen	Sweden	traffic	56.6642	16.3336	European Envioronmental Agency (EEA)	8.604166666666666	12.371552550274393	12.60096846456113	Good	Good	
155	SPO-SE36364_00005_100	Örebro Rudbecksskolan	Sweden	traffic	59.2683	15.2149	European Envioronmental Agency (EEA)				Very unhealthy	Very unhealthy	
156	SPO-SE181259_00005_100	Östersund Rådhusgatan	Sweden	traffic	63.1739	14.6411	European Envioronmental Agency (EEA)	3.9375	9.610220888386602	17.197748391524605	Good	Good	
157	SPO-SE0059A_00005_100	Umeå Västra Esplanaden	Sweden	traffic	63.8289	20.2585	European Envioronmental Agency (EEA)	7.354166666666667	15.284982930059018	17.305981055549953	Good	Good	
158	SPO-SE274953_00005_100	Skellefteå Kv Pantern	Sweden	traffic	64.7495	20.9601	European Envioronmental Agency (EEA)	7.668995833333334	12.543551299882973	15.950353622436523	Good	Good	
159	SPO-SE0100A_00005_100	Luleå Sandviksgatan	Sweden	traffic	65.5806	22.1404	European Envioronmental Agency (EEA)				Very unhealthy	Very unhealthy	
160	SPO-SE31752_00005_100	Piteå Prästgårdsgatan	Sweden	traffic	65.3181	21.4792	European Envioronmental Agency (EEA)				Very unhealthy	Very unhealthy	
161	FI_5_101983	Muonio Sammaltunturi	Finland		67.97	24.12	Finnish Meteorological Institute	8.75	5.5927952994471015	4.777802197829537	Good	Good	
162	FI_5_100656	Virolahti Koivuniemi Ääpälä	Finland		60.53	27.68	Finnish Meteorological Institute				Very unhealthy	Very unhealthy	
