	Station Code	Station Name	Country	Station type	Latitude	Longitude	Network	PM10 measured concentration (microg/m^3)	PM10 today forecast mean concentration (microg/m^3)	PM10 tomorrow forecast mean concentration (microg/m^3)	Today air quality	Tomorrow air quality	Actions
0	SPO-DK0034A_00005_100	Copenhagen/1103	Denmark	traffic	55.6743	12.5711	European Envioronmental Agency (EEA)				Very unhealthy	Very unhealthy	
1	SPO-DK0012R_00005_101	Risoe	Denmark	background	55.6942	12.0889	European Envioronmental Agency (EEA)	12.983333333333334	13.245864370594854	12.187104473943295	Good	Good	
2	SPO-FI00570_00005_100	Raahen keskusta 2	Finland	traffic	64.6834	24.4816	European Envioronmental Agency (EEA)	10.467494291666668	11.921710677768873	10.01256922016973	Good	Good	
3	SPO-FI00349_00005_100	Utö	Finland	background	59.7792	21.374	European Envioronmental Agency (EEA)	8.462843214285714	5.240289366763571	4.834713728531547	Good	Good	
4	SPO-FI00427_00005_100	Matorova	Finland	background	68.0005	24.2457	European Envioronmental Agency (EEA)	4.9755641666666675	6.102242044780565	5.7407615703085195	Good	Good	
5	SPO-FI00893_00005_100	Virolahti 2	Finland	background	60.53	27.6754	European Envioronmental Agency (EEA)				Very unhealthy	Very unhealthy	
6	SPO-FI00549_00005_100	Pirkankatu	Finland	traffic	61.4987	23.7357	European Envioronmental Agency (EEA)				Very unhealthy	Very unhealthy	
7	SPO-FI00838_00005_100	Epila 2	Finland	traffic	61.5085	23.6758	European Envioronmental Agency (EEA)	8.911709083333333	10.719506346661111	12.43499111092609	Good	Good	
8	SPO-FI00208_00005_101	Luukki	Finland	background	60.3144	24.6849	European Envioronmental Agency (EEA)	7.4333995	10.31950332807458	9.15756835108218	Good	Good	
9	SPO-FI00370_00005_100	Tikkurila 3	Finland	traffic	60.2899	25.0395	European Envioronmental Agency (EEA)	10.093172083333334	12.381151862766432	11.380718956822934	Good	Good	
10	SPO-FI00425_00005_100	Kallio 2	Finland	background	60.1874	24.9506	European Envioronmental Agency (EEA)	8.896033791666667	10.198711001354715	9.477773168812627	Good	Good	
11	SPO-FI00564_00005_100	Mannerheimintie	Finland	traffic	60.1696	24.9392	European Envioronmental Agency (EEA)	16.035096291666665	18.65179891171663	15.916727522145147	Good	Good	
12	SPO-FI00781_00005_100	Vartiokylä Huivipolku	Finland	background	60.2239	25.1024	European Envioronmental Agency (EEA)	7.17492861904762	8.23637696971064	7.5077077824136484	Good	Good	
13	SPO-FI00841_00005_100	Leppävaara 4	Finland	traffic	60.2202	24.8113	European Envioronmental Agency (EEA)	13.316271416666666	18.681251318558402	14.28869160361912	Good	Good	
14	SPO-FI00902_00005_100	Mäkelänkatu	Finland	traffic	60.1964	24.952	European Envioronmental Agency (EEA)				Very unhealthy	Very unhealthy	
15	SPO-FI00301_00005_100	Pyykösjärvi	Finland	background	65.0434	25.4979	European Envioronmental Agency (EEA)	12.713949875000003	12.733506368554156	10.563318045242973	Good	Good	
16	SPO-FI00446_00005_100	Oulun keskusta 2	Finland	traffic	65.01	25.4713	European Envioronmental Agency (EEA)	17.61148079166667	15.312607433484947	13.985653172368588	Good	Good	
17	SPO-FI00952_00005_100	Jyväskylä Hannikaisenkatu	Finland	traffic	62.2382	25.7479	European Envioronmental Agency (EEA)	8.802741625000001	10.676510416943094	9.342304727305537	Good	Good	
18	SPO-FI00455_00005_100	Laune	Finland	traffic	60.967	25.6549	European Envioronmental Agency (EEA)	8.239589916666668	9.748274616573168	10.360935667286748	Good	Good	
19	SPO-FI00889_00005_100	Saimaankatu	Finland	traffic	60.9913	25.6658	European Envioronmental Agency (EEA)	7.300700708333334	10.20225075016851	9.762082224306853	Good	Good	
20	SPO-FI00444_00005_100	Naantalin keskusta	Finland	traffic	60.4674	22.0284	European Envioronmental Agency (EEA)	9.610121791666668	13.220909699149754	12.016372141630754	Good	Good	
21	SPO-FI00558_00005_100	Maaherrankatu	Finland	traffic	62.8933	27.6869	European Envioronmental Agency (EEA)	8.108416625	8.611333536065143	10.726150512695312	Good	Good	
22	SPO-FI00839_00005_100	Tasavallankatu	Finland	traffic	62.882	27.6619	European Envioronmental Agency (EEA)	13.566608666666667	15.482061862945557	13.818450471629268	Good	Good	
23	SPO-FI00928_00005_100	Pori Paanakedonkatu	Finland	traffic	61.4823	21.8133	European Envioronmental Agency (EEA)	11.882500285714288	8.186250914698062	8.852476109629093	Good	Good	
24	SPO-FI00080_00005_100	Rautionkylä	Finland	traffic	61.2381	28.8737	European Envioronmental Agency (EEA)				Very unhealthy	Very unhealthy	
25	SPO-FI00378_00005_100	Lauritsala	Finland	traffic	61.0719	28.2641	European Envioronmental Agency (EEA)				Very unhealthy	Very unhealthy	
26	SPO-FI00424_00005_100	Mansikkala	Finland	traffic	61.1889	28.7701	European Envioronmental Agency (EEA)	7.331481041666668	7.840601713761039	8.092989548392918	Good	Good	
27	SPO-FI00433_00005_100	Teppanala	Finland	industrial	61.153	28.8101	European Envioronmental Agency (EEA)	6.740126333333333	6.797088851099429	6.889010346454123	Good	Good	
28	SPO-FI00434_00005_100	Joutsenon keskusta	Finland	traffic	61.1171	28.4985	European Envioronmental Agency (EEA)	4.477665708333333	6.306703526040782	6.780297963515572	Good	Good	
29	SPO-FI00606_00005_100	Lappeenrannan keskusta 4	Finland	traffic	61.0558	28.1843	European Envioronmental Agency (EEA)	10.323799958333334	11.029712345289147	10.205822986105215	Good	Good	
30	SPO-FI00972_00005_100	Lohja Harjula	Finland	background	60.249	24.0695	European Envioronmental Agency (EEA)	8.011820625	8.251956856769064	7.886641377988069	Good	Good	
31	SPO-FI00404_00005_100	Keskusta Pitkänsillankatu	Finland	traffic	63.8376	23.1316	European Envioronmental Agency (EEA)				Very unhealthy	Very unhealthy	
32	SPO-FI00892_00005_100	Kankaan Koulu	Finland	traffic	60.8704	26.701	European Envioronmental Agency (EEA)	9.450797583333333	8.142674093661102	9.784456895745318	Good	Good	
33	SPO-FI00179_00005_100	Pirkkala	Finland	industrial	61.3316	22.1431	European Envioronmental Agency (EEA)	10.038107458333334	7.898993305538012	9.076967425968336	Good	Good	
34	SPO-FI00184_00005_100	Kaleva	Finland	industrial	61.3135	22.135	European Envioronmental Agency (EEA)	9.717560375	7.506110647450322	8.224210407422936	Good	Good	
35	SPO-FI00465_00005_100	Vaasan keskusta	Finland	traffic	63.0951	21.6183	European Envioronmental Agency (EEA)	12.212959875000001	17.053309108899988	15.73688274881114	Good	Good	
36	SPO-FI00586_00005_100	Vaasa vesitorni	Finland	background	63.0935	21.6127	European Envioronmental Agency (EEA)				Very unhealthy	Very unhealthy	
37	SPO-FI00397_00005_100	Bottenviksvägen	Finland	traffic	63.6791	22.7184	European Envioronmental Agency (EEA)	15.338404083333335	12.059691885243291	14.05764797459478	Good	Good	
38	SPO-IS0005A_00005_103	Reykjavik Grensas	Iceland	traffic	64.1301	-21.8747	European Envioronmental Agency (EEA)				Very unhealthy	Very unhealthy	
39	SPO-IS0052A_00005_100	Akureyri Strandgata (við Hof)	Iceland	traffic	65.6841	-18.0882	European Envioronmental Agency (EEA)	5.590909090909091	10.307681975157365	12.826711136361826	Good	Good	
40	SPO-IS0025A_00005_100	Grundartangi Kríuvarða	Iceland	industrial	64.3736	-21.7591	European Envioronmental Agency (EEA)				Very unhealthy	Very unhealthy	
41	SPO-IS0041A_00005_100	Grundartangi Gröf	Iceland	industrial	64.3342	-21.8357	European Envioronmental Agency (EEA)				Very unhealthy	Very unhealthy	
42	SPO-IS0037A_00005_100	Kópavogur Dalsmári	Iceland	background	64.105	-21.889	European Envioronmental Agency (EEA)	5.824991666666667	7.94973855951558	8.510363371475883	Good	Good	
43	SPO-IS0046A_00005_101	Hafnarfjörður Norðurhella	Iceland	background	64.0442	-21.9854	European Envioronmental Agency (EEA)	4.434782083333334	8.883107081703518	8.466641778531281	Good	Good	
44	SPO-IS0049A_00005_100	PCC norður	Iceland	industrial	66.0793	-17.3422	European Envioronmental Agency (EEA)	6.654239130434783	7.029793905175251	7.399570548016092	Good	Good	
45	SPO-IS0050A_00005_100	PCC suður	Iceland	industrial	66.0549	-17.3476	European Envioronmental Agency (EEA)	3.0780314285714288	4.48708480855693	4.834435991618944	Good	Good	
46	SPO_NO0071A_5_38	Manglerud	Norway	traffic	59.8986	10.8149	European Envioronmental Agency (EEA)	14.107500000000002	11.199843427409297	15.10355397929316	Good	Good	
47	SPO_NO0093A_5_1039	Hjortnes	Norway	traffic	59.9113	10.704	European Envioronmental Agency (EEA)	12.122916666666669	12.807776658431344	17.75731671374777	Good	Good	
48	SPO_NO0095A_5_934	Smestad	Norway	traffic	59.9325	10.6699	European Envioronmental Agency (EEA)	20.585290375000003	15.075504406638768	18.07199484369029	Good	Good	
49	SPO_NO0101A_5_332	Rv 4 Aker sykehus	Norway	traffic	59.941	10.798	European Envioronmental Agency (EEA)				Very unhealthy	Very unhealthy	
50	SPO_NO0122A_5_2945	E6 Alna senter	Norway	traffic	59.9256	10.8504	European Envioronmental Agency (EEA)	10.22002975	9.119213280470476	13.2298830592114	Good	Good	
51	SPO_NO0002R_5_1572	Birkenesobservatoriet	Norway	background	58.3885	8.2519	European Envioronmental Agency (EEA)				Very unhealthy	Very unhealthy	
52	SPO_NO0039R_5_1546	Kårvatn	Norway	background	62.7825	8.8766	European Envioronmental Agency (EEA)				Very unhealthy	Very unhealthy	
53	SPO_NO0056R_5_1539	Hurdal25	Norway	background	60.3729	11.0741	European Envioronmental Agency (EEA)				Very unhealthy	Very unhealthy	
54	SPO_NO0011A_5_19	Kirkeveien	Norway	traffic	59.9323	10.7245	European Envioronmental Agency (EEA)	11.733818000000001	11.337000038312828	13.408350737198539	Good	Good	
55	SPO_NO0057A_5_41	Alnabru	Norway	traffic	59.9277	10.8466	European Envioronmental Agency (EEA)	13.588905391304346	10.061504509138024	13.444236402926238	Good	Good	
56	SPO_NO0072A_5_352	Skøyen	Norway	background	59.9197	10.6897	European Envioronmental Agency (EEA)	10.520058749999999	9.1040329311205	11.28832253165867	Good	Good	
57	SPO_NO0073A_5_552	Sofienbergparken	Norway	background	59.923	10.7657	European Envioronmental Agency (EEA)	7.922673076923077	7.104515977527784	8.719132983166238	Good	Good	
58	SPO_NO0083A_5_793	Bygdøy Alle	Norway	traffic	59.9193	10.6965	European Envioronmental Agency (EEA)	12.058333333333335	12.012618977090586	15.638028559477434	Good	Good	
59	SPO_NO0140A_5_3171	Spikersuppa	Norway	background	59.9141	10.736	European Envioronmental Agency (EEA)	9.313012666666667	6.414947711903116	8.260498813960863	Good	Good	
60	SPO_NO0143A_5_3173	Vahl skole	Norway	traffic	59.9169	10.766	European Envioronmental Agency (EEA)	8.745833333333335	6.792701731557432	8.584193250407344	Good	Good	
61	SPO_NO0146A_5_3145	Loallmenningen	Norway	background	59.9031	10.7584	European Envioronmental Agency (EEA)				Very unhealthy	Very unhealthy	
62	SPO_NO0059A_5_11	Danmarks plass	Norway	traffic	60.3741	5.3404	European Envioronmental Agency (EEA)	10.575496125	11.163206058999766	12.859476462654445	Good	Good	
63	SPO_NO0108A_5_2071	Rolland Åsane	Norway	background	60.4627	5.3324	European Envioronmental Agency (EEA)	8.916398000000001	8.196476459503174	8.089237213134766	Good	Good	
64	SPO_NO0109A_5_2067	Loddefjord	Norway	traffic	60.3611	5.2369	European Envioronmental Agency (EEA)	10.549255833333333	9.994664751965066	11.955312003260074	Good	Good	
65	SPO_NO0120A_5_2902	Klosterhaugen	Norway	background	60.3959	5.3127	European Envioronmental Agency (EEA)	9.986359458333334	9.285755675771963	9.325610637664795	Good	Good	
66	SPO_NO0121A_5_2888	Rådal	Norway	traffic	60.2943	5.3246	European Envioronmental Agency (EEA)	11.510048583333335	11.254290000252102	11.578066991723102	Good	Good	
67	SPO_NO0135A_5_3126	Backeparken	Norway	background	59.7495	10.1653	European Envioronmental Agency (EEA)	7.345833333333334	7.34957334269648	7.494242605955704	Good	Good	
68	SPO_NO0136A_5_3124	Vårveien	Norway	traffic	59.7536	10.1444	European Envioronmental Agency (EEA)	10.695833333333335	10.250320185785709	10.970238789268162	Good	Good	
69	SPO_NO0060A_5_1685	Elgeseter	Norway	traffic	63.4174	10.3968	European Envioronmental Agency (EEA)	6.29524647826087	9.437172972637674	10.3743344389874	Good	Good	
70	SPO_NO0089A_5_1082	Torvet	Norway	background	63.4304	10.3936	European Envioronmental Agency (EEA)				Very unhealthy	Very unhealthy	
71	SPO_NO0102A_5_1530	E6-Tiller	Norway	traffic	63.3576	10.3717	European Envioronmental Agency (EEA)	9.71269631818182	9.869540359662926	11.09673255422841	Good	Good	
72	SPO_NO0145A_5_3060	Omkjøringsvegen	Norway	traffic	63.4105	10.4444	European Envioronmental Agency (EEA)	4.683821458333334	4.802797094635341	4.928811156231424	Good	Good	
73	SPO_NO0061A_5_713	Lensmannsdalen	Norway	traffic	59.1593	9.6357	European Envioronmental Agency (EEA)	20.344500000000004	15.525605906610904	18.589851089145828	Good	Good	
74	SPO_NO0106A_5_1231	Sverresgate	Norway	traffic	59.1382	9.6522	European Envioronmental Agency (EEA)	21.344583333333333	10.34864382121874	11.796355081641156	Good	Good	
75	SPO_NO0115A_5_2473	Furulund	Norway	industrial	59.0573	9.6956	European Envioronmental Agency (EEA)	7.2421409583333345	6.838791142339292	9.4592082604118	Good	Good	
76	SPO_NO0118A_5_2723	Knarrdalstranda	Norway	background	59.1335	9.6219	European Envioronmental Agency (EEA)	11.495291291666668	11.29486200083857	13.10777531499448	Good	Good	
77	SPO_NO0063A_5_192	Stener Heyerdahl	Norway	background	58.1489	7.9918	European Envioronmental Agency (EEA)	11.097287958333334	10.44037387682044	10.404760422913924	Good	Good	
78	SPO_NO0134A_5_3121	Bjørndalssletta	Norway	traffic	58.1623	8.0238	European Envioronmental Agency (EEA)	10.793852291666667	9.633199038712874	10.071553147357443	Good	Good	
79	SPO_NO0065A_5_52	Våland	Norway	background	58.9616	5.7314	European Envioronmental Agency (EEA)	13.278477666666667	15.057397552158521	13.417456834212594	Good	Good	
80	SPO_NO0076A_5_46	Kannik	Norway	traffic	58.9642	5.7279	European Envioronmental Agency (EEA)	10.263273916666668	12.233995085177215	10.914768447046695	Good	Good	
81	SPO_NO0125A_5_3017	Schancheholen	Norway	traffic	58.9519	5.7219	European Envioronmental Agency (EEA)	5.804195833333334	9.898959035458772	9.620915765347688	Good	Good	
82	SPO_NO0141A_5_3178	Vågen	Norway	background	58.9726	5.7265	European Envioronmental Agency (EEA)	9.168630333333335	8.032682004182234	8.901092114655867	Good	Good	
83	SPO_NO0074A_5_539	Bankplassen	Norway	traffic	61.1129	10.4649	European Envioronmental Agency (EEA)	8.493256625	21.67112105825673	17.977266042128853	Good	Good	
84	SPO_NO0075A_5_544	Lillehammer barnehage	Norway	background	61.1209	10.4656	European Envioronmental Agency (EEA)	5.367224208333333	8.094100765559984	8.139485234799592	Good	Good	
85	SPO_NO0079A_5_392	Hansjordnesbukta	Norway	traffic	69.6562	18.9637	European Envioronmental Agency (EEA)	32.92468016666667	11.840361532957658	14.449482461680537	Good	Good	
86	SPO_NO0124A_5_2957	Rambergan	Norway	background	69.6543	18.9564	European Envioronmental Agency (EEA)	15.268152458333333	8.843950789907705	9.327202071314273	Good	Good	
87	SPO_NO0084A_5_967	St.Croix	Norway	traffic	59.2103	10.9454	European Envioronmental Agency (EEA)	11.215115250000002	10.626236148502516	13.859071648639182	Good	Good	
88	SPO_NO0114A_5_2325	Bekkestua	Norway	background	59.9182	10.5839	European Envioronmental Agency (EEA)	8.025	7.567639299060987	10.5598972880322	Good	Good	
89	SPO_NO0142A_5_3183	E18 Høvik kirke	Norway	traffic	59.8988	10.5759	European Envioronmental Agency (EEA)				Very unhealthy	Very unhealthy	
90	SPO_NO0110A_5_2064	Alvim	Norway	traffic	59.2738	11.0892	European Envioronmental Agency (EEA)	10.098695166666667	10.208791007166324	12.477835841800855	Good	Good	
91	SPO_NO0112A_5_1221	Kransen	Norway	traffic	59.4335	10.6618	European Envioronmental Agency (EEA)	10.244727166666667	11.41062625594761	11.87717054201209	Good	Good	
92	SPO_NO0119A_5_2701	Leiret	Norway	traffic	60.8836	11.5593	European Envioronmental Agency (EEA)	6.677690958333334	6.907335581986801	7.818713727204696	Good	Good	
93	SPO_NO0104A_5_1671	Vangsveien Hamar	Norway	traffic	60.7965	11.0978	European Envioronmental Agency (EEA)				Very unhealthy	Very unhealthy	
94	SPO_NO0111A_5_1692	Vigernes	Norway	traffic	59.9555	11.074	European Envioronmental Agency (EEA)				Very unhealthy	Very unhealthy	
95	SPO_NO0128A_5_2972	Nedre Langgate	Norway	traffic	59.2637	10.4112	European Envioronmental Agency (EEA)	9.047895333333335	7.944919752038044	12.476263046264648	Good	Good	
96	SPO_NO0129A_5_2950	Solheim	Norway	traffic	59.9286	10.9532	European Envioronmental Agency (EEA)	11.195561333333332	9.213103284006534	13.466035324594248	Good	Good	
97	SPO_NO0127A_5_2964	Seljestad Rv83	Norway	traffic	68.7922	16.5374	European Envioronmental Agency (EEA)	15.522876125000002	5.615625765012658	7.450926246850387	Good	Good	
98	SPO_NO0130A_5_3000	Ringsakervegen	Norway	traffic	60.8859	10.9379	European Envioronmental Agency (EEA)	7.833333333333333	8.183576107025146	8.24273821581965	Good	Good	
99	SPO_NO0147A_5_3157	Vollaparken øst	Norway	background	59.9583	11.0429	European Envioronmental Agency (EEA)				Very unhealthy	Very unhealthy	
100	SPO-SE0001A_00005_100	Malmö Rådhuset	Sweden	background	55.6064	13.002	European Envioronmental Agency (EEA)	10.692916666666667	9.143611721370531	9.307136245395826	Good	Good	
101	SPO-SE0056A_00005_101	Landskrona Eriksgatan	Sweden	traffic	55.8774	12.8336	European Envioronmental Agency (EEA)				Very unhealthy	Very unhealthy	
102	SPO-SE0058A_00005_100	Malmö Dalaplan	Sweden	traffic	55.5847	13.0062	European Envioronmental Agency (EEA)	10.3575	9.3626214939615	10.975351250689963	Good	Good	
103	SPO-SE0085A_00005_101	Helsingborg Drottninggatan	Sweden	traffic	56.0472	12.6916	European Envioronmental Agency (EEA)	10.438416666666667	8.960008517555568	9.777177810668945	Good	Good	
104	SPO-SE155531_00005_100	Trelleborg Hamngatan	Sweden	traffic	55.3729	13.1575	European Envioronmental Agency (EEA)				Very unhealthy	Very unhealthy	
105	SPO-SE38350_00005_100	Lund Trollebergsvägen	Sweden	traffic	55.7033	13.1803	European Envioronmental Agency (EEA)	6.730833333333334	9.641485483750053	8.841317508531654	Good	Good	
106	SPO-SE343956_00005_100	Karlstad Jungmansgatan 8	Sweden	traffic	59.3767	13.4903	European Envioronmental Agency (EEA)				Very unhealthy	Very unhealthy	
107	SPO-SE344172_00005_100	Västerås Stora Gatan 78	Sweden	traffic	59.6077	16.5359	European Envioronmental Agency (EEA)	9.539125	10.863824346791143	14.819867921912152	Good	Good	
108	SPO-SE344172_00005_101	Västerås Stora Gatan 78	Sweden	traffic	59.6077	16.5359	European Envioronmental Agency (EEA)				Very unhealthy	Very unhealthy	
109	SPO-SE0003A_00005_100	Stockholm Hornsgatan 108 Gata	Sweden	traffic	59.3172	18.0487	European Envioronmental Agency (EEA)	14.178354166666667	10.20121022929316	10.861155738001285	Good	Good	
110	SPO-SE0022A_00005_100	Stockholm Torkel Knutssongatan	Sweden	background	59.316	18.0578	European Envioronmental Agency (EEA)	9.554347315789474			Very unhealthy	Very unhealthy	
111	SPO-SE0027A_00005_100	Stockholm Sveavägen 59 Gata	Sweden	traffic	59.3408	18.0583	European Envioronmental Agency (EEA)	23.712749791666667	18.881419015967328	16.473857091820758	Good	Good	
112	SPO-SE0066A_00005_100	Norr Malma	Sweden	background	59.8324	18.6313	European Envioronmental Agency (EEA)	7.370741625000001	6.1234619513801904	6.840252834817638	Good	Good	
113	SPO-SE0071A_00005_100	Sollentuna E4 Häggvik	Sweden	traffic	59.4435	17.9224	European Envioronmental Agency (EEA)	10.718554125000002	9.546754298002824	8.678189713021982	Good	Good	
114	SPO-SE0072A_00005_100	Södertälje Turingegatan 26	Sweden	traffic	59.1981	17.6211	European Envioronmental Agency (EEA)	10.016162458333334	12.42326023267663	13.476686187412428	Good	Good	
115	SPO-SE0087A_00005_100	Stockholm E4/E20 Lilla Essingen	Sweden	traffic	59.3255	18.0044	European Envioronmental Agency (EEA)				Very unhealthy	Very unhealthy	
116	SPO-SE0114A_00005_100	Södertälje Birkakorset	Sweden	traffic	59.2013	17.6348	European Envioronmental Agency (EEA)				Very unhealthy	Very unhealthy	
117	SPO-SE0117A_00005_101	Visby Österväg 17	Sweden	traffic	57.6369	18.3036	European Envioronmental Agency (EEA)	14.45649166666667	11.743872352268385	8.27741315053857	Good	Good	
118	SPO-SE156417_00005_100	Uppsala Kungsgatan 67	Sweden	traffic	59.8571	17.6463	European Envioronmental Agency (EEA)	28.72552075	17.482498998227328	17.77261087168818	Good	Good	
119	SPO-SE157992_00005_100	Stockholm St Eriksgatan 83	Sweden	traffic	59.3405	18.037	European Envioronmental Agency (EEA)	17.093470749999998	11.825795090716818	12.023146629333496	Good	Good	
120	SPO-SE157993_00005_100	Stockholm E4 Skonertvägen	Sweden	traffic	59.3133	18.004	European Envioronmental Agency (EEA)				Very unhealthy	Very unhealthy	
121	SPO-SE159402_00005_100	Sollentuna Danderydsvägen	Sweden	traffic	59.4459	17.955	European Envioronmental Agency (EEA)	13.301466583333335	11.234612278316332	9.824722601019818	Good	Good	
122	SPO-SE159403_00005_100	Stockholm Folkungagatan 70	Sweden	traffic	59.3146	18.0771	European Envioronmental Agency (EEA)				Very unhealthy	Very unhealthy	
123	SPO-SE159404_00005_100	Uppsala Dragarbrunnsgatan 23 tak	Sweden	background	59.8605	17.6376	European Envioronmental Agency (EEA)				Very unhealthy	Very unhealthy	
124	SPO-SE164905_00005_100	Solna Råsundavägen 107	Sweden	traffic	59.3651	17.9969	European Envioronmental Agency (EEA)				Very unhealthy	Very unhealthy	
125	SPO-SE274652_00005_100	Sollentuna Sollentunavägen 192	Sweden	traffic	59.4336	17.9497	European Envioronmental Agency (EEA)	12.534337375	10.577630229618238	10.983628490696782	Good	Good	
126	SPO-SE301111_00005_100	Norrköping Kungsgatan 32	Sweden	traffic	58.5915	16.1779	European Envioronmental Agency (EEA)	7.240028958333333	6.19613852708236	7.3924444447393	Good	Good	
127	SPO-SE301113_00005_100	Norrköping Trädgårdsgatan 21	Sweden	background	58.592	16.1893	European Envioronmental Agency (EEA)	6.1306875000000005	5.056562693222709	5.562627284423165	Good	Good	
128	SPO-SE301757_00005_100	Sundbyberg Tulegatan 9	Sweden	traffic	59.3643	17.9763	European Envioronmental Agency (EEA)	14.447874916666668	11.637037691862687	10.566195487976074	Good	Good	
129	SPO-SE313381_00005_100	Visby Brömsebroväg 8	Sweden	background	57.6399	18.3097	European Envioronmental Agency (EEA)	8.378525	7.776765470919401	6.707040102585502	Good	Good	
130	SPO-SE338683_00005_100	Gävle Staketgatan 22	Sweden	traffic	60.6762	17.1376	European Envioronmental Agency (EEA)	13.087216541666669	9.326881750770237	13.705273648966914	Good	Good	
131	SPO-SE338685_00005_100	Linköping Hamngatan 10	Sweden	traffic	58.4124	15.6301	European Envioronmental Agency (EEA)	12.28103325	9.190376737843389	12.493924825087838	Good	Good	
132	SPO-SE344250_00005_100	Danderyd Gymnasiet	Sweden	background	59.4156	18.0424	European Envioronmental Agency (EEA)				Very unhealthy	Very unhealthy	
133	SPO-SE344252_00005_100	Danderyd Mörbyskolan	Sweden	background	59.3939	18.0441	European Envioronmental Agency (EEA)				Very unhealthy	Very unhealthy	
134	SPO-SE37479_00005_100	Sollentuna Ekmans Väg 11	Sweden	traffic	59.489	17.9199	European Envioronmental Agency (EEA)	13.31543325	29.884375364884086	20.954504054525625	Moderate	Good	
135	SPO-SE0004A_00005_100	Göteborg Femman	Sweden	background	57.709	11.9702	European Envioronmental Agency (EEA)	13.779400416666666	13.892989158630371	14.248965802400008	Good	Good	
136	SPO-SE0005R_00005_101	Bredkälen	Sweden	background	63.8455	15.3197	European Envioronmental Agency (EEA)	4.665217391304348	2.1697660062624062	2.5680963785752007	Good	Good	
137	SPO-SE0014R_00005_100	Råö	Sweden	background	57.3936	11.9142	European Envioronmental Agency (EEA)	15.370833333333332	10.529630785403045	10.710998949797258	Good	Good	
138	SPO-SE0116A_00005_100	Hallahus	Sweden	background	56.0424	13.1486	European Envioronmental Agency (EEA)				Very unhealthy	Very unhealthy	
139	SPO-SE159388_00005_100	Norunda Stenen	Sweden	background	60.0858	17.5053	European Envioronmental Agency (EEA)				Very unhealthy	Very unhealthy	
140	SPO-SE159388_00005_101	Norunda Stenen	Sweden	background	60.0858	17.5053	European Envioronmental Agency (EEA)	6.571836363636364	4.8064466870349385	6.12116351334945	Good	Good	
141	SPO-SE0021A_00005_100	Göteborg Gårda	Sweden	traffic	57.7009	11.9946	European Envioronmental Agency (EEA)	9.257818181818182	11.933275948400082	14.906813600788945	Good	Good	
142	SPO-SE0067A_00005_100	Göteborg Haga	Sweden	traffic	57.6979	11.9605	European Envioronmental Agency (EEA)	15.636457083333333	14.361453346584154	15.375781349513842	Good	Good	
143	SPO-SE274590_00005_100	Göteborg Övre Husargatan	Sweden	traffic	57.6937	11.9568	European Envioronmental Agency (EEA)	17.234957500000004	17.02770693405815	17.515921178071395	Good	Good	
144	SPO-SE0113A_00005_100	Borås Kungsgatan	Sweden	traffic	57.7208	12.9447	European Envioronmental Agency (EEA)				Very unhealthy	Very unhealthy	
145	SPO-SE165095_00005_100	Hedemora Gussarvsgatan	Sweden	traffic	60.2814	15.9891	European Envioronmental Agency (EEA)	8.647916666666667	7.010257409966511	10.14300365033357	Good	Good	
146	SPO-SE157868_00005_100	Jönköping Kungsgatan 2A	Sweden	traffic	57.7782	14.1595	European Envioronmental Agency (EEA)				Very unhealthy	Very unhealthy	
147	SPO-SE36365_00005_100	Jönköping Lantmätaregränd	Sweden	background	57.7816	14.1737	European Envioronmental Agency (EEA)				Very unhealthy	Very unhealthy	
148	SPO-SE0012A_00005_101	Timrå	Sweden	background	62.4868	17.3244	European Envioronmental Agency (EEA)				Very unhealthy	Very unhealthy	
149	SPO-SE0095A_00005_100	Sundsvall Köpmangatan	Sweden	traffic	62.3886	17.3089	European Envioronmental Agency (EEA)	13.931708333333333	13.853871262591818	14.959491169970969	Good	Good	
150	SPO-SE09569_00005_100	Sundsvall Bergsgatan	Sweden	traffic	62.3865	17.3032	European Envioronmental Agency (EEA)	17.422833333333333	35.925238484921664	25.815355549687926	Moderate	Moderate	
151	SPO-SE313140_00005_100	Örnsköldsvik Centralesplanaden - Nygatan 24	Sweden	traffic	63.2918	18.7175	European Envioronmental Agency (EEA)				Very unhealthy	Very unhealthy	
152	SPO-SE181002_00005_100	Växjö Liedbergsgatan 11	Sweden	traffic	56.8799	14.7993	European Envioronmental Agency (EEA)	9.2125	7.239779379056848	7.103847628054411	Good	Good	
153	SPO-SE32288_00005_100	Karlskrona N Smedjegatan Ö Köpmansgatan	Sweden	traffic	56.164	15.5889	European Envioronmental Agency (EEA)				Very unhealthy	Very unhealthy	
154	SPO-SE181993_00005_100	Kalmar Södra Vägen	Sweden	traffic	56.6642	16.3336	European Envioronmental Agency (EEA)	11.691666666666668	8.987906186476998	9.508625465890635	Good	Good	
155	SPO-SE36364_00005_100	Örebro Rudbecksskolan	Sweden	traffic	59.2683	15.2149	European Envioronmental Agency (EEA)				Very unhealthy	Very unhealthy	
156	SPO-SE181259_00005_100	Östersund Rådhusgatan	Sweden	traffic	63.1739	14.6411	European Envioronmental Agency (EEA)	5.845833333333334	5.581284098003222	9.589305670365043	Good	Good	
157	SPO-SE0059A_00005_100	Umeå Västra Esplanaden	Sweden	traffic	63.8289	20.2585	European Envioronmental Agency (EEA)	9.220833333333333	11.312712793764861	14.43696988147238	Good	Good	
158	SPO-SE274953_00005_100	Skellefteå Kv Pantern	Sweden	traffic	64.7495	20.9601	European Envioronmental Agency (EEA)	22.361275000000003	23.172176444012187	21.370632544807766	Good	Good	
159	SPO-SE0100A_00005_100	Luleå Sandviksgatan	Sweden	traffic	65.5806	22.1404	European Envioronmental Agency (EEA)				Very unhealthy	Very unhealthy	
160	SPO-SE31752_00005_100	Piteå Prästgårdsgatan	Sweden	traffic	65.3181	21.4792	European Envioronmental Agency (EEA)				Very unhealthy	Very unhealthy	
161	FI_5_101983	Muonio Sammaltunturi	Finland		67.97	24.12	Finnish Meteorological Institute	4.895833333333333	6.94989099709884	5.699976838153342	Good	Good	
162	FI_5_100656	Virolahti Koivuniemi Ääpälä	Finland		60.53	27.68	Finnish Meteorological Institute				Very unhealthy	Very unhealthy	
