	Station Code	Station Name	Country	Station type	Latitude	Longitude	Network	Date	PM10 measured concentration (microg/m^3)	PM10 today forecast mean concentration (microg/m^3)	PM10 tomorrow forecast mean concentration (microg/m^3)	Today air quality	Tomorrow air quality	Actions
0	SPO-DK0034A_00005_100	Copenhagen/1103	Denmark	traffic	55.6743	12.5711	European Envioronmental Agency (EEA)	2025-08-27		41.403038024902344	46.56039810180664	Moderate	Unhealthy	
1	SPO-DK0012R_00005_101	Risoe	Denmark	background	55.6942	12.0889	European Envioronmental Agency (EEA)	2025-08-27	19.910416666666666	25.498159408569336	15.80171012878418	Moderate	Good	
2	SPO-FI00570_00005_100	Raahen keskusta 2	Finland	traffic	64.6834	24.4816	European Envioronmental Agency (EEA)	2025-08-27	3.2103756249999997	3.43902587890625	3.6559484004974365	Good	Good	
3	SPO-FI00349_00005_100	Utö	Finland	background	59.7792	21.374	European Envioronmental Agency (EEA)	2025-08-27	2.197719875	2.6512134075164795	3.9338409900665283	Good	Good	
4	SPO-FI00427_00005_100	Matorova	Finland	background	68.0005	24.2457	European Envioronmental Agency (EEA)	2025-08-27	0.9253159583333334	1.2388315200805664	1.105817437171936	Good	Good	
5	SPO-FI00838_00005_100	Epila 2	Finland	traffic	61.5085	23.6758	European Envioronmental Agency (EEA)	2025-08-27	11.198438333333334	6.9671173095703125	7.266840934753418	Good	Good	
6	SPO-FI00208_00005_101	Luukki	Finland	background	60.3144	24.6849	European Envioronmental Agency (EEA)	2025-08-27	5.239545833333334	4.601894855499268	5.344395160675049	Good	Good	
7	SPO-FI00370_00005_100	Tikkurila 3	Finland	traffic	60.2899	25.0395	European Envioronmental Agency (EEA)	2025-08-27	6.983873045454547	6.813959121704102	7.762720584869385	Good	Good	
8	SPO-FI00425_00005_100	Kallio 2	Finland	background	60.1874	24.9506	European Envioronmental Agency (EEA)	2025-08-27	6.583885916666667	6.318973541259766	7.903761386871338	Good	Good	
9	SPO-FI00564_00005_100	Mannerheimintie	Finland	traffic	60.1696	24.9392	European Envioronmental Agency (EEA)	2025-08-27	9.183331708333334	9.506413459777832	12.89956283569336	Good	Good	
10	SPO-FI00781_00005_100	Vartiokylä Huivipolku	Finland	background	60.2239	25.1024	European Envioronmental Agency (EEA)	2025-08-27	6.002977708333333	6.221809387207031	6.8105058670043945	Good	Good	
11	SPO-FI00841_00005_100	Leppävaara 4	Finland	traffic	60.2202	24.8113	European Envioronmental Agency (EEA)	2025-08-27	7.319036916666668	7.151136875152588	9.718779563903809	Good	Good	
12	SPO-FI00301_00005_100	Pyykösjärvi	Finland	background	65.0434	25.4979	European Envioronmental Agency (EEA)	2025-08-27	4.131541375	4.210819244384766	4.617674350738525	Good	Good	
13	SPO-FI00446_00005_100	Oulun keskusta 2	Finland	traffic	65.01	25.4713	European Envioronmental Agency (EEA)	2025-08-27	5.622376708333334	5.084164142608643	5.560189723968506	Good	Good	
14	SPO-FI00952_00005_100	Jyväskylä Hannikaisenkatu	Finland	traffic	62.2382	25.7479	European Envioronmental Agency (EEA)	2025-08-27	6.361337541666667	5.135871410369873	5.264037609100342	Good	Good	
15	SPO-FI00455_00005_100	Laune	Finland	traffic	60.967	25.6549	European Envioronmental Agency (EEA)	2025-08-27	5.551163833333334	7.06671142578125	8.405734062194824	Good	Good	
16	SPO-FI00889_00005_100	Saimaankatu	Finland	traffic	60.9913	25.6658	European Envioronmental Agency (EEA)	2025-08-27	5.446110708333333	5.268709182739258	6.513867378234863	Good	Good	
17	SPO-FI00444_00005_100	Naantalin keskusta	Finland	traffic	60.4674	22.0284	European Envioronmental Agency (EEA)	2025-08-27	4.638507791666666	6.1797003746032715	5.842400074005127	Good	Good	
18	SPO-FI00558_00005_100	Maaherrankatu	Finland	traffic	62.8933	27.6869	European Envioronmental Agency (EEA)	2025-08-27	4.103789708333334	4.226444721221924	4.539150238037109	Good	Good	
19	SPO-FI00839_00005_100	Tasavallankatu	Finland	traffic	62.882	27.6619	European Envioronmental Agency (EEA)	2025-08-27	5.447644666666666	3.805365562438965	4.2509541511535645	Good	Good	
20	SPO-FI00928_00005_100	Pori Paanakedonkatu	Finland	traffic	61.4823	21.8133	European Envioronmental Agency (EEA)	2025-08-27	5.967086875	5.55060338973999	6.318118572235107	Good	Good	
21	SPO-FI00424_00005_100	Mansikkala	Finland	traffic	61.1889	28.7701	European Envioronmental Agency (EEA)	2025-08-27	4.825585041666668	4.8248162269592285	4.883319854736328	Good	Good	
22	SPO-FI00433_00005_100	Teppanala	Finland	industrial	61.153	28.8101	European Envioronmental Agency (EEA)	2025-08-27	5.230337375	5.316445350646973	5.434688568115234	Good	Good	
23	SPO-FI00434_00005_100	Joutsenon keskusta	Finland	traffic	61.1171	28.4985	European Envioronmental Agency (EEA)	2025-08-27	1.9002276666666669	3.090459108352661	3.1940903663635254	Good	Good	
24	SPO-FI00606_00005_100	Lappeenrannan keskusta 4	Finland	traffic	61.0558	28.1843	European Envioronmental Agency (EEA)	2025-08-27	5.109309095238095	4.82280969619751	5.144189834594727	Good	Good	
25	SPO-FI00972_00005_100	Lohja Harjula	Finland	background	60.249	24.0695	European Envioronmental Agency (EEA)	2025-08-27	6.0573165	5.961051940917969	7.52759313583374	Good	Good	
26	SPO-FI00892_00005_100	Kankaan Koulu	Finland	traffic	60.8704	26.701	European Envioronmental Agency (EEA)	2025-08-27	8.65953225	7.6793365478515625	8.175973892211914	Good	Good	
27	SPO-FI00179_00005_100	Pirkkala	Finland	industrial	61.3316	22.1431	European Envioronmental Agency (EEA)	2025-08-27	34.803390625	5.691080570220947	6.028308391571045	Good	Good	
28	SPO-FI00184_00005_100	Kaleva	Finland	industrial	61.3135	22.135	European Envioronmental Agency (EEA)	2025-08-27	7.489096916666667	5.3581366539001465	5.716087818145752	Good	Good	
29	SPO-FI00397_00005_100	Bottenviksvägen	Finland	traffic	63.6791	22.7184	European Envioronmental Agency (EEA)	2025-08-27	5.1137630833333345	3.718843460083008	4.306053161621094	Good	Good	
30	SPO-IS0005A_00005_103	Reykjavik Grensas	Iceland	traffic	64.1301	-21.8747	European Envioronmental Agency (EEA)	2025-08-27		18.84699058532715	16.604389190673828	Good	Good	
31	SPO-IS0052A_00005_100	Akureyri Strandgata (við Hof)	Iceland	traffic	65.6841	-18.0882	European Envioronmental Agency (EEA)	2025-08-27	4.818181818181818	1.254014253616333	-0.9157706499099731	Good	Good	
32	SPO-IS0025A_00005_100	Grundartangi Kríuvarða	Iceland	industrial	64.3736	-21.7591	European Envioronmental Agency (EEA)	2025-08-27		6.742496490478516	6.39466667175293	Good	Good	
33	SPO-IS0041A_00005_100	Grundartangi Gröf	Iceland	industrial	64.3342	-21.8357	European Envioronmental Agency (EEA)	2025-08-27		0.5108964443206787	1.108245849609375	Good	Good	
34	SPO-IS0037A_00005_100	Kópavogur Dalsmári	Iceland	background	64.105	-21.889	European Envioronmental Agency (EEA)	2025-08-27	10.317025000000001	4.506467819213867	5.825006008148193	Good	Good	
35	SPO-IS0046A_00005_101	Hafnarfjörður Norðurhella	Iceland	background	64.0442	-21.9854	European Envioronmental Agency (EEA)	2025-08-27		2.580406904220581	5.3643717765808105	Good	Good	
36	SPO-IS0049A_00005_100	PCC norður	Iceland	industrial	66.0793	-17.3422	European Envioronmental Agency (EEA)	2025-08-27	8.03798	5.790724277496338	4.418025970458984	Good	Good	
37	SPO-IS0050A_00005_100	PCC suður	Iceland	industrial	66.0549	-17.3476	European Envioronmental Agency (EEA)	2025-08-27	4.1915704347826095	3.2044012546539307	3.02783465385437	Good	Good	
38	SPO_NO0071A_5_38	Manglerud	Norway	traffic	59.8986	10.8149	European Envioronmental Agency (EEA)	2025-08-27	18.388333333333332	11.76519775390625	12.1940336227417	Good	Good	
39	SPO_NO0093A_5_1039	Hjortnes	Norway	traffic	59.9113	10.704	European Envioronmental Agency (EEA)	2025-08-27	22.627916666666668	15.661552429199219	15.90273666381836	Good	Good	
40	SPO_NO0095A_5_934	Smestad	Norway	traffic	59.9325	10.6699	European Envioronmental Agency (EEA)	2025-08-27	18.477664458333333	14.566291809082031	13.25472354888916	Good	Good	
41	SPO_NO0122A_5_2945	E6 Alna senter	Norway	traffic	59.9256	10.8504	European Envioronmental Agency (EEA)	2025-08-27	18.977092666666667	28.61603355407715	11.678021430969238	Moderate	Good	
42	SPO_NO0011A_5_19	Kirkeveien	Norway	traffic	59.9323	10.7245	European Envioronmental Agency (EEA)	2025-08-27	11.2175345	7.245419979095459	6.601784706115723	Good	Good	
43	SPO_NO0057A_5_41	Alnabru	Norway	traffic	59.9277	10.8466	European Envioronmental Agency (EEA)	2025-08-27	13.360549458333333	8.981021881103516	10.334641456604004	Good	Good	
44	SPO_NO0072A_5_352	Skøyen	Norway	background	59.9197	10.6897	European Envioronmental Agency (EEA)	2025-08-27	11.353014625	10.708683967590332	11.661437034606934	Good	Good	
45	SPO_NO0073A_5_552	Sofienbergparken	Norway	background	59.923	10.7657	European Envioronmental Agency (EEA)	2025-08-27	13.825063	8.733710289001465	9.228521347045898	Good	Good	
46	SPO_NO0083A_5_793	Bygdøy Alle	Norway	traffic	59.9193	10.6965	European Envioronmental Agency (EEA)	2025-08-27	16.170833333333334	11.086531639099121	11.816959381103516	Good	Good	
47	SPO_NO0140A_5_3171	Spikersuppa	Norway	background	59.9141	10.736	European Envioronmental Agency (EEA)	2025-08-27	11.71990475	8.473408699035645	9.128807067871094	Good	Good	
48	SPO_NO0143A_5_3173	Vahl skole	Norway	traffic	59.9169	10.766	European Envioronmental Agency (EEA)	2025-08-27	13.304166666666667	8.99621868133545	9.58242130279541	Good	Good	
49	SPO_NO0059A_5_11	Danmarks plass	Norway	traffic	60.3741	5.3404	European Envioronmental Agency (EEA)	2025-08-27	10.852756791666666	6.302896022796631	5.858172416687012	Good	Good	
50	SPO_NO0108A_5_2071	Rolland Åsane	Norway	background	60.4627	5.3324	European Envioronmental Agency (EEA)	2025-08-27	8.443392458333333	4.429482460021973	3.650397539138794	Good	Good	
51	SPO_NO0109A_5_2067	Loddefjord	Norway	traffic	60.3611	5.2369	European Envioronmental Agency (EEA)	2025-08-27	8.670544416666667	5.686740875244141	5.380422592163086	Good	Good	
52	SPO_NO0120A_5_2902	Klosterhaugen	Norway	background	60.3959	5.3127	European Envioronmental Agency (EEA)	2025-08-27	10.162625291666666	5.634721279144287	4.82403039932251	Good	Good	
53	SPO_NO0121A_5_2888	Rådal	Norway	traffic	60.2943	5.3246	European Envioronmental Agency (EEA)	2025-08-27	10.864878541666668	6.537051677703857	5.119869232177734	Good	Good	
54	SPO_NO0060A_5_1685	Elgeseter	Norway	traffic	63.4174	10.3968	European Envioronmental Agency (EEA)	2025-08-27	16.529725833333334	9.605080604553223	7.16109561920166	Good	Good	
55	SPO_NO0102A_5_1530	E6-Tiller	Norway	traffic	63.3576	10.3717	European Envioronmental Agency (EEA)	2025-08-27		26.191930770874023	20.399572372436523	Moderate	Good	
56	SPO_NO0145A_5_3060	Omkjøringsvegen	Norway	traffic	63.4105	10.4444	European Envioronmental Agency (EEA)	2025-08-27	8.607200749999999	5.1984100341796875	5.824096202850342	Good	Good	
57	SPO_NO0061A_5_713	Lensmannsdalen	Norway	traffic	59.1593	9.6357	European Envioronmental Agency (EEA)	2025-08-27	14.446666666666665	17.044525146484375	13.118425369262695	Good	Good	
58	SPO_NO0106A_5_1231	Sverresgate	Norway	traffic	59.1382	9.6522	European Envioronmental Agency (EEA)	2025-08-27	12.65	12.368067741394043	9.335173606872559	Good	Good	
59	SPO_NO0115A_5_2473	Furulund	Norway	industrial	59.0573	9.6956	European Envioronmental Agency (EEA)	2025-08-27	9.671932541666667	12.786758422851562	10.729621887207031	Good	Good	
60	SPO_NO0118A_5_2723	Knarrdalstranda	Norway	background	59.1335	9.6219	European Envioronmental Agency (EEA)	2025-08-27	10.602354750000002	11.282692909240723	9.334471702575684	Good	Good	
61	SPO_NO0134A_5_3121	Bjørndalssletta	Norway	traffic	58.1623	8.0238	European Envioronmental Agency (EEA)	2025-08-27	12.31913425	10.525498390197754	7.645534515380859	Good	Good	
62	SPO_NO0065A_5_52	Våland	Norway	background	58.9616	5.7314	European Envioronmental Agency (EEA)	2025-08-27	3.8948735833333337	5.084550380706787	2.309285879135132	Good	Good	
63	SPO_NO0076A_5_46	Kannik	Norway	traffic	58.9642	5.7279	European Envioronmental Agency (EEA)	2025-08-27	14.38786075	6.915908336639404	5.213524341583252	Good	Good	
64	SPO_NO0125A_5_3017	Schancheholen	Norway	traffic	58.9519	5.7219	European Envioronmental Agency (EEA)	2025-08-27	9.922699583333333	5.552034854888916	4.39298152923584	Good	Good	
65	SPO_NO0141A_5_3178	Vågen	Norway	background	58.9726	5.7265	European Envioronmental Agency (EEA)	2025-08-27	10.103854791666667	5.89771842956543	4.429870128631592	Good	Good	
66	SPO_NO0074A_5_539	Bankplassen	Norway	traffic	61.1129	10.4649	European Envioronmental Agency (EEA)	2025-08-27	11.632242291666666	8.789344787597656	7.457980632781982	Good	Good	
67	SPO_NO0075A_5_544	Lillehammer barnehage	Norway	background	61.1209	10.4656	European Envioronmental Agency (EEA)	2025-08-27	8.626216041666666	7.743855953216553	7.3298020362854	Good	Good	
68	SPO_NO0079A_5_392	Hansjordnesbukta	Norway	traffic	69.6562	18.9637	European Envioronmental Agency (EEA)	2025-08-27	16.77660379166667	7.117527008056641	8.05533504486084	Good	Good	
69	SPO_NO0124A_5_2957	Rambergan	Norway	background	69.6543	18.9564	European Envioronmental Agency (EEA)	2025-08-27	6.858728750000001	5.81719970703125	6.735630035400391	Good	Good	
70	SPO_NO0084A_5_967	St.Croix	Norway	traffic	59.2103	10.9454	European Envioronmental Agency (EEA)	2025-08-27	14.402187374999999	8.836578369140625	7.618228435516357	Good	Good	
71	SPO_NO0114A_5_2325	Bekkestua	Norway	background	59.9182	10.5839	European Envioronmental Agency (EEA)	2025-08-27	11.666666666666666	9.141398429870605	8.449899673461914	Good	Good	
72	SPO_NO0110A_5_2064	Alvim	Norway	traffic	59.2738	11.0892	European Envioronmental Agency (EEA)	2025-08-27	13.714428833333335	7.395937442779541	6.943052291870117	Good	Good	
73	SPO_NO0112A_5_1221	Kransen	Norway	traffic	59.4335	10.6618	European Envioronmental Agency (EEA)	2025-08-27	12.486838416666666	7.396421432495117	6.590392589569092	Good	Good	
74	SPO_NO0119A_5_2701	Leiret	Norway	traffic	60.8836	11.5593	European Envioronmental Agency (EEA)	2025-08-27	8.749520833333333	6.705075740814209	6.249575614929199	Good	Good	
75	SPO_NO0128A_5_2972	Nedre Langgate	Norway	traffic	59.2637	10.4112	European Envioronmental Agency (EEA)	2025-08-27	12.419749875	8.46047306060791	7.069390773773193	Good	Good	
76	SPO_NO0129A_5_2950	Solheim	Norway	traffic	59.9286	10.9532	European Envioronmental Agency (EEA)	2025-08-27	15.956477541666667	9.910029411315918	10.682082176208496	Good	Good	
77	SPO_NO0127A_5_2964	Seljestad Rv83	Norway	traffic	68.7922	16.5374	European Envioronmental Agency (EEA)	2025-08-27		2.999262571334839	2.7910048961639404	Good	Good	
78	SPO_NO0130A_5_3000	Ringsakervegen	Norway	traffic	60.8859	10.9379	European Envioronmental Agency (EEA)	2025-08-27	9.833333333333334	8.764552116394043	7.62070369720459	Good	Good	
79	SPO-SE0001A_00005_100	Malmö Rådhuset	Sweden	background	55.6064	13.002	European Envioronmental Agency (EEA)	2025-08-27	11.917916666666665	8.82236385345459	12.70336627960205	Good	Good	
80	SPO-SE0058A_00005_100	Malmö Dalaplan	Sweden	traffic	55.5847	13.0062	European Envioronmental Agency (EEA)	2025-08-27	11.379166666666668	8.443571090698242	12.819775581359863	Good	Good	
81	SPO-SE0085A_00005_101	Helsingborg Drottninggatan	Sweden	traffic	56.0472	12.6916	European Envioronmental Agency (EEA)	2025-08-27	10.738083333333336	8.378585815429688	14.738714218139648	Good	Good	
82	SPO-SE38350_00005_100	Lund Trollebergsvägen	Sweden	traffic	55.7033	13.1803	European Envioronmental Agency (EEA)	2025-08-27	5.6275	7.24238395690918	11.526266098022461	Good	Good	
83	SPO-SE344172_00005_100	Västerås Stora Gatan 78	Sweden	traffic	59.6077	16.5359	European Envioronmental Agency (EEA)	2025-08-27	11.065916666666668	9.374549865722656	14.496831893920898	Good	Good	
84	SPO-SE0003A_00005_100	Stockholm Hornsgatan 108 Gata	Sweden	traffic	59.3172	18.0487	European Envioronmental Agency (EEA)	2025-08-27	6.575062458333332	8.894829750061035	12.013139724731445	Good	Good	
85	SPO-SE0027A_00005_100	Stockholm Sveavägen 59 Gata	Sweden	traffic	59.3408	18.0583	European Envioronmental Agency (EEA)	2025-08-27	15.0451415	12.492664337158203	14.045487403869629	Good	Good	
86	SPO-SE0066A_00005_100	Norr Malma	Sweden	background	59.8324	18.6313	European Envioronmental Agency (EEA)	2025-08-27	2.878704125	2.32444167137146	3.6893279552459717	Good	Good	
87	SPO-SE0071A_00005_100	Sollentuna E4 Häggvik	Sweden	traffic	59.4435	17.9224	European Envioronmental Agency (EEA)	2025-08-27	4.987245833333334	7.307361602783203	10.415390014648438	Good	Good	
88	SPO-SE0072A_00005_100	Södertälje Turingegatan 26	Sweden	traffic	59.1981	17.6211	European Envioronmental Agency (EEA)	2025-08-27	7.980633333333334	7.847860336303711	10.834656715393066	Good	Good	
89	SPO-SE0117A_00005_101	Visby Österväg 17	Sweden	traffic	57.6369	18.3036	European Envioronmental Agency (EEA)	2025-08-27	7.6045958333333346	7.243982315063477	15.43476390838623	Good	Good	
90	SPO-SE156417_00005_100	Uppsala Kungsgatan 67	Sweden	traffic	59.8571	17.6463	European Envioronmental Agency (EEA)	2025-08-27	11.726674833333334	7.649242401123047	11.671183586120605	Good	Good	
91	SPO-SE157992_00005_100	Stockholm St Eriksgatan 83	Sweden	traffic	59.3405	18.037	European Envioronmental Agency (EEA)	2025-08-27	8.216829125	8.784950256347656	11.458563804626465	Good	Good	
92	SPO-SE159402_00005_100	Sollentuna Danderydsvägen	Sweden	traffic	59.4459	17.955	European Envioronmental Agency (EEA)	2025-08-27	6.081845833333333	5.700386047363281	9.738016128540039	Good	Good	
93	SPO-SE159404_00005_100	Uppsala Dragarbrunnsgatan 23 tak	Sweden	background	59.8605	17.6376	European Envioronmental Agency (EEA)	2025-08-27	5.983016625	5.378574371337891	7.467883110046387	Good	Good	
94	SPO-SE274652_00005_100	Sollentuna Sollentunavägen 192	Sweden	traffic	59.4336	17.9497	European Envioronmental Agency (EEA)	2025-08-27	5.576233333333334	7.066103458404541	11.60941219329834	Good	Good	
95	SPO-SE301111_00005_100	Norrköping Kungsgatan 32	Sweden	traffic	58.5915	16.1779	European Envioronmental Agency (EEA)	2025-08-27	4.441145833333334	6.255481719970703	11.268411636352539	Good	Good	
96	SPO-SE301113_00005_100	Norrköping Trädgårdsgatan 21	Sweden	background	58.592	16.1893	European Envioronmental Agency (EEA)	2025-08-27	5.428845833333334	6.051859378814697	8.294600486755371	Good	Good	
97	SPO-SE301757_00005_100	Sundbyberg Tulegatan 9	Sweden	traffic	59.3643	17.9763	European Envioronmental Agency (EEA)	2025-08-27	8.36927075	5.720419406890869	9.780665397644043	Good	Good	
98	SPO-SE313381_00005_100	Visby Brömsebroväg 8	Sweden	background	57.6399	18.3097	European Envioronmental Agency (EEA)	2025-08-27	4.252391666666667	5.825584411621094	9.40493106842041	Good	Good	
99	SPO-SE338683_00005_100	Gävle Staketgatan 22	Sweden	traffic	60.6762	17.1376	European Envioronmental Agency (EEA)	2025-08-27	8.093733333333335	3.4865734577178955	9.406842231750488	Good	Good	
100	SPO-SE338685_00005_100	Linköping Hamngatan 10	Sweden	traffic	58.4124	15.6301	European Envioronmental Agency (EEA)	2025-08-27	5.5768125	6.648803234100342	12.276909828186035	Good	Good	
101	SPO-SE37479_00005_100	Sollentuna Ekmans Väg 11	Sweden	traffic	59.489	17.9199	European Envioronmental Agency (EEA)	2025-08-27	4.524720791666668	8.007412910461426	11.238996505737305	Good	Good	
102	SPO-SE0004A_00005_100	Göteborg Femman	Sweden	background	57.709	11.9702	European Envioronmental Agency (EEA)	2025-08-27	6.1161025	7.109889984130859	10.748950004577637	Good	Good	
103	SPO-SE0005R_00005_101	Bredkälen	Sweden	background	63.8455	15.3197	European Envioronmental Agency (EEA)	2025-08-27	1.8416666666666668	1.397527813911438	2.3026771545410156	Good	Good	
104	SPO-SE0014R_00005_100	Råö	Sweden	background	57.3936	11.9142	European Envioronmental Agency (EEA)	2025-08-27	5.070833333333333	6.337061405181885	12.455533027648926	Good	Good	
105	SPO-SE159388_00005_101	Norunda Stenen	Sweden	background	60.0858	17.5053	European Envioronmental Agency (EEA)	2025-08-27	3.0716636363636365	3.412060499191284	5.527045249938965	Good	Good	
106	SPO-SE0021A_00005_100	Göteborg Gårda	Sweden	traffic	57.7009	11.9946	European Envioronmental Agency (EEA)	2025-08-27	8.15075	10.87477970123291	20.271909713745117	Good	Good	
107	SPO-SE0067A_00005_100	Göteborg Haga	Sweden	traffic	57.6979	11.9605	European Envioronmental Agency (EEA)	2025-08-27	8.145317083333333	10.97385025024414	16.269075393676758	Good	Good	
108	SPO-SE274590_00005_100	Göteborg Övre Husargatan	Sweden	traffic	57.6937	11.9568	European Envioronmental Agency (EEA)	2025-08-27	7.1334254166666655	12.125304222106934	17.72764778137207	Good	Good	
109	SPO-SE165095_00005_100	Hedemora Gussarvsgatan	Sweden	traffic	60.2814	15.9891	European Envioronmental Agency (EEA)	2025-08-27	5.952750000000001	5.662729263305664	11.248586654663086	Good	Good	
110	SPO-SE0095A_00005_100	Sundsvall Köpmangatan	Sweden	traffic	62.3886	17.3089	European Envioronmental Agency (EEA)	2025-08-27	9.827250000000001	5.7726922035217285	7.066713333129883	Good	Good	
111	SPO-SE09569_00005_100	Sundsvall Bergsgatan	Sweden	traffic	62.3865	17.3032	European Envioronmental Agency (EEA)	2025-08-27	10.839833333333337	6.657413482666016	7.405034065246582	Good	Good	
112	SPO-SE181002_00005_100	Växjö Liedbergsgatan 11	Sweden	traffic	56.8799	14.7993	European Envioronmental Agency (EEA)	2025-08-27	5.604166666666667	6.273769855499268	11.637465476989746	Good	Good	
113	SPO-SE181993_00005_100	Kalmar Södra Vägen	Sweden	traffic	56.6642	16.3336	European Envioronmental Agency (EEA)	2025-08-27	13.245833333333335	11.551563262939453	16.365062713623047	Good	Good	
114	SPO-SE181259_00005_100	Östersund Rådhusgatan	Sweden	traffic	63.1739	14.6411	European Envioronmental Agency (EEA)	2025-08-27	7.445833333333333	8.015397071838379	6.8876800537109375	Good	Good	
115	SPO-SE0059A_00005_100	Umeå Västra Esplanaden	Sweden	traffic	63.8289	20.2585	European Envioronmental Agency (EEA)	2025-08-27	10.0625	10.637207984924316	9.392256736755371	Good	Good	
116	SPO-SE274953_00005_100	Skellefteå Kv Pantern	Sweden	traffic	64.7495	20.9601	European Envioronmental Agency (EEA)	2025-08-27	8.110375	7.9444427490234375	11.269515037536621	Good	Good	
117	FI_5_101983	Muonio Sammaltunturi	Finland		67.97	24.12	Finnish Meteorological Institute (FMI)	2025-08-27	0.8125	1.1138912439346313	0.8819249272346497	Good	Good	
