	Station Code	Station Name	Country	Station type	Latitude	Longitude	Network	Date	PM10 measured concentration (microg/m^3)	PM10 today forecast mean concentration (microg/m^3)	PM10 tomorrow forecast mean concentration (microg/m^3)	Today air quality	Tomorrow air quality	Actions
0	SPO-DK0034A_00005_100	Copenhagen/1103	Denmark	traffic	55.6743	12.5711	European Envioronmental Agency (EEA)	2025-06-17		44.54390335083008	34.745723724365234	Moderate	Moderate	
1	SPO-DK0012R_00005_101	Risoe	Denmark	background	55.6942	12.0889	European Envioronmental Agency (EEA)	2025-06-17	14.277083333333332	11.898445129394531	10.504737854003906	Good	Good	
2	SPO-FI00570_00005_100	Raahen keskusta 2	Finland	traffic	64.6834	24.4816	European Envioronmental Agency (EEA)	2025-06-17	8.068587	5.988884449005127	5.703152656555176	Good	Good	
3	SPO-FI00349_00005_100	Utö	Finland	background	59.7792	21.374	European Envioronmental Agency (EEA)	2025-06-17	5.274195583333333	6.281902313232422	5.8348469734191895	Good	Good	
4	SPO-FI00427_00005_100	Matorova	Finland	background	68.0005	24.2457	European Envioronmental Agency (EEA)	2025-06-17	2.814764875	1.8858245611190796	2.2668120861053467	Good	Good	
5	SPO-FI00838_00005_100	Epila 2	Finland	traffic	61.5085	23.6758	European Envioronmental Agency (EEA)	2025-06-17	7.981711166666668	8.834338188171387	7.89945650100708	Good	Good	
6	SPO-FI00208_00005_101	Luukki	Finland	background	60.3144	24.6849	European Envioronmental Agency (EEA)	2025-06-17	10.432625583333333	8.195112228393555	6.778764247894287	Good	Good	
7	SPO-FI00370_00005_100	Tikkurila 3	Finland	traffic	60.2899	25.0395	European Envioronmental Agency (EEA)	2025-06-17	11.452789958333334	11.610417366027832	9.741323471069336	Good	Good	
8	SPO-FI00425_00005_100	Kallio 2	Finland	background	60.1874	24.9506	European Envioronmental Agency (EEA)	2025-06-17	11.268261958333333	10.534428596496582	9.420073509216309	Good	Good	
9	SPO-FI00564_00005_100	Mannerheimintie	Finland	traffic	60.1696	24.9392	European Envioronmental Agency (EEA)	2025-06-17	16.588572916666667	16.470638275146484	15.982710838317871	Good	Good	
10	SPO-FI00781_00005_100	Vartiokylä Huivipolku	Finland	background	60.2239	25.1024	European Envioronmental Agency (EEA)	2025-06-17	11.099480791666666	9.65770435333252	8.210150718688965	Good	Good	
11	SPO-FI00841_00005_100	Leppävaara 4	Finland	traffic	60.2202	24.8113	European Envioronmental Agency (EEA)	2025-06-17	12.60376391666667	11.707201957702637	11.167778968811035	Good	Good	
12	SPO-FI00301_00005_100	Pyykösjärvi	Finland	background	65.0434	25.4979	European Envioronmental Agency (EEA)	2025-06-17	8.083160875	9.991707801818848	5.437807559967041	Good	Good	
13	SPO-FI00446_00005_100	Oulun keskusta 2	Finland	traffic	65.01	25.4713	European Envioronmental Agency (EEA)	2025-06-17	8.657833375000001	13.473708152770996	8.49949836730957	Good	Good	
14	SPO-FI00952_00005_100	Jyväskylä Hannikaisenkatu	Finland	traffic	62.2382	25.7479	European Envioronmental Agency (EEA)	2025-06-17	12.469962333333333	10.67615795135498	8.425918579101562	Good	Good	
15	SPO-FI00455_00005_100	Laune	Finland	traffic	60.967	25.6549	European Envioronmental Agency (EEA)	2025-06-17	11.138941708333334	10.742537498474121	9.82367992401123	Good	Good	
16	SPO-FI00889_00005_100	Saimaankatu	Finland	traffic	60.9913	25.6658	European Envioronmental Agency (EEA)	2025-06-17	11.306235833333332	10.79172420501709	9.323533058166504	Good	Good	
17	SPO-FI00444_00005_100	Naantalin keskusta	Finland	traffic	60.4674	22.0284	European Envioronmental Agency (EEA)	2025-06-17	7.540321416666667	6.7093634605407715	5.3128886222839355	Good	Good	
18	SPO-FI00558_00005_100	Maaherrankatu	Finland	traffic	62.8933	27.6869	European Envioronmental Agency (EEA)	2025-06-17	11.104311541666666	7.452333927154541	7.8712849617004395	Good	Good	
19	SPO-FI00839_00005_100	Tasavallankatu	Finland	traffic	62.882	27.6619	European Envioronmental Agency (EEA)	2025-06-17	11.765132333333334	10.518593788146973	10.366660118103027	Good	Good	
20	SPO-FI00928_00005_100	Pori Paanakedonkatu	Finland	traffic	61.4823	21.8133	European Envioronmental Agency (EEA)	2025-06-17	7.1777201250000005	7.418420791625977	6.348184108734131	Good	Good	
21	SPO-FI00424_00005_100	Mansikkala	Finland	traffic	61.1889	28.7701	European Envioronmental Agency (EEA)	2025-06-17	11.30774475	8.394688606262207	8.48464298248291	Good	Good	
22	SPO-FI00433_00005_100	Teppanala	Finland	industrial	61.153	28.8101	European Envioronmental Agency (EEA)	2025-06-17	11.134954083333335	9.063746452331543	9.114923477172852	Good	Good	
23	SPO-FI00434_00005_100	Joutsenon keskusta	Finland	traffic	61.1171	28.4985	European Envioronmental Agency (EEA)	2025-06-17	9.951691458333334	7.817655086517334	8.1100492477417	Good	Good	
24	SPO-FI00606_00005_100	Lappeenrannan keskusta 4	Finland	traffic	61.0558	28.1843	European Envioronmental Agency (EEA)	2025-06-17	13.409821791666667	13.763667106628418	11.176605224609375	Good	Good	
25	SPO-FI00972_00005_100	Lohja Harjula	Finland	background	60.249	24.0695	European Envioronmental Agency (EEA)	2025-06-17	10.560896	8.485957145690918	7.455417156219482	Good	Good	
26	SPO-FI00892_00005_100	Kankaan Koulu	Finland	traffic	60.8704	26.701	European Envioronmental Agency (EEA)	2025-06-17	11.401747166666667	10.52658462524414	9.748574256896973	Good	Good	
27	SPO-FI00179_00005_100	Pirkkala	Finland	industrial	61.3316	22.1431	European Envioronmental Agency (EEA)	2025-06-17	7.761824166666668	8.5119047164917	6.863549709320068	Good	Good	
28	SPO-FI00184_00005_100	Kaleva	Finland	industrial	61.3135	22.135	European Envioronmental Agency (EEA)	2025-06-17	9.263070708333332	8.17573070526123	6.72189998626709	Good	Good	
29	SPO-FI00465_00005_100	Vaasan keskusta	Finland	traffic	63.0951	21.6183	European Envioronmental Agency (EEA)	2025-06-17	2.3726300555555557	0.8451266288757324	-0.0638345256447792	Good	Good	
30	SPO-FI00397_00005_100	Bottenviksvägen	Finland	traffic	63.6791	22.7184	European Envioronmental Agency (EEA)	2025-06-17	6.186107291666667	7.6741509437561035	5.297930717468262	Good	Good	
31	SPO-IS0005A_00005_103	Reykjavik Grensas	Iceland	traffic	64.1301	-21.8747	European Envioronmental Agency (EEA)	2025-06-17		15.043658256530762	9.772327423095703	Good	Good	
32	SPO-IS0052A_00005_100	Akureyri Strandgata (við Hof)	Iceland	traffic	65.6841	-18.0882	European Envioronmental Agency (EEA)	2025-06-17	4.782608695652174	-0.427766889333725	-1.543150544166565	Good	Good	
33	SPO-IS0025A_00005_100	Grundartangi Kríuvarða	Iceland	industrial	64.3736	-21.7591	European Envioronmental Agency (EEA)	2025-06-17		5.398404598236084	4.1903557777404785	Good	Good	
34	SPO-IS0041A_00005_100	Grundartangi Gröf	Iceland	industrial	64.3342	-21.8357	European Envioronmental Agency (EEA)	2025-06-17		0.625525951385498	0.458094984292984	Good	Good	
35	SPO-IS0037A_00005_100	Kópavogur Dalsmári	Iceland	background	64.105	-21.889	European Envioronmental Agency (EEA)	2025-06-17	7.70765	9.334168434143066	6.606488227844238	Good	Good	
36	SPO-IS0046A_00005_101	Hafnarfjörður Norðurhella	Iceland	background	64.0442	-21.9854	European Envioronmental Agency (EEA)	2025-06-17	6.0886375	8.068587303161621	6.6764984130859375	Good	Good	
37	SPO-IS0049A_00005_100	PCC norður	Iceland	industrial	66.0793	-17.3422	European Envioronmental Agency (EEA)	2025-06-17		3.908935785293579	3.447192430496216	Good	Good	
38	SPO-IS0050A_00005_100	PCC suður	Iceland	industrial	66.0549	-17.3476	European Envioronmental Agency (EEA)	2025-06-17		2.4689931869506836	2.1133337020874023	Good	Good	
39	SPO_NO0071A_5_38	Manglerud	Norway	traffic	59.8986	10.8149	European Envioronmental Agency (EEA)	2025-06-17	13.94608695652174	10.206899642944336	10.22925090789795	Good	Good	
40	SPO_NO0093A_5_1039	Hjortnes	Norway	traffic	59.9113	10.704	European Envioronmental Agency (EEA)	2025-06-17	14.056086956521737	11.063190460205078	11.199224472045898	Good	Good	
41	SPO_NO0095A_5_934	Smestad	Norway	traffic	59.9325	10.6699	European Envioronmental Agency (EEA)	2025-06-17	17.385202333333336	9.804400444030762	8.551430702209473	Good	Good	
42	SPO_NO0122A_5_2945	E6 Alna senter	Norway	traffic	59.9256	10.8504	European Envioronmental Agency (EEA)	2025-06-17	12.561293750000003	8.814105987548828	8.432183265686035	Good	Good	
43	SPO_NO0011A_5_19	Kirkeveien	Norway	traffic	59.9323	10.7245	European Envioronmental Agency (EEA)	2025-06-17	11.208598708333334	5.139461517333984	3.3929708003997803	Good	Good	
44	SPO_NO0057A_5_41	Alnabru	Norway	traffic	59.9277	10.8466	European Envioronmental Agency (EEA)	2025-06-17	13.36051175	8.865665435791016	9.161559104919434	Good	Good	
45	SPO_NO0072A_5_352	Skøyen	Norway	background	59.9197	10.6897	European Envioronmental Agency (EEA)	2025-06-17	12.425340916666668	7.16248083114624	7.306115627288818	Good	Good	
46	SPO_NO0073A_5_552	Sofienbergparken	Norway	background	59.923	10.7657	European Envioronmental Agency (EEA)	2025-06-17	9.827009291666668	7.29310941696167	7.64189338684082	Good	Good	
47	SPO_NO0083A_5_793	Bygdøy Alle	Norway	traffic	59.9193	10.6965	European Envioronmental Agency (EEA)	2025-06-17	12.637500000000001	6.883870601654053	6.982828617095947	Good	Good	
48	SPO_NO0140A_5_3171	Spikersuppa	Norway	background	59.9141	10.736	European Envioronmental Agency (EEA)	2025-06-17	15.616694375	8.08120346069336	7.97888708114624	Good	Good	
49	SPO_NO0143A_5_3173	Vahl skole	Norway	traffic	59.9169	10.766	European Envioronmental Agency (EEA)	2025-06-17	11.5875	5.979368209838867	6.156029224395752	Good	Good	
50	SPO_NO0059A_5_11	Danmarks plass	Norway	traffic	60.3741	5.3404	European Envioronmental Agency (EEA)	2025-06-17	6.567083375	7.56460428237915	8.732415199279785	Good	Good	
51	SPO_NO0108A_5_2071	Rolland Åsane	Norway	background	60.4627	5.3324	European Envioronmental Agency (EEA)	2025-06-17	4.837313375000001	5.484086513519287	5.381368160247803	Good	Good	
52	SPO_NO0109A_5_2067	Loddefjord	Norway	traffic	60.3611	5.2369	European Envioronmental Agency (EEA)	2025-06-17	6.7061051250000006	7.704294681549072	7.888973236083984	Good	Good	
53	SPO_NO0120A_5_2902	Klosterhaugen	Norway	background	60.3959	5.3127	European Envioronmental Agency (EEA)	2025-06-17	6.408411708333333	7.151743412017822	7.409560680389404	Good	Good	
54	SPO_NO0121A_5_2888	Rådal	Norway	traffic	60.2943	5.3246	European Envioronmental Agency (EEA)	2025-06-17	8.226278541666668	8.7896146774292	9.460348129272461	Good	Good	
55	SPO_NO0135A_5_3126	Backeparken	Norway	background	59.7495	10.1653	European Envioronmental Agency (EEA)	2025-06-17	11.395833333333334	7.983276844024658	7.524270057678223	Good	Good	
56	SPO_NO0136A_5_3124	Vårveien	Norway	traffic	59.7536	10.1444	European Envioronmental Agency (EEA)	2025-06-17	11.008333333333333	9.137991905212402	8.671490669250488	Good	Good	
57	SPO_NO0060A_5_1685	Elgeseter	Norway	traffic	63.4174	10.3968	European Envioronmental Agency (EEA)	2025-06-17	7.362005583333334	9.305065155029297	8.138360023498535	Good	Good	
58	SPO_NO0102A_5_1530	E6-Tiller	Norway	traffic	63.3576	10.3717	European Envioronmental Agency (EEA)	2025-06-17		22.50383949279785	15.86018180847168	Good	Good	
59	SPO_NO0145A_5_3060	Omkjøringsvegen	Norway	traffic	63.4105	10.4444	European Envioronmental Agency (EEA)	2025-06-17	6.1278144999999995	7.177407741546631	7.1328582763671875	Good	Good	
60	SPO_NO0061A_5_713	Lensmannsdalen	Norway	traffic	59.1593	9.6357	European Envioronmental Agency (EEA)	2025-06-17	17.567916666666665	12.684725761413574	11.465960502624512	Good	Good	
61	SPO_NO0106A_5_1231	Sverresgate	Norway	traffic	59.1382	9.6522	European Envioronmental Agency (EEA)	2025-06-17	15.74375	9.025443077087402	7.418221473693848	Good	Good	
62	SPO_NO0115A_5_2473	Furulund	Norway	industrial	59.0573	9.6956	European Envioronmental Agency (EEA)	2025-06-17	8.912128000000001	9.599352836608887	7.36244010925293	Good	Good	
63	SPO_NO0118A_5_2723	Knarrdalstranda	Norway	background	59.1335	9.6219	European Envioronmental Agency (EEA)	2025-06-17	16.801199458333333	8.638249397277832	6.781070709228516	Good	Good	
64	SPO_NO0063A_5_192	Stener Heyerdahl	Norway	background	58.1489	7.9918	European Envioronmental Agency (EEA)	2025-06-17	13.737279791666667	8.9197416305542	6.017035007476807	Good	Good	
65	SPO_NO0134A_5_3121	Bjørndalssletta	Norway	traffic	58.1623	8.0238	European Envioronmental Agency (EEA)	2025-06-17	13.073402416666667	9.43247127532959	6.01725435256958	Good	Good	
66	SPO_NO0065A_5_52	Våland	Norway	background	58.9616	5.7314	European Envioronmental Agency (EEA)	2025-06-17	14.179519541666666	9.471084594726562	7.394166469573975	Good	Good	
67	SPO_NO0076A_5_46	Kannik	Norway	traffic	58.9642	5.7279	European Envioronmental Agency (EEA)	2025-06-17	17.930148875	12.574207305908203	9.587054252624512	Good	Good	
68	SPO_NO0125A_5_3017	Schancheholen	Norway	traffic	58.9519	5.7219	European Envioronmental Agency (EEA)	2025-06-17	12.053184583333334	8.987824440002441	6.909937858581543	Good	Good	
69	SPO_NO0141A_5_3178	Vågen	Norway	background	58.9726	5.7265	European Envioronmental Agency (EEA)	2025-06-17	14.961440625	9.961216926574707	7.454869270324707	Good	Good	
70	SPO_NO0074A_5_539	Bankplassen	Norway	traffic	61.1129	10.4649	European Envioronmental Agency (EEA)	2025-06-17	43.95662250000001	28.359018325805664	7.558393955230713	Moderate	Good	
71	SPO_NO0075A_5_544	Lillehammer barnehage	Norway	background	61.1209	10.4656	European Envioronmental Agency (EEA)	2025-06-17	6.6051779999999995	6.928835391998291	6.68851375579834	Good	Good	
72	SPO_NO0124A_5_2957	Rambergan	Norway	background	69.6543	18.9564	European Envioronmental Agency (EEA)	2025-06-17	15.481354	9.03754711151123	8.007065773010254	Good	Good	
73	SPO_NO0084A_5_967	St.Croix	Norway	traffic	59.2103	10.9454	European Envioronmental Agency (EEA)	2025-06-17	14.471927458333333	7.246402263641357	5.43516731262207	Good	Good	
74	SPO_NO0114A_5_2325	Bekkestua	Norway	background	59.9182	10.5839	European Envioronmental Agency (EEA)	2025-06-17	10.808333333333335	4.582084655761719	4.595488548278809	Good	Good	
75	SPO_NO0110A_5_2064	Alvim	Norway	traffic	59.2738	11.0892	European Envioronmental Agency (EEA)	2025-06-17	16.312509958333333	6.941986083984375	5.016107082366943	Good	Good	
76	SPO_NO0112A_5_1221	Kransen	Norway	traffic	59.4335	10.6618	European Envioronmental Agency (EEA)	2025-06-17	13.401353625	6.813381671905518	5.224466800689697	Good	Good	
77	SPO_NO0119A_5_2701	Leiret	Norway	traffic	60.8836	11.5593	European Envioronmental Agency (EEA)	2025-06-17	8.091183208333334	6.309550762176514	5.363501071929932	Good	Good	
78	SPO_NO0128A_5_2972	Nedre Langgate	Norway	traffic	59.2637	10.4112	European Envioronmental Agency (EEA)	2025-06-17	11.198938166666666	6.87994384765625	5.758784294128418	Good	Good	
79	SPO_NO0129A_5_2950	Solheim	Norway	traffic	59.9286	10.9532	European Envioronmental Agency (EEA)	2025-06-17	13.516039000000001	7.662378787994385	7.843454837799072	Good	Good	
80	SPO_NO0127A_5_2964	Seljestad Rv83	Norway	traffic	68.7922	16.5374	European Envioronmental Agency (EEA)	2025-06-17	7.319441875	4.687119960784912	4.430160045623779	Good	Good	
81	SPO_NO0130A_5_3000	Ringsakervegen	Norway	traffic	60.8859	10.9379	European Envioronmental Agency (EEA)	2025-06-17	16.545833333333334	10.84833812713623	7.469831466674805	Good	Good	
82	SPO-SE0001A_00005_100	Malmö Rådhuset	Sweden	background	55.6064	13.002	European Envioronmental Agency (EEA)	2025-06-17	11.972916666666668	11.193984985351562	9.680032730102539	Good	Good	
83	SPO-SE0058A_00005_100	Malmö Dalaplan	Sweden	traffic	55.5847	13.0062	European Envioronmental Agency (EEA)	2025-06-17	10.580625	11.775390625	10.704644203186035	Good	Good	
84	SPO-SE0085A_00005_101	Helsingborg Drottninggatan	Sweden	traffic	56.0472	12.6916	European Envioronmental Agency (EEA)	2025-06-17	13.598583333333332	12.119515419006348	10.624080657958984	Good	Good	
85	SPO-SE38350_00005_100	Lund Trollebergsvägen	Sweden	traffic	55.7033	13.1803	European Envioronmental Agency (EEA)	2025-06-17	6.12375	9.15468692779541	7.667084217071533	Good	Good	
86	SPO-SE344172_00005_100	Västerås Stora Gatan 78	Sweden	traffic	59.6077	16.5359	European Envioronmental Agency (EEA)	2025-06-17	17.639	11.11447525024414	6.621335983276367	Good	Good	
87	SPO-SE0003A_00005_100	Stockholm Hornsgatan 108 Gata	Sweden	traffic	59.3172	18.0487	European Envioronmental Agency (EEA)	2025-06-17	17.490520708333335	13.341255187988281	11.34785270690918	Good	Good	
88	SPO-SE0027A_00005_100	Stockholm Sveavägen 59 Gata	Sweden	traffic	59.3408	18.0583	European Envioronmental Agency (EEA)	2025-06-17	15.474274833333334	15.142021179199219	13.43970775604248	Good	Good	
89	SPO-SE0066A_00005_100	Norr Malma	Sweden	background	59.8324	18.6313	European Envioronmental Agency (EEA)	2025-06-17	7.698174916666667	7.090731143951416	5.018121719360352	Good	Good	
90	SPO-SE0071A_00005_100	Sollentuna E4 Häggvik	Sweden	traffic	59.4435	17.9224	European Envioronmental Agency (EEA)	2025-06-17	11.963058291666668	7.815149784088135	6.7697601318359375	Good	Good	
91	SPO-SE0072A_00005_100	Södertälje Turingegatan 26	Sweden	traffic	59.1981	17.6211	European Envioronmental Agency (EEA)	2025-06-17	12.749179083333333	9.444247245788574	7.6353302001953125	Good	Good	
92	SPO-SE0117A_00005_101	Visby Österväg 17	Sweden	traffic	57.6369	18.3036	European Envioronmental Agency (EEA)	2025-06-17	14.629829041666667	10.82288646697998	5.016947269439697	Good	Good	
93	SPO-SE156417_00005_100	Uppsala Kungsgatan 67	Sweden	traffic	59.8571	17.6463	European Envioronmental Agency (EEA)	2025-06-17	21.99541666666667	17.140771865844727	13.178886413574219	Good	Good	
94	SPO-SE157992_00005_100	Stockholm St Eriksgatan 83	Sweden	traffic	59.3405	18.037	European Envioronmental Agency (EEA)	2025-06-17	19.266749958333335	14.66685962677002	12.7431640625	Good	Good	
95	SPO-SE159402_00005_100	Sollentuna Danderydsvägen	Sweden	traffic	59.4459	17.955	European Envioronmental Agency (EEA)	2025-06-17	10.6936375	9.608732223510742	7.569698810577393	Good	Good	
96	SPO-SE159404_00005_100	Uppsala Dragarbrunnsgatan 23 tak	Sweden	background	59.8605	17.6376	European Envioronmental Agency (EEA)	2025-06-17	9.517095791666668	7.750278472900391	5.828571319580078	Good	Good	
97	SPO-SE274652_00005_100	Sollentuna Sollentunavägen 192	Sweden	traffic	59.4336	17.9497	European Envioronmental Agency (EEA)	2025-06-17	15.596616625000001	9.606064796447754	8.13882064819336	Good	Good	
98	SPO-SE301111_00005_100	Norrköping Kungsgatan 32	Sweden	traffic	58.5915	16.1779	European Envioronmental Agency (EEA)	2025-06-17	12.78514575	8.769598960876465	5.855471611022949	Good	Good	
99	SPO-SE301113_00005_100	Norrköping Trädgårdsgatan 21	Sweden	background	58.592	16.1893	European Envioronmental Agency (EEA)	2025-06-17	12.306699916666668	7.51259183883667	5.684491157531738	Good	Good	
100	SPO-SE301757_00005_100	Sundbyberg Tulegatan 9	Sweden	traffic	59.3643	17.9763	European Envioronmental Agency (EEA)	2025-06-17	13.968508333333332	10.195354461669922	8.390809059143066	Good	Good	
101	SPO-SE313381_00005_100	Visby Brömsebroväg 8	Sweden	background	57.6399	18.3097	European Envioronmental Agency (EEA)	2025-06-17	12.231566541666668	7.868312835693359	6.085617542266846	Good	Good	
102	SPO-SE338683_00005_100	Gävle Staketgatan 22	Sweden	traffic	60.6762	17.1376	European Envioronmental Agency (EEA)	2025-06-17	13.820524833333332	14.843257904052734	10.357943534851074	Good	Good	
103	SPO-SE338685_00005_100	Linköping Hamngatan 10	Sweden	traffic	58.4124	15.6301	European Envioronmental Agency (EEA)	2025-06-17	19.143058333333332	13.989750862121582	6.8702545166015625	Good	Good	
104	SPO-SE37479_00005_100	Sollentuna Ekmans Väg 11	Sweden	traffic	59.489	17.9199	European Envioronmental Agency (EEA)	2025-06-17	18.7493875	9.8568696975708	8.857711791992188	Good	Good	
105	SPO-SE0004A_00005_100	Göteborg Femman	Sweden	background	57.709	11.9702	European Envioronmental Agency (EEA)	2025-06-17	16.84670416666667	13.538908958435059	9.268150329589844	Good	Good	
106	SPO-SE0005R_00005_101	Bredkälen	Sweden	background	63.8455	15.3197	European Envioronmental Agency (EEA)	2025-06-17	5.283333333333334	2.019232749938965	2.4772963523864746	Good	Good	
107	SPO-SE0014R_00005_100	Råö	Sweden	background	57.3936	11.9142	European Envioronmental Agency (EEA)	2025-06-17	22.129166666666666	16.91082000732422	11.009917259216309	Good	Good	
108	SPO-SE0067A_00005_100	Göteborg Haga	Sweden	traffic	57.6979	11.9605	European Envioronmental Agency (EEA)	2025-06-17	17.6942375	17.841325759887695	11.87682819366455	Good	Good	
109	SPO-SE274590_00005_100	Göteborg Övre Husargatan	Sweden	traffic	57.6937	11.9568	European Envioronmental Agency (EEA)	2025-06-17	19.709979166666667	16.74173927307129	10.6107759475708	Good	Good	
110	SPO-SE165095_00005_100	Hedemora Gussarvsgatan	Sweden	traffic	60.2814	15.9891	European Envioronmental Agency (EEA)	2025-06-17	8.996458333333333	9.497379302978516	5.938722133636475	Good	Good	
111	SPO-SE0095A_00005_100	Sundsvall Köpmangatan	Sweden	traffic	62.3886	17.3089	European Envioronmental Agency (EEA)	2025-06-17	10.737833333333333	7.298634052276611	4.9984450340271	Good	Good	
112	SPO-SE09569_00005_100	Sundsvall Bergsgatan	Sweden	traffic	62.3865	17.3032	European Envioronmental Agency (EEA)	2025-06-17	16.100125000000002	9.026288032531738	5.833176136016846	Good	Good	
113	SPO-SE181002_00005_100	Växjö Liedbergsgatan 11	Sweden	traffic	56.8799	14.7993	European Envioronmental Agency (EEA)	2025-06-17	14.025	11.239776611328125	7.309939384460449	Good	Good	
114	SPO-SE181993_00005_100	Kalmar Södra Vägen	Sweden	traffic	56.6642	16.3336	European Envioronmental Agency (EEA)	2025-06-17	32.583333333333336	13.8659029006958	9.411842346191406	Good	Good	
115	SPO-SE181259_00005_100	Östersund Rådhusgatan	Sweden	traffic	63.1739	14.6411	European Envioronmental Agency (EEA)	2025-06-17	14.362500000000002	6.288440704345703	2.22186017036438	Good	Good	
116	SPO-SE0059A_00005_100	Umeå Västra Esplanaden	Sweden	traffic	63.8289	20.2585	European Envioronmental Agency (EEA)	2025-06-17	11.075000000000001	10.969589233398438	8.819260597229004	Good	Good	
117	SPO-SE274953_00005_100	Skellefteå Kv Pantern	Sweden	traffic	64.7495	20.9601	European Envioronmental Agency (EEA)	2025-06-17	15.488591666666666	8.288790702819824	8.81386947631836	Good	Good	
118	FI_5_101983	Muonio Sammaltunturi	Finland		67.97	24.12	Finnish Meteorological Institute (FMI)	2025-06-17	2.9333333333333336	1.9954968690872192	1.886517882347107	Good	Good	
