	Station Code	Station Name	Country	Station type	Latitude	Longitude	Network	Date	PM10 measured concentration (microg/m^3)	PM10 today forecast mean concentration (microg/m^3)	PM10 tomorrow forecast mean concentration (microg/m^3)	Today air quality	Tomorrow air quality	Actions
0	SPO-DK0034A_00005_100	Copenhagen/1103	Denmark	traffic	55.6743	12.5711	European Envioronmental Agency (EEA)	2025-10-01		37.91765594482422	33.68349075317383	Moderate	Moderate	
1	SPO-DK0012R_00005_101	Risoe	Denmark	background	55.6942	12.0889	European Envioronmental Agency (EEA)	2025-10-01		13.629414558410645	13.069363594055176	Good	Good	
2	SPO-FI00570_00005_100	Raahen keskusta 2	Finland	traffic	64.6834	24.4816	European Envioronmental Agency (EEA)	2025-10-01	6.335096583333335	6.032776355743408	6.336176872253418	Good	Good	
3	SPO-FI00349_00005_100	Utö	Finland	background	59.7792	21.374	European Envioronmental Agency (EEA)	2025-10-01	3.0679815416666667	3.6789281368255615	4.663017749786377	Good	Good	
4	SPO-FI00427_00005_100	Matorova	Finland	background	68.0005	24.2457	European Envioronmental Agency (EEA)	2025-10-01	1.8467405833333335	2.056307554244995	2.0922935009002686	Good	Good	
5	SPO-FI00838_00005_100	Epila 2	Finland	traffic	61.5085	23.6758	European Envioronmental Agency (EEA)	2025-10-01	12.113713875000002	12.37720012664795	11.611617088317871	Good	Good	
6	SPO-FI00208_00005_101	Luukki	Finland	background	60.3144	24.6849	European Envioronmental Agency (EEA)	2025-10-01	8.300284166666666	5.925815582275391	5.828503131866455	Good	Good	
7	SPO-FI00370_00005_100	Tikkurila 3	Finland	traffic	60.2899	25.0395	European Envioronmental Agency (EEA)	2025-10-01	11.901882666666666	9.565512657165527	9.147808074951172	Good	Good	
8	SPO-FI00425_00005_100	Kallio 2	Finland	background	60.1874	24.9506	European Envioronmental Agency (EEA)	2025-10-01	10.864404833333333	9.645981788635254	9.236113548278809	Good	Good	
9	SPO-FI00564_00005_100	Mannerheimintie	Finland	traffic	60.1696	24.9392	European Envioronmental Agency (EEA)	2025-10-01	17.821838083333336	18.304058074951172	16.448688507080078	Good	Good	
10	SPO-FI00781_00005_100	Vartiokylä Huivipolku	Finland	background	60.2239	25.1024	European Envioronmental Agency (EEA)	2025-10-01	10.905026541666667	7.782634735107422	7.95769739151001	Good	Good	
11	SPO-FI00841_00005_100	Leppävaara 4	Finland	traffic	60.2202	24.8113	European Envioronmental Agency (EEA)	2025-10-01	16.380691	11.153307914733887	12.278738021850586	Good	Good	
12	SPO-FI00301_00005_100	Pyykösjärvi	Finland	background	65.0434	25.4979	European Envioronmental Agency (EEA)	2025-10-01	7.782017041666667	6.629523754119873	6.8418474197387695	Good	Good	
13	SPO-FI00446_00005_100	Oulun keskusta 2	Finland	traffic	65.01	25.4713	European Envioronmental Agency (EEA)	2025-10-01	10.829187291666665	8.903995513916016	9.03739070892334	Good	Good	
14	SPO-FI00952_00005_100	Jyväskylä Hannikaisenkatu	Finland	traffic	62.2382	25.7479	European Envioronmental Agency (EEA)	2025-10-01	8.694431208333334	9.46688175201416	9.550357818603516	Good	Good	
15	SPO-FI00455_00005_100	Laune	Finland	traffic	60.967	25.6549	European Envioronmental Agency (EEA)	2025-10-01	11.368736708333335	13.036688804626465	12.60426139831543	Good	Good	
16	SPO-FI00889_00005_100	Saimaankatu	Finland	traffic	60.9913	25.6658	European Envioronmental Agency (EEA)	2025-10-01	9.688856583333333	7.176624298095703	8.014320373535156	Good	Good	
17	SPO-FI00444_00005_100	Naantalin keskusta	Finland	traffic	60.4674	22.0284	European Envioronmental Agency (EEA)	2025-10-01	9.966013416666668	7.4840874671936035	7.904870510101318	Good	Good	
18	SPO-FI00558_00005_100	Maaherrankatu	Finland	traffic	62.8933	27.6869	European Envioronmental Agency (EEA)	2025-10-01	9.603019333333334	8.482626914978027	8.842586517333984	Good	Good	
19	SPO-FI00839_00005_100	Tasavallankatu	Finland	traffic	62.882	27.6619	European Envioronmental Agency (EEA)	2025-10-01	12.155606125	13.258441925048828	12.396441459655762	Good	Good	
20	SPO-FI00928_00005_100	Pori Paanakedonkatu	Finland	traffic	61.4823	21.8133	European Envioronmental Agency (EEA)	2025-10-01	12.555586083333333	11.19347095489502	10.844367027282715	Good	Good	
21	SPO-FI00424_00005_100	Mansikkala	Finland	traffic	61.1889	28.7701	European Envioronmental Agency (EEA)	2025-10-01	11.165847291666665	9.91690731048584	9.279561996459961	Good	Good	
22	SPO-FI00433_00005_100	Teppanala	Finland	industrial	61.153	28.8101	European Envioronmental Agency (EEA)	2025-10-01	13.290699833333335	13.537213325500488	10.780184745788574	Good	Good	
23	SPO-FI00434_00005_100	Joutsenon keskusta	Finland	traffic	61.1171	28.4985	European Envioronmental Agency (EEA)	2025-10-01	7.158528875000001	5.452371120452881	5.663830757141113	Good	Good	
24	SPO-FI00606_00005_100	Lappeenrannan keskusta 4	Finland	traffic	61.0558	28.1843	European Envioronmental Agency (EEA)	2025-10-01	17.732905625	11.349357604980469	10.34081745147705	Good	Good	
25	SPO-FI00972_00005_100	Lohja Harjula	Finland	background	60.249	24.0695	European Envioronmental Agency (EEA)	2025-10-01	10.09235475	7.727378845214844	8.870277404785156	Good	Good	
26	SPO-FI00892_00005_100	Kankaan Koulu	Finland	traffic	60.8704	26.701	European Envioronmental Agency (EEA)	2025-10-01	12.222305	11.290440559387207	11.41950511932373	Good	Good	
27	SPO-FI00179_00005_100	Pirkkala	Finland	industrial	61.3316	22.1431	European Envioronmental Agency (EEA)	2025-10-01	9.196539625	6.8975348472595215	6.543920040130615	Good	Good	
28	SPO-FI00184_00005_100	Kaleva	Finland	industrial	61.3135	22.135	European Envioronmental Agency (EEA)	2025-10-01	9.836473416666667	7.502151012420654	6.9720458984375	Good	Good	
29	SPO-FI00397_00005_100	Bottenviksvägen	Finland	traffic	63.6791	22.7184	European Envioronmental Agency (EEA)	2025-10-01	8.001320458333334	6.6855621337890625	6.186568737030029	Good	Good	
30	SPO-IS0005A_00005_103	Reykjavik Grensas	Iceland	traffic	64.1301	-21.8747	European Envioronmental Agency (EEA)	2025-10-01		15.116439819335938	11.93104076385498	Good	Good	
31	SPO-IS0052A_00005_100	Akureyri Strandgata (við Hof)	Iceland	traffic	65.6841	-18.0882	European Envioronmental Agency (EEA)	2025-10-01	4.833333333333333	0.20886504650115967	-0.45569908618927	Good	Good	
32	SPO-IS0025A_00005_100	Grundartangi Kríuvarða	Iceland	industrial	64.3736	-21.7591	European Envioronmental Agency (EEA)	2025-10-01		6.280176639556885	5.970577716827393	Good	Good	
33	SPO-IS0041A_00005_100	Grundartangi Gröf	Iceland	industrial	64.3342	-21.8357	European Envioronmental Agency (EEA)	2025-10-01		0.1866845339536667	0.6818126440048218	Good	Good	
34	SPO-IS0037A_00005_100	Kópavogur Dalsmári	Iceland	background	64.105	-21.889	European Envioronmental Agency (EEA)	2025-10-01	5.6615475	5.926933765411377	4.777647018432617	Good	Good	
35	SPO-IS0046A_00005_101	Hafnarfjörður Norðurhella	Iceland	background	64.0442	-21.9854	European Envioronmental Agency (EEA)	2025-10-01	6.376041666666667	6.127351760864258	5.5376200675964355	Good	Good	
36	SPO-IS0049A_00005_100	PCC norður	Iceland	industrial	66.0793	-17.3422	European Envioronmental Agency (EEA)	2025-10-01	22.771985714285716	4.043327331542969	3.1025311946868896	Good	Good	
37	SPO-IS0050A_00005_100	PCC suður	Iceland	industrial	66.0549	-17.3476	European Envioronmental Agency (EEA)	2025-10-01	4.454145263157895	2.449211835861206	1.8146969079971313	Good	Good	
38	SPO_NO0071A_5_38	Manglerud	Norway	traffic	59.8986	10.8149	European Envioronmental Agency (EEA)	2025-10-01	12.805833333333334	10.14346981048584	11.08002758026123	Good	Good	
39	SPO_NO0093A_5_1039	Hjortnes	Norway	traffic	59.9113	10.704	European Envioronmental Agency (EEA)	2025-10-01	15.9225	15.256950378417969	13.151190757751465	Good	Good	
40	SPO_NO0095A_5_934	Smestad	Norway	traffic	59.9325	10.6699	European Envioronmental Agency (EEA)	2025-10-01	78.85052683333333	13.125598907470703	12.226263046264648	Good	Good	
41	SPO_NO0122A_5_2945	E6 Alna senter	Norway	traffic	59.9256	10.8504	European Envioronmental Agency (EEA)	2025-10-01	10.718806625000001	11.383509635925293	9.945147514343262	Good	Good	
42	SPO_NO0011A_5_19	Kirkeveien	Norway	traffic	59.9323	10.7245	European Envioronmental Agency (EEA)	2025-10-01	8.323351375	7.617116451263428	3.8297669887542725	Good	Good	
43	SPO_NO0057A_5_41	Alnabru	Norway	traffic	59.9277	10.8466	European Envioronmental Agency (EEA)	2025-10-01	6.5277977826086975	8.887679100036621	8.894815444946289	Good	Good	
44	SPO_NO0073A_5_552	Sofienbergparken	Norway	background	59.923	10.7657	European Envioronmental Agency (EEA)	2025-10-01	6.970208166666667	7.187889099121094	6.478108882904053	Good	Good	
45	SPO_NO0083A_5_793	Bygdøy Alle	Norway	traffic	59.9193	10.6965	European Envioronmental Agency (EEA)	2025-10-01	6.241666666666667	9.146105766296387	7.056401252746582	Good	Good	
46	SPO_NO0140A_5_3171	Spikersuppa	Norway	background	59.9141	10.736	European Envioronmental Agency (EEA)	2025-10-01	7.146546958333334	7.676097869873047	7.250014781951904	Good	Good	
47	SPO_NO0143A_5_3173	Vahl skole	Norway	traffic	59.9169	10.766	European Envioronmental Agency (EEA)	2025-10-01	6.054166666666667	6.886549472808838	6.17089319229126	Good	Good	
48	SPO_NO0059A_5_11	Danmarks plass	Norway	traffic	60.3741	5.3404	European Envioronmental Agency (EEA)	2025-10-01	8.632476041666667	4.467369079589844	6.657131671905518	Good	Good	
49	SPO_NO0108A_5_2071	Rolland Åsane	Norway	background	60.4627	5.3324	European Envioronmental Agency (EEA)	2025-10-01	4.653475833333334	2.012590169906616	3.4248833656311035	Good	Good	
50	SPO_NO0109A_5_2067	Loddefjord	Norway	traffic	60.3611	5.2369	European Envioronmental Agency (EEA)	2025-10-01	5.219307958333334	4.771857738494873	6.348160266876221	Good	Good	
51	SPO_NO0120A_5_2902	Klosterhaugen	Norway	background	60.3959	5.3127	European Envioronmental Agency (EEA)	2025-10-01	4.747180041666667	2.9090538024902344	5.323883533477783	Good	Good	
52	SPO_NO0121A_5_2888	Rådal	Norway	traffic	60.2943	5.3246	European Envioronmental Agency (EEA)	2025-10-01	8.344340166666667	5.068538188934326	8.309220314025879	Good	Good	
53	SPO_NO0060A_5_1685	Elgeseter	Norway	traffic	63.4174	10.3968	European Envioronmental Agency (EEA)	2025-10-01	12.545062666666666	7.408821105957031	6.423882484436035	Good	Good	
54	SPO_NO0102A_5_1530	E6-Tiller	Norway	traffic	63.3576	10.3717	European Envioronmental Agency (EEA)	2025-10-01		20.447851181030273	14.965624809265137	Good	Good	
55	SPO_NO0145A_5_3060	Omkjøringsvegen	Norway	traffic	63.4105	10.4444	European Envioronmental Agency (EEA)	2025-10-01	4.958637041666667	5.378299713134766	5.136620044708252	Good	Good	
56	SPO_NO0061A_5_713	Lensmannsdalen	Norway	traffic	59.1593	9.6357	European Envioronmental Agency (EEA)	2025-10-01	14.190000000000003	12.88704776763916	13.224215507507324	Good	Good	
57	SPO_NO0106A_5_1231	Sverresgate	Norway	traffic	59.1382	9.6522	European Envioronmental Agency (EEA)	2025-10-01	12.287916666666666	9.923356056213379	10.182882308959961	Good	Good	
58	SPO_NO0115A_5_2473	Furulund	Norway	industrial	59.0573	9.6956	European Envioronmental Agency (EEA)	2025-10-01	10.973398916666667	9.59956169128418	8.635306358337402	Good	Good	
59	SPO_NO0118A_5_2723	Knarrdalstranda	Norway	background	59.1335	9.6219	European Envioronmental Agency (EEA)	2025-10-01	8.219948208333333	9.553180694580078	10.150605201721191	Good	Good	
60	SPO_NO0063A_5_192	Stener Heyerdahl	Norway	background	58.1489	7.9918	European Envioronmental Agency (EEA)	2025-10-01	4.582968916666668	4.388113498687744	7.0925374031066895	Good	Good	
61	SPO_NO0134A_5_3121	Bjørndalssletta	Norway	traffic	58.1623	8.0238	European Envioronmental Agency (EEA)	2025-10-01	4.678923208333334	3.5212669372558594	7.304173946380615	Good	Good	
62	SPO_NO0065A_5_52	Våland	Norway	background	58.9616	5.7314	European Envioronmental Agency (EEA)	2025-10-01	6.782312833333333	3.7667648792266846	6.369108200073242	Good	Good	
63	SPO_NO0076A_5_46	Kannik	Norway	traffic	58.9642	5.7279	European Envioronmental Agency (EEA)	2025-10-01	6.589191666666667	5.962142467498779	7.299899101257324	Good	Good	
64	SPO_NO0125A_5_3017	Schancheholen	Norway	traffic	58.9519	5.7219	European Envioronmental Agency (EEA)	2025-10-01	3.5209955	4.267293930053711	7.492547035217285	Good	Good	
65	SPO_NO0141A_5_3178	Vågen	Norway	background	58.9726	5.7265	European Envioronmental Agency (EEA)	2025-10-01	4.744621166666667	4.456322193145752	6.6073079109191895	Good	Good	
66	SPO_NO0074A_5_539	Bankplassen	Norway	traffic	61.1129	10.4649	European Envioronmental Agency (EEA)	2025-10-01	8.4845545	7.558319568634033	7.582420825958252	Good	Good	
67	SPO_NO0075A_5_544	Lillehammer barnehage	Norway	background	61.1209	10.4656	European Envioronmental Agency (EEA)	2025-10-01	5.960774125	7.072412014007568	7.526384353637695	Good	Good	
68	SPO_NO0079A_5_392	Hansjordnesbukta	Norway	traffic	69.6562	18.9637	European Envioronmental Agency (EEA)	2025-10-01	32.323881666666665	10.237876892089844	7.860156536102295	Good	Good	
69	SPO_NO0124A_5_2957	Rambergan	Norway	background	69.6543	18.9564	European Envioronmental Agency (EEA)	2025-10-01	9.360465041666668	6.855983734130859	6.48699426651001	Good	Good	
70	SPO_NO0084A_5_967	St.Croix	Norway	traffic	59.2103	10.9454	European Envioronmental Agency (EEA)	2025-10-01	7.794884625000001	7.077375411987305	7.914925575256348	Good	Good	
71	SPO_NO0114A_5_2325	Bekkestua	Norway	background	59.9182	10.5839	European Envioronmental Agency (EEA)	2025-10-01	5.166666666666667	4.9982147216796875	4.537114143371582	Good	Good	
72	SPO_NO0110A_5_2064	Alvim	Norway	traffic	59.2738	11.0892	European Envioronmental Agency (EEA)	2025-10-01	9.492099666666666	7.0169806480407715	7.131392955780029	Good	Good	
73	SPO_NO0112A_5_1221	Kransen	Norway	traffic	59.4335	10.6618	European Envioronmental Agency (EEA)	2025-10-01	7.798026541666666	6.612043857574463	7.65195894241333	Good	Good	
74	SPO_NO0119A_5_2701	Leiret	Norway	traffic	60.8836	11.5593	European Envioronmental Agency (EEA)	2025-10-01	10.332820166666666	8.70104694366455	9.015839576721191	Good	Good	
75	SPO_NO0128A_5_2972	Nedre Langgate	Norway	traffic	59.2637	10.4112	European Envioronmental Agency (EEA)	2025-10-01	6.332687166666666	6.821666717529297	7.30608606338501	Good	Good	
76	SPO_NO0127A_5_2964	Seljestad Rv83	Norway	traffic	68.7922	16.5374	European Envioronmental Agency (EEA)	2025-10-01	12.865596833333333	4.886124134063721	3.321129083633423	Good	Good	
77	SPO_NO0130A_5_3000	Ringsakervegen	Norway	traffic	60.8859	10.9379	European Envioronmental Agency (EEA)	2025-10-01	7.487500000000001	7.228424549102783	7.967491626739502	Good	Good	
78	SPO-SE0001A_00005_100	Malmö Rådhuset	Sweden	background	55.6064	13.002	European Envioronmental Agency (EEA)	2025-10-01	6.996666666666667	8.1820650100708	9.547329902648926	Good	Good	
79	SPO-SE0058A_00005_100	Malmö Dalaplan	Sweden	traffic	55.5847	13.0062	European Envioronmental Agency (EEA)	2025-10-01	8.1925	8.801708221435547	9.548980712890625	Good	Good	
80	SPO-SE0085A_00005_101	Helsingborg Drottninggatan	Sweden	traffic	56.0472	12.6916	European Envioronmental Agency (EEA)	2025-10-01	11.942166666666667	6.795013427734375	9.298007011413574	Good	Good	
81	SPO-SE38350_00005_100	Lund Trollebergsvägen	Sweden	traffic	55.7033	13.1803	European Envioronmental Agency (EEA)	2025-10-01	8.062916666666668	6.548801422119141	7.982455253601074	Good	Good	
82	SPO-SE344172_00005_100	Västerås Stora Gatan 78	Sweden	traffic	59.6077	16.5359	European Envioronmental Agency (EEA)	2025-10-01	12.576500000000001	11.054865837097168	13.2847318649292	Good	Good	
83	SPO-SE0003A_00005_100	Stockholm Hornsgatan 108 Gata	Sweden	traffic	59.3172	18.0487	European Envioronmental Agency (EEA)	2025-10-01	7.3869749166666665	8.918107032775879	12.247782707214355	Good	Good	
84	SPO-SE0027A_00005_100	Stockholm Sveavägen 59 Gata	Sweden	traffic	59.3408	18.0583	European Envioronmental Agency (EEA)	2025-10-01	14.514929041666667	13.959816932678223	16.225133895874023	Good	Good	
85	SPO-SE0066A_00005_100	Norr Malma	Sweden	background	59.8324	18.6313	European Envioronmental Agency (EEA)	2025-10-01	5.485045791666667	4.269859790802002	4.388057708740234	Good	Good	
86	SPO-SE0071A_00005_100	Sollentuna E4 Häggvik	Sweden	traffic	59.4435	17.9224	European Envioronmental Agency (EEA)	2025-10-01	5.915183333333334	6.627546787261963	8.510260581970215	Good	Good	
87	SPO-SE0072A_00005_100	Södertälje Turingegatan 26	Sweden	traffic	59.1981	17.6211	European Envioronmental Agency (EEA)	2025-10-01	10.0692125	7.64117956161499	9.914085388183594	Good	Good	
88	SPO-SE0117A_00005_101	Visby Österväg 17	Sweden	traffic	57.6369	18.3036	European Envioronmental Agency (EEA)	2025-10-01	13.860666625	10.369548797607422	9.180804252624512	Good	Good	
89	SPO-SE156417_00005_100	Uppsala Kungsgatan 67	Sweden	traffic	59.8571	17.6463	European Envioronmental Agency (EEA)	2025-10-01	13.990149958333333	10.556904792785645	11.504804611206055	Good	Good	
90	SPO-SE157992_00005_100	Stockholm St Eriksgatan 83	Sweden	traffic	59.3405	18.037	European Envioronmental Agency (EEA)	2025-10-01	9.022162458333334	9.607955932617188	12.460659980773926	Good	Good	
91	SPO-SE159402_00005_100	Sollentuna Danderydsvägen	Sweden	traffic	59.4459	17.955	European Envioronmental Agency (EEA)	2025-10-01	7.757366666666667	8.758129119873047	9.85626220703125	Good	Good	
92	SPO-SE159404_00005_100	Uppsala Dragarbrunnsgatan 23 tak	Sweden	background	59.8605	17.6376	European Envioronmental Agency (EEA)	2025-10-01	11.182316666666665	7.712061405181885	7.791935920715332	Good	Good	
93	SPO-SE274652_00005_100	Sollentuna Sollentunavägen 192	Sweden	traffic	59.4336	17.9497	European Envioronmental Agency (EEA)	2025-10-01	8.082283333333335	7.631234645843506	10.707438468933105	Good	Good	
94	SPO-SE301111_00005_100	Norrköping Kungsgatan 32	Sweden	traffic	58.5915	16.1779	European Envioronmental Agency (EEA)	2025-10-01	10.280966583333333	8.002779960632324	9.924309730529785	Good	Good	
95	SPO-SE301113_00005_100	Norrköping Trädgårdsgatan 21	Sweden	background	58.592	16.1893	European Envioronmental Agency (EEA)	2025-10-01	8.425916666666668	6.680917739868164	7.828326225280762	Good	Good	
96	SPO-SE301757_00005_100	Sundbyberg Tulegatan 9	Sweden	traffic	59.3643	17.9763	European Envioronmental Agency (EEA)	2025-10-01	11.640316666666665	10.189208984375	12.670258522033691	Good	Good	
97	SPO-SE313381_00005_100	Visby Brömsebroväg 8	Sweden	background	57.6399	18.3097	European Envioronmental Agency (EEA)	2025-10-01	10.417841583333333	6.619323253631592	6.532618522644043	Good	Good	
98	SPO-SE338683_00005_100	Gävle Staketgatan 22	Sweden	traffic	60.6762	17.1376	European Envioronmental Agency (EEA)	2025-10-01	18.637974875	9.4332275390625	9.957533836364746	Good	Good	
99	SPO-SE338685_00005_100	Linköping Hamngatan 10	Sweden	traffic	58.4124	15.6301	European Envioronmental Agency (EEA)	2025-10-01	8.278699958333334	6.153312683105469	9.053147315979004	Good	Good	
100	SPO-SE37479_00005_100	Sollentuna Ekmans Väg 11	Sweden	traffic	59.489	17.9199	European Envioronmental Agency (EEA)	2025-10-01	6.651350000000001	7.956708908081055	9.480973243713379	Good	Good	
101	SPO-SE0004A_00005_100	Göteborg Femman	Sweden	background	57.709	11.9702	European Envioronmental Agency (EEA)	2025-10-01	7.7644737500000005	5.757188320159912	7.746767997741699	Good	Good	
102	SPO-SE0005R_00005_101	Bredkälen	Sweden	background	63.8455	15.3197	European Envioronmental Agency (EEA)	2025-10-01	2.8333333333333335	2.8532989025115967	2.694661855697632	Good	Good	
103	SPO-SE0014R_00005_100	Råö	Sweden	background	57.3936	11.9142	European Envioronmental Agency (EEA)	2025-10-01	5.520833333333333	3.8295929431915283	5.728463172912598	Good	Good	
104	SPO-SE159388_00005_101	Norunda Stenen	Sweden	background	60.0858	17.5053	European Envioronmental Agency (EEA)	2025-10-01	4.2255	4.534889221191406	4.5928053855896	Good	Good	
105	SPO-SE0021A_00005_100	Göteborg Gårda	Sweden	traffic	57.7009	11.9946	European Envioronmental Agency (EEA)	2025-10-01	9.995583333333334	8.692355155944824	12.942712783813477	Good	Good	
106	SPO-SE0067A_00005_100	Göteborg Haga	Sweden	traffic	57.6979	11.9605	European Envioronmental Agency (EEA)	2025-10-01	8.632104583333334	7.276920795440674	10.186755180358887	Good	Good	
107	SPO-SE274590_00005_100	Göteborg Övre Husargatan	Sweden	traffic	57.6937	11.9568	European Envioronmental Agency (EEA)	2025-10-01	11.785287083333335	6.949300289154053	10.222468376159668	Good	Good	
108	SPO-SE165095_00005_100	Hedemora Gussarvsgatan	Sweden	traffic	60.2814	15.9891	European Envioronmental Agency (EEA)	2025-10-01	10.675916666666666	6.568807125091553	7.759363651275635	Good	Good	
109	SPO-SE0095A_00005_100	Sundsvall Köpmangatan	Sweden	traffic	62.3886	17.3089	European Envioronmental Agency (EEA)	2025-10-01	11.908916666666668	9.972320556640625	8.22909164428711	Good	Good	
110	SPO-SE09569_00005_100	Sundsvall Bergsgatan	Sweden	traffic	62.3865	17.3032	European Envioronmental Agency (EEA)	2025-10-01	10.753166666666667	10.226424217224121	8.154358863830566	Good	Good	
111	SPO-SE181002_00005_100	Växjö Liedbergsgatan 11	Sweden	traffic	56.8799	14.7993	European Envioronmental Agency (EEA)	2025-10-01	6.979166666666667	4.782099723815918	7.2095232009887695	Good	Good	
112	SPO-SE181993_00005_100	Kalmar Södra Vägen	Sweden	traffic	56.6642	16.3336	European Envioronmental Agency (EEA)	2025-10-01	11.0375	6.541622638702393	7.1817827224731445	Good	Good	
113	SPO-SE181259_00005_100	Östersund Rådhusgatan	Sweden	traffic	63.1739	14.6411	European Envioronmental Agency (EEA)	2025-10-01	6.604166666666667	2.88315749168396	2.9901318550109863	Good	Good	
114	SPO-SE0059A_00005_100	Umeå Västra Esplanaden	Sweden	traffic	63.8289	20.2585	European Envioronmental Agency (EEA)	2025-10-01	13.9625	13.435982704162598	8.419979095458984	Good	Good	
115	SPO-SE274953_00005_100	Skellefteå Kv Pantern	Sweden	traffic	64.7495	20.9601	European Envioronmental Agency (EEA)	2025-10-01	16.762249999999998	13.031712532043457	12.055758476257324	Good	Good	
116	FI_5_101983	Muonio Sammaltunturi	Finland		67.97	24.12	Finnish Meteorological Institute (FMI)	2025-10-01	1.8333333333333333	1.9573174715042114	1.8111191987991333	Good	Good	
