	Station Code	Station Name	Country	Station type	Latitude	Longitude	Network	Date	PM10 measured concentration (microg/m^3)	PM10 today forecast mean concentration (microg/m^3)	PM10 tomorrow forecast mean concentration (microg/m^3)	Today air quality	Tomorrow air quality	Actions
0	SPO-DK0034A_00005_100	Copenhagen/1103	Denmark	traffic	55.6743	12.5711	European Envioronmental Agency (EEA)	2026-04-15		53.955291748046875	50.06480407714844	Unhealthy	Unhealthy	
1	SPO-DK0012R_00005_101	Risoe	Denmark	background	55.6942	12.0889	European Envioronmental Agency (EEA)	2026-04-15		18.173702239990234	17.931259155273438	Good	Good	
2	SPO-FI00570_00005_100	Raahen keskusta 2	Finland	traffic	64.6834	24.4816	European Envioronmental Agency (EEA)	2026-04-15	31.613185625	9.607208251953125	10.558930397033691	Good	Good	
3	SPO-FI00349_00005_100	Utö	Finland	background	59.7792	21.374	European Envioronmental Agency (EEA)	2026-04-15	7.814372958333334	5.669158935546875	3.75071120262146	Good	Good	
4	SPO-FI00427_00005_100	Matorova	Finland	background	68.0005	24.2457	European Envioronmental Agency (EEA)	2026-04-15	3.992138	4.630672931671143	4.734315395355225	Good	Good	
5	SPO-FI00549_00005_100	Pirkankatu	Finland	traffic	61.4987	23.7357	European Envioronmental Agency (EEA)	2026-04-15	23.984241458333333	12.30933666229248	10.327496528625488	Good	Good	
6	SPO-FI00838_00005_100	Epila 2	Finland	traffic	61.5085	23.6758	European Envioronmental Agency (EEA)	2026-04-15	49.612084208333336	7.714829921722412	6.304336071014404	Good	Good	
7	SPO-FI00208_00005_101	Luukki	Finland	background	60.3144	24.6849	European Envioronmental Agency (EEA)	2026-04-15	11.600517333333334	6.359182834625244	5.17743444442749	Good	Good	
8	SPO-FI00370_00005_100	Tikkurila 3	Finland	traffic	60.2899	25.0395	European Envioronmental Agency (EEA)	2026-04-15	40.19469041666667	16.78190803527832	12.079816818237305	Good	Good	
9	SPO-FI00425_00005_100	Kallio 2	Finland	background	60.1874	24.9506	European Envioronmental Agency (EEA)	2026-04-15	29.565995833333336	19.42566680908203	16.473316192626953	Good	Good	
10	SPO-FI00564_00005_100	Mannerheimintie	Finland	traffic	60.1696	24.9392	European Envioronmental Agency (EEA)	2026-04-15	59.55037333333333	18.28411293029785	13.835371971130371	Good	Good	
11	SPO-FI00781_00005_100	Vartiokylä Huivipolku	Finland	background	60.2239	25.1024	European Envioronmental Agency (EEA)	2026-04-15	24.045456083333335	8.988280296325684	7.467371463775635	Good	Good	
12	SPO-FI00841_00005_100	Leppävaara 4	Finland	traffic	60.2202	24.8113	European Envioronmental Agency (EEA)	2026-04-15	44.974617083333335	17.349609375	13.30566692352295	Good	Good	
13	SPO-FI00301_00005_100	Pyykösjärvi	Finland	background	65.0434	25.4979	European Envioronmental Agency (EEA)	2026-04-15	22.223173708333334	9.665305137634277	10.243760108947754	Good	Good	
14	SPO-FI00446_00005_100	Oulun keskusta 2	Finland	traffic	65.01	25.4713	European Envioronmental Agency (EEA)	2026-04-15	33.67991441666667	12.999590873718262	13.98417854309082	Good	Good	
15	SPO-FI00952_00005_100	Jyväskylä Hannikaisenkatu	Finland	traffic	62.2382	25.7479	European Envioronmental Agency (EEA)	2026-04-15	45.017817916666665	8.198594093322754	5.348392009735107	Good	Good	
16	SPO-FI00455_00005_100	Laune	Finland	traffic	60.967	25.6549	European Envioronmental Agency (EEA)	2026-04-15	54.853649499999996	12.5656099319458	8.260209083557129	Good	Good	
17	SPO-FI00889_00005_100	Saimaankatu	Finland	traffic	60.9913	25.6658	European Envioronmental Agency (EEA)	2026-04-15	21.449990153846155	8.63712215423584	6.6337056159973145	Good	Good	
18	SPO-FI00444_00005_100	Naantalin keskusta	Finland	traffic	60.4674	22.0284	European Envioronmental Agency (EEA)	2026-04-15	39.91613991666667	14.051780700683594	10.745343208312988	Good	Good	
19	SPO-FI00558_00005_100	Maaherrankatu	Finland	traffic	62.8933	27.6869	European Envioronmental Agency (EEA)	2026-04-15	33.06578091666667	10.443689346313477	10.287238121032715	Good	Good	
20	SPO-FI00839_00005_100	Tasavallankatu	Finland	traffic	62.882	27.6619	European Envioronmental Agency (EEA)	2026-04-15	47.42810439130435	12.871186256408691	13.068031311035156	Good	Good	
21	SPO-FI00928_00005_100	Pori Paanakedonkatu	Finland	traffic	61.4823	21.8133	European Envioronmental Agency (EEA)	2026-04-15	67.08465666666666	18.967275619506836	13.728281021118164	Good	Good	
22	SPO-FI00424_00005_100	Mansikkala	Finland	traffic	61.1889	28.7701	European Envioronmental Agency (EEA)	2026-04-15	10.048930916666668	11.264813423156738	9.090156555175781	Good	Good	
23	SPO-FI00433_00005_100	Teppanala	Finland	industrial	61.153	28.8101	European Envioronmental Agency (EEA)	2026-04-15	7.601923208333333	8.606083869934082	7.798558712005615	Good	Good	
24	SPO-FI00606_00005_100	Lappeenrannan keskusta 4	Finland	traffic	61.0558	28.1843	European Envioronmental Agency (EEA)	2026-04-15	21.67544525	6.9969940185546875	4.957976341247559	Good	Good	
25	SPO-FI00972_00005_100	Lohja Harjula	Finland	background	60.249	24.0695	European Envioronmental Agency (EEA)	2026-04-15	21.402527916666667	11.623580932617188	10.033926010131836	Good	Good	
26	SPO-FI00892_00005_100	Kankaan Koulu	Finland	traffic	60.8704	26.701	European Envioronmental Agency (EEA)	2026-04-15	24.712908416666668	15.4315767288208	13.057626724243164	Good	Good	
27	SPO-FI00179_00005_100	Pirkkala	Finland	industrial	61.3316	22.1431	European Envioronmental Agency (EEA)	2026-04-15	7.325330041666668	4.934082984924316	4.3698930740356445	Good	Good	
28	SPO-FI00184_00005_100	Kaleva	Finland	industrial	61.3135	22.135	European Envioronmental Agency (EEA)	2026-04-15	19.34665154166667	10.75451374053955	8.552118301391602	Good	Good	
29	SPO-FI00397_00005_100	Bottenviksvägen	Finland	traffic	63.6791	22.7184	European Envioronmental Agency (EEA)	2026-04-15	36.93132425	13.894096374511719	17.079437255859375	Good	Good	
30	SPO-IS0005A_00005_103	Reykjavik Grensas	Iceland	traffic	64.1301	-21.8747	European Envioronmental Agency (EEA)	2026-04-15	18.174576666666667	11.615273475646973	16.987703323364258	Good	Good	
31	SPO-IS0052A_00005_100	Akureyri Strandgata (við Hof)	Iceland	traffic	65.6841	-18.0882	European Envioronmental Agency (EEA)	2026-04-15	17.333333333333332	23.342782974243164	19.056734085083008	Good	Good	
32	SPO-IS0025A_00005_100	Grundartangi Kríuvarða	Iceland	industrial	64.3736	-21.7591	European Envioronmental Agency (EEA)	2026-04-15	8.90958	5.4204254150390625	5.561609745025635	Good	Good	
33	SPO-IS0041A_00005_100	Grundartangi Gröf	Iceland	industrial	64.3342	-21.8357	European Envioronmental Agency (EEA)	2026-04-15	4.90555875	3.7766544818878174	4.237271785736084	Good	Good	
34	SPO-IS0037A_00005_100	Kópavogur Dalsmári	Iceland	background	64.105	-21.889	European Envioronmental Agency (EEA)	2026-04-15	12.197027499999999	8.406712532043457	11.1874361038208	Good	Good	
35	SPO-IS0046A_00005_101	Hafnarfjörður Norðurhella	Iceland	background	64.0442	-21.9854	European Envioronmental Agency (EEA)	2026-04-15	6.407404166666667	5.429284572601318	5.0174126625061035	Good	Good	
36	SPO-IS0049A_00005_100	PCC norður	Iceland	industrial	66.0793	-17.3422	European Envioronmental Agency (EEA)	2026-04-15		2.1237292289733887	2.2132515907287598	Good	Good	
37	SPO-IS0050A_00005_100	PCC suður	Iceland	industrial	66.0549	-17.3476	European Envioronmental Agency (EEA)	2026-04-15		5.984360218048096	5.801670074462891	Good	Good	
38	SPO_NO0093A_5_1039	Hjortnes	Norway	traffic	59.9113	10.704	European Envioronmental Agency (EEA)	2026-04-15	34.08166666666667	27.865575790405273	25.534130096435547	Moderate	Moderate	
39	SPO_NO0095A_5_934	Smestad	Norway	traffic	59.9325	10.6699	European Envioronmental Agency (EEA)	2026-04-15	27.307947625	20.513357162475586	19.557191848754883	Good	Good	
40	SPO_NO0122A_5_2945	E6 Alna senter	Norway	traffic	59.9256	10.8504	European Envioronmental Agency (EEA)	2026-04-15	27.359703541666665	25.875734329223633	24.19982147216797	Moderate	Good	
41	SPO_NO0011A_5_19	Kirkeveien	Norway	traffic	59.9323	10.7245	European Envioronmental Agency (EEA)	2026-04-15	17.621333583333335	17.122343063354492	13.8114595413208	Good	Good	
42	SPO_NO0057A_5_41	Alnabru	Norway	traffic	59.9277	10.8466	European Envioronmental Agency (EEA)	2026-04-15	20.944514583333333	19.815481185913086	19.22835922241211	Good	Good	
43	SPO_NO0072A_5_352	Skøyen	Norway	background	59.9197	10.6897	European Envioronmental Agency (EEA)	2026-04-15	15.896823291666669	13.303935050964355	12.99901294708252	Good	Good	
44	SPO_NO0073A_5_552	Sofienbergparken	Norway	background	59.923	10.7657	European Envioronmental Agency (EEA)	2026-04-15	12.559387541666666	14.033764839172363	12.755287170410156	Good	Good	
45	SPO_NO0083A_5_793	Bygdøy Alle	Norway	traffic	59.9193	10.6965	European Envioronmental Agency (EEA)	2026-04-15	29.9875	15.932658195495605	15.260250091552734	Good	Good	
46	SPO_NO0140A_5_3171	Spikersuppa	Norway	background	59.9141	10.736	European Envioronmental Agency (EEA)	2026-04-15	13.11709254166667	13.745800971984863	12.828897476196289	Good	Good	
47	SPO_NO0059A_5_11	Danmarks plass	Norway	traffic	60.3741	5.3404	European Envioronmental Agency (EEA)	2026-04-15	16.29603725	11.123279571533203	7.015433311462402	Good	Good	
48	SPO_NO0108A_5_2071	Rolland Åsane	Norway	background	60.4627	5.3324	European Envioronmental Agency (EEA)	2026-04-15	5.9626616666666665	5.291905879974365	5.8625993728637695	Good	Good	
49	SPO_NO0109A_5_2067	Loddefjord	Norway	traffic	60.3611	5.2369	European Envioronmental Agency (EEA)	2026-04-15	8.73917275	5.429342746734619	3.8856759071350098	Good	Good	
50	SPO_NO0120A_5_2902	Klosterhaugen	Norway	background	60.3959	5.3127	European Envioronmental Agency (EEA)	2026-04-15	6.7368560833333335	5.775291442871094	3.355447292327881	Good	Good	
51	SPO_NO0121A_5_2888	Rådal	Norway	traffic	60.2943	5.3246	European Envioronmental Agency (EEA)	2026-04-15	10.135787708333334	4.846320152282715	1.8339478969573975	Good	Good	
52	SPO_NO0135A_5_3126	Backeparken	Norway	background	59.7495	10.1653	European Envioronmental Agency (EEA)	2026-04-15	10.575847208333334	13.319674491882324	7.438353061676025	Good	Good	
53	SPO_NO0136A_5_3124	Vårveien	Norway	traffic	59.7536	10.1444	European Envioronmental Agency (EEA)	2026-04-15	26.239424083333333	15.833126068115234	13.9744234085083	Good	Good	
54	SPO_NO0060A_5_1685	Elgeseter	Norway	traffic	63.4174	10.3968	European Envioronmental Agency (EEA)	2026-04-15	25.637741708333333	40.704368591308594	41.972503662109375	Moderate	Moderate	
55	SPO_NO0102A_5_1530	E6-Tiller	Norway	traffic	63.3576	10.3717	European Envioronmental Agency (EEA)	2026-04-15	31.226035250000006	29.796003341674805	28.86189842224121	Moderate	Moderate	
56	SPO_NO0106A_5_1231	Sverresgate	Norway	traffic	59.1382	9.6522	European Envioronmental Agency (EEA)	2026-04-15	12.155	8.718018531799316	11.006760597229004	Good	Good	
57	SPO_NO0115A_5_2473	Furulund	Norway	industrial	59.0573	9.6956	European Envioronmental Agency (EEA)	2026-04-15	12.4022035	9.374537467956543	9.40929126739502	Good	Good	
58	SPO_NO0118A_5_2723	Knarrdalstranda	Norway	background	59.1335	9.6219	European Envioronmental Agency (EEA)	2026-04-15	9.198030416666667	8.447181701660156	10.902608871459961	Good	Good	
59	SPO_NO0063A_5_192	Stener Heyerdahl	Norway	background	58.1489	7.9918	European Envioronmental Agency (EEA)	2026-04-15	6.975355958333334	6.676419734954834	7.586995601654053	Good	Good	
60	SPO_NO0065A_5_52	Våland	Norway	background	58.9616	5.7314	European Envioronmental Agency (EEA)	2026-04-15	5.075960791666668	4.339849948883057	5.108465671539307	Good	Good	
61	SPO_NO0076A_5_46	Kannik	Norway	traffic	58.9642	5.7279	European Envioronmental Agency (EEA)	2026-04-15	6.982199208333334	6.957328796386719	7.216515064239502	Good	Good	
62	SPO_NO0125A_5_3017	Schancheholen	Norway	traffic	58.9519	5.7219	European Envioronmental Agency (EEA)	2026-04-15	5.829079083333333	5.5993804931640625	6.216851234436035	Good	Good	
63	SPO_NO0074A_5_539	Bankplassen	Norway	traffic	61.1129	10.4649	European Envioronmental Agency (EEA)	2026-04-15	31.759812625000006	21.669031143188477	20.898996353149414	Good	Good	
64	SPO_NO0075A_5_544	Lillehammer barnehage	Norway	background	61.1209	10.4656	European Envioronmental Agency (EEA)	2026-04-15	12.498025208333337	15.33996295928955	14.957503318786621	Good	Good	
65	SPO_NO0079A_5_392	Hansjordnesbukta	Norway	traffic	69.6562	18.9637	European Envioronmental Agency (EEA)	2026-04-15	53.90297879166667	25.2601318359375	24.836278915405273	Moderate	Good	
66	SPO_NO0124A_5_2957	Rambergan	Norway	background	69.6543	18.9564	European Envioronmental Agency (EEA)	2026-04-15	36.33888158333333	17.390100479125977	16.559154510498047	Good	Good	
67	SPO_NO0084A_5_967	St.Croix	Norway	traffic	59.2103	10.9454	European Envioronmental Agency (EEA)	2026-04-15	15.340507083333335	9.91660213470459	11.398255348205566	Good	Good	
68	SPO_NO0114A_5_2325	Bekkestua	Norway	background	59.9182	10.5839	European Envioronmental Agency (EEA)	2026-04-15	18.191666666666666	14.739001274108887	14.879654884338379	Good	Good	
69	SPO_NO0110A_5_2064	Alvim	Norway	traffic	59.2738	11.0892	European Envioronmental Agency (EEA)	2026-04-15	15.556801958333333	8.997547149658203	9.370877265930176	Good	Good	
70	SPO_NO0112A_5_1221	Kransen	Norway	traffic	59.4335	10.6618	European Envioronmental Agency (EEA)	2026-04-15	12.881191625	12.058119773864746	12.377041816711426	Good	Good	
71	SPO_NO0119A_5_2701	Leiret	Norway	traffic	60.8836	11.5593	European Envioronmental Agency (EEA)	2026-04-15	23.855741041666665	27.707101821899414	22.44325828552246	Moderate	Good	
72	SPO_NO0128A_5_2972	Nedre Langgate	Norway	traffic	59.2637	10.4112	European Envioronmental Agency (EEA)	2026-04-15	15.793403041666666	12.390088081359863	13.348822593688965	Good	Good	
73	SPO_NO0129A_5_2950	Solheim	Norway	traffic	59.9286	10.9532	European Envioronmental Agency (EEA)	2026-04-15	22.956154708333333	24.59141731262207	22.255245208740234	Good	Good	
74	SPO_NO0127A_5_2964	Seljestad Rv83	Norway	traffic	68.7922	16.5374	European Envioronmental Agency (EEA)	2026-04-15	94.24480920833332	24.443159103393555	20.694103240966797	Good	Good	
75	SPO_NO0130A_5_3000	Ringsakervegen	Norway	traffic	60.8859	10.9379	European Envioronmental Agency (EEA)	2026-04-15	14.433333333333335	30.275232315063477	20.619203567504883	Moderate	Good	
76	SPO-SE0001A_00005_100	Malmö Rådhuset	Sweden	background	55.6064	13.002	European Envioronmental Agency (EEA)	2026-04-15	19.552083333333332	18.57151985168457	17.648588180541992	Good	Good	
77	SPO-SE0058A_00005_100	Malmö Dalaplan	Sweden	traffic	55.5847	13.0062	European Envioronmental Agency (EEA)	2026-04-15	23.691666666666666	22.25899314880371	20.934598922729492	Good	Good	
78	SPO-SE0085A_00005_101	Helsingborg Drottninggatan	Sweden	traffic	56.0472	12.6916	European Envioronmental Agency (EEA)	2026-04-15	21.645416666666666	18.792570114135742	18.77937889099121	Good	Good	
79	SPO-SE38350_00005_100	Lund Trollebergsvägen	Sweden	traffic	55.7033	13.1803	European Envioronmental Agency (EEA)	2026-04-15	20.428333333333335	17.661935806274414	17.020238876342773	Good	Good	
80	SPO-SE344172_00005_100	Västerås Stora Gatan 78	Sweden	traffic	59.6077	16.5359	European Envioronmental Agency (EEA)	2026-04-15	30.599166666666672	18.493356704711914	5.606274604797363	Good	Good	
81	SPO-SE0003A_00005_100	Stockholm Hornsgatan 108 Gata	Sweden	traffic	59.3172	18.0487	European Envioronmental Agency (EEA)	2026-04-15	12.592233250000001	7.733636379241943	1.070042371749878	Good	Good	
82	SPO-SE0022A_00005_100	Stockholm Torkel Knutssongatan	Sweden	background	59.316	18.0578	European Envioronmental Agency (EEA)	2026-04-15	10.933000000000002	8.91884708404541	5.44205379486084	Good	Good	
83	SPO-SE0027A_00005_100	Stockholm Sveavägen 59 Gata	Sweden	traffic	59.3408	18.0583	European Envioronmental Agency (EEA)	2026-04-15	19.205958083333332	14.570178031921387	9.22314453125	Good	Good	
84	SPO-SE0066A_00005_100	Norr Malma	Sweden	background	59.8324	18.6313	European Envioronmental Agency (EEA)	2026-04-15	7.625008333333334	5.816564083099365	4.168919563293457	Good	Good	
85	SPO-SE0071A_00005_100	Sollentuna E4 Häggvik	Sweden	traffic	59.4435	17.9224	European Envioronmental Agency (EEA)	2026-04-15	21.184541541666665	9.400259971618652	4.4743452072143555	Good	Good	
86	SPO-SE0072A_00005_100	Södertälje Turingegatan 26	Sweden	traffic	59.1981	17.6211	European Envioronmental Agency (EEA)	2026-04-15	21.9531665	14.121551513671875	7.937973499298096	Good	Good	
87	SPO-SE0087A_00005_100	Stockholm E4/E20 Lilla Essingen	Sweden	traffic	59.3255	18.0044	European Envioronmental Agency (EEA)	2026-04-15	24.57416654166667	22.063081741333008	13.23726749420166	Good	Good	
88	SPO-SE0117A_00005_101	Visby Österväg 17	Sweden	traffic	57.6369	18.3036	European Envioronmental Agency (EEA)	2026-04-15	21.290337333333337	17.478599548339844	-5.0401105880737305	Good	Good	
89	SPO-SE156417_00005_100	Uppsala Kungsgatan 67	Sweden	traffic	59.8571	17.6463	European Envioronmental Agency (EEA)	2026-04-15	17.673291625	12.393452644348145	7.955111503601074	Good	Good	
90	SPO-SE157992_00005_100	Stockholm St Eriksgatan 83	Sweden	traffic	59.3405	18.037	European Envioronmental Agency (EEA)	2026-04-15	24.374999958333333	14.3384428024292	5.81277322769165	Good	Good	
91	SPO-SE159402_00005_100	Sollentuna Danderydsvägen	Sweden	traffic	59.4459	17.955	European Envioronmental Agency (EEA)	2026-04-15	23.950270791666668	8.214462280273438	1.3784655332565308	Good	Good	
92	SPO-SE159404_00005_100	Uppsala Dragarbrunnsgatan 23 tak	Sweden	background	59.8605	17.6376	European Envioronmental Agency (EEA)	2026-04-15	13.630624916666667	8.803631782531738	6.86543607711792	Good	Good	
93	SPO-SE274652_00005_100	Sollentuna Sollentunavägen 192	Sweden	traffic	59.4336	17.9497	European Envioronmental Agency (EEA)	2026-04-15	42.42974995833334	12.480744361877441	5.066725730895996	Good	Good	
94	SPO-SE301111_00005_100	Norrköping Kungsgatan 32	Sweden	traffic	58.5915	16.1779	European Envioronmental Agency (EEA)	2026-04-15	15.946074875	10.48717212677002	4.521759510040283	Good	Good	
95	SPO-SE301113_00005_100	Norrköping Trädgårdsgatan 21	Sweden	background	58.592	16.1893	European Envioronmental Agency (EEA)	2026-04-15	8.230500000000001	8.14219856262207	5.529053688049316	Good	Good	
96	SPO-SE301757_00005_100	Sundbyberg Tulegatan 9	Sweden	traffic	59.3643	17.9763	European Envioronmental Agency (EEA)	2026-04-15	21.980791583333332	11.418017387390137	2.3732399940490723	Good	Good	
97	SPO-SE313381_00005_100	Visby Brömsebroväg 8	Sweden	background	57.6399	18.3097	European Envioronmental Agency (EEA)	2026-04-15	14.726479041666666	9.226255416870117	3.9418952465057373	Good	Good	
98	SPO-SE338683_00005_100	Gävle Staketgatan 22	Sweden	traffic	60.6762	17.1376	European Envioronmental Agency (EEA)	2026-04-15	27.295241625	36.08552932739258	26.5882568359375	Moderate	Moderate	
99	SPO-SE338685_00005_100	Linköping Hamngatan 10	Sweden	traffic	58.4124	15.6301	European Envioronmental Agency (EEA)	2026-04-15	12.2939415	12.87267780303955	1.2819064855575562	Good	Good	
100	SPO-SE37479_00005_100	Sollentuna Ekmans Väg 11	Sweden	traffic	59.489	17.9199	European Envioronmental Agency (EEA)	2026-04-15	15.288374958333335	9.35067081451416	4.917385101318359	Good	Good	
101	SPO-SE0004A_00005_100	Göteborg Femman	Sweden	background	57.709	11.9702	European Envioronmental Agency (EEA)	2026-04-15	9.385895416666667	12.506683349609375	13.478270530700684	Good	Good	
102	SPO-SE0005R_00005_101	Bredkälen	Sweden	background	63.8455	15.3197	European Envioronmental Agency (EEA)	2026-04-15	6.952173913043477	3.9042956829071045	3.5137414932250977	Good	Good	
103	SPO-SE0014R_00005_100	Råö	Sweden	background	57.3936	11.9142	European Envioronmental Agency (EEA)	2026-04-15	9.695833333333335	12.378573417663574	12.083946228027344	Good	Good	
104	SPO-SE159388_00005_101	Norunda Stenen	Sweden	background	60.0858	17.5053	European Envioronmental Agency (EEA)	2026-04-15	1.7319537272727275	0.6343733668327332	-0.018380414694547653	Good	Good	
105	SPO-SE0021A_00005_100	Göteborg Gårda	Sweden	traffic	57.7009	11.9946	European Envioronmental Agency (EEA)	2026-04-15	18.020833333333332	24.332557678222656	26.658838272094727	Good	Moderate	
106	SPO-SE0067A_00005_100	Göteborg Haga	Sweden	traffic	57.6979	11.9605	European Envioronmental Agency (EEA)	2026-04-15	10.464259166666666	15.950301170349121	16.40463638305664	Good	Good	
107	SPO-SE274590_00005_100	Göteborg Övre Husargatan	Sweden	traffic	57.6937	11.9568	European Envioronmental Agency (EEA)	2026-04-15	11.77723375	14.301907539367676	15.190289497375488	Good	Good	
108	SPO-SE165095_00005_100	Hedemora Gussarvsgatan	Sweden	traffic	60.2814	15.9891	European Envioronmental Agency (EEA)	2026-04-15	34.67820833333334	18.20335578918457	13.955528259277344	Good	Good	
109	SPO-SE0095A_00005_100	Sundsvall Köpmangatan	Sweden	traffic	62.3886	17.3089	European Envioronmental Agency (EEA)	2026-04-15	32.992375	21.028263092041016	17.70694351196289	Good	Good	
110	SPO-SE09569_00005_100	Sundsvall Bergsgatan	Sweden	traffic	62.3865	17.3032	European Envioronmental Agency (EEA)	2026-04-15	54.72479166666667	25.3398494720459	20.83992576599121	Moderate	Good	
111	SPO-SE313140_00005_100	Örnsköldsvik Centralesplanaden - Nygatan 24	Sweden	traffic	63.2918	18.7175	European Envioronmental Agency (EEA)	2026-04-15	48.57083333333333	24.07065773010254	20.273967742919922	Good	Good	
112	SPO-SE181002_00005_100	Växjö Liedbergsgatan 11	Sweden	traffic	56.8799	14.7993	European Envioronmental Agency (EEA)	2026-04-15	15.545833333333334	10.342473030090332	9.220685005187988	Good	Good	
113	SPO-SE32288_00005_100	Karlskrona N Smedjegatan Ö Köpmansgatan	Sweden	traffic	56.164	15.5889	European Envioronmental Agency (EEA)	2026-04-15	14.879166666666668	13.487055778503418	12.278191566467285	Good	Good	
114	SPO-SE181993_00005_100	Kalmar Södra Vägen	Sweden	traffic	56.6642	16.3336	European Envioronmental Agency (EEA)	2026-04-15	21.621739130434783	13.313467979431152	9.581109046936035	Good	Good	
115	SPO-SE181259_00005_100	Östersund Rådhusgatan	Sweden	traffic	63.1739	14.6411	European Envioronmental Agency (EEA)	2026-04-15	31.233333333333334	33.638641357421875	18.6932373046875	Moderate	Good	
116	SPO-SE0059A_00005_100	Umeå Västra Esplanaden	Sweden	traffic	63.8289	20.2585	European Envioronmental Agency (EEA)	2026-04-15	56.291666666666664	19.435548782348633	17.128223419189453	Good	Good	
117	SPO-SE274953_00005_100	Skellefteå Kv Pantern	Sweden	traffic	64.7495	20.9601	European Envioronmental Agency (EEA)	2026-04-15	60.46364583333334	8.625494956970215	5.364667892456055	Good	Good	
118	FI_5_101983	Muonio Sammaltunturi	Finland		67.97	24.12	Finnish Meteorological Institute (FMI)	2026-04-15	4.291666666666667	5.05730676651001	5.247314929962158	Good	Good	
