	Station Code	Station Name	Country	Station type	Latitude	Longitude	Network	Date	PM10 measured concentration (microg/m^3)	PM10 today forecast mean concentration (microg/m^3)	PM10 tomorrow forecast mean concentration (microg/m^3)	Today air quality	Tomorrow air quality	Actions
0	SPO-DK0034A_00005_100	Copenhagen/1103	Denmark	traffic	55.6743	12.5711	European Envioronmental Agency (EEA)	2025-07-06		34.65263366699219	27.24538803100586	Moderate	Moderate	
1	SPO-DK0012R_00005_101	Risoe	Denmark	background	55.6942	12.0889	European Envioronmental Agency (EEA)	2025-07-06	11.137500000000001	8.89321517944336	7.590203762054443	Good	Good	
2	SPO-FI00570_00005_100	Raahen keskusta 2	Finland	traffic	64.6834	24.4816	European Envioronmental Agency (EEA)	2025-07-06	3.8858224166666666	4.493091106414795	4.1945319175720215	Good	Good	
3	SPO-FI00349_00005_100	Utö	Finland	background	59.7792	21.374	European Envioronmental Agency (EEA)	2025-07-06	5.789515166666668	5.533927917480469	5.413295745849609	Good	Good	
4	SPO-FI00427_00005_100	Matorova	Finland	background	68.0005	24.2457	European Envioronmental Agency (EEA)	2025-07-06	1.709014625	1.2706291675567627	1.2616857290267944	Good	Good	
5	SPO-FI00838_00005_100	Epila 2	Finland	traffic	61.5085	23.6758	European Envioronmental Agency (EEA)	2025-07-06	4.082839833333334	5.613565921783447	6.749753952026367	Good	Good	
6	SPO-FI00208_00005_101	Luukki	Finland	background	60.3144	24.6849	European Envioronmental Agency (EEA)	2025-07-06	5.059022000000001	5.5041656494140625	6.073120594024658	Good	Good	
7	SPO-FI00370_00005_100	Tikkurila 3	Finland	traffic	60.2899	25.0395	European Envioronmental Agency (EEA)	2025-07-06	5.983880833333334	7.036430358886719	8.192216873168945	Good	Good	
8	SPO-FI00425_00005_100	Kallio 2	Finland	background	60.1874	24.9506	European Envioronmental Agency (EEA)	2025-07-06	6.805407916666667	7.6929755210876465	8.87653923034668	Good	Good	
9	SPO-FI00564_00005_100	Mannerheimintie	Finland	traffic	60.1696	24.9392	European Envioronmental Agency (EEA)	2025-07-06	9.117868708333333	10.21725082397461	12.84646224975586	Good	Good	
10	SPO-FI00781_00005_100	Vartiokylä Huivipolku	Finland	background	60.2239	25.1024	European Envioronmental Agency (EEA)	2025-07-06	6.926600416666667	6.538215160369873	7.222930431365967	Good	Good	
11	SPO-FI00841_00005_100	Leppävaara 4	Finland	traffic	60.2202	24.8113	European Envioronmental Agency (EEA)	2025-07-06	7.374324583333333	9.292259216308594	11.6581392288208	Good	Good	
12	SPO-FI00301_00005_100	Pyykösjärvi	Finland	background	65.0434	25.4979	European Envioronmental Agency (EEA)	2025-07-06	4.330119750000001	5.376272678375244	4.948314666748047	Good	Good	
13	SPO-FI00446_00005_100	Oulun keskusta 2	Finland	traffic	65.01	25.4713	European Envioronmental Agency (EEA)	2025-07-06	7.274126458333334	7.835269927978516	6.863214015960693	Good	Good	
14	SPO-FI00952_00005_100	Jyväskylä Hannikaisenkatu	Finland	traffic	62.2382	25.7479	European Envioronmental Agency (EEA)	2025-07-06	4.7155212083333335	5.470839023590088	6.4707794189453125	Good	Good	
15	SPO-FI00455_00005_100	Laune	Finland	traffic	60.967	25.6549	European Envioronmental Agency (EEA)	2025-07-06	4.260773833333334	5.593418598175049	7.981863498687744	Good	Good	
16	SPO-FI00889_00005_100	Saimaankatu	Finland	traffic	60.9913	25.6658	European Envioronmental Agency (EEA)	2025-07-06	4.208328875	5.6845574378967285	7.41474723815918	Good	Good	
17	SPO-FI00444_00005_100	Naantalin keskusta	Finland	traffic	60.4674	22.0284	European Envioronmental Agency (EEA)	2025-07-06	3.6514459583333334	6.299017429351807	7.156259059906006	Good	Good	
18	SPO-FI00558_00005_100	Maaherrankatu	Finland	traffic	62.8933	27.6869	European Envioronmental Agency (EEA)	2025-07-06	5.919144083333333	6.083171844482422	6.1323137283325195	Good	Good	
19	SPO-FI00839_00005_100	Tasavallankatu	Finland	traffic	62.882	27.6619	European Envioronmental Agency (EEA)	2025-07-06	7.696973416666668	6.497857570648193	7.466991901397705	Good	Good	
20	SPO-FI00928_00005_100	Pori Paanakedonkatu	Finland	traffic	61.4823	21.8133	European Envioronmental Agency (EEA)	2025-07-06	4.796659125000001	4.032907009124756	4.193853855133057	Good	Good	
21	SPO-FI00424_00005_100	Mansikkala	Finland	traffic	61.1889	28.7701	European Envioronmental Agency (EEA)	2025-07-06	5.323473166666667	8.873147010803223	9.45293140411377	Good	Good	
22	SPO-FI00433_00005_100	Teppanala	Finland	industrial	61.153	28.8101	European Envioronmental Agency (EEA)	2025-07-06	5.338614124999999	8.158740043640137	8.479201316833496	Good	Good	
23	SPO-FI00434_00005_100	Joutsenon keskusta	Finland	traffic	61.1171	28.4985	European Envioronmental Agency (EEA)	2025-07-06	4.0116725	5.280275821685791	6.78610372543335	Good	Good	
24	SPO-FI00606_00005_100	Lappeenrannan keskusta 4	Finland	traffic	61.0558	28.1843	European Envioronmental Agency (EEA)	2025-07-06	5.388249000000001	6.965824127197266	8.477258682250977	Good	Good	
25	SPO-FI00972_00005_100	Lohja Harjula	Finland	background	60.249	24.0695	European Envioronmental Agency (EEA)	2025-07-06	5.338740291666667	6.433822154998779	7.599937915802002	Good	Good	
26	SPO-FI00892_00005_100	Kankaan Koulu	Finland	traffic	60.8704	26.701	European Envioronmental Agency (EEA)	2025-07-06	5.209845583333334	8.374659538269043	9.993636131286621	Good	Good	
27	SPO-FI00179_00005_100	Pirkkala	Finland	industrial	61.3316	22.1431	European Envioronmental Agency (EEA)	2025-07-06	5.163033333333334	5.336185455322266	5.564270973205566	Good	Good	
28	SPO-FI00184_00005_100	Kaleva	Finland	industrial	61.3135	22.135	European Envioronmental Agency (EEA)	2025-07-06	4.919515416666667	5.225002765655518	5.50460958480835	Good	Good	
29	SPO-FI00465_00005_100	Vaasan keskusta	Finland	traffic	63.0951	21.6183	European Envioronmental Agency (EEA)	2025-07-06	1.3400455416666668	0.3900016248226166	-0.15362420678138733	Good	Good	
30	SPO-FI00397_00005_100	Bottenviksvägen	Finland	traffic	63.6791	22.7184	European Envioronmental Agency (EEA)	2025-07-06	6.274578666666668	6.142701625823975	3.9785361289978027	Good	Good	
31	SPO-IS0005A_00005_103	Reykjavik Grensas	Iceland	traffic	64.1301	-21.8747	European Envioronmental Agency (EEA)	2025-07-06		18.444833755493164	8.916610717773438	Good	Good	
32	SPO-IS0052A_00005_100	Akureyri Strandgata (við Hof)	Iceland	traffic	65.6841	-18.0882	European Envioronmental Agency (EEA)	2025-07-06	8.565217391304348	5.049696922302246	0.45651140809059143	Good	Good	
33	SPO-IS0025A_00005_100	Grundartangi Kríuvarða	Iceland	industrial	64.3736	-21.7591	European Envioronmental Agency (EEA)	2025-07-06		7.219940185546875	4.619961738586426	Good	Good	
34	SPO-IS0041A_00005_100	Grundartangi Gröf	Iceland	industrial	64.3342	-21.8357	European Envioronmental Agency (EEA)	2025-07-06		0.6769260764122009	0.24243848025798798	Good	Good	
35	SPO-IS0037A_00005_100	Kópavogur Dalsmári	Iceland	background	64.105	-21.889	European Envioronmental Agency (EEA)	2025-07-06	29.873333333333335	9.676249504089355	5.378180980682373	Good	Good	
36	SPO-IS0046A_00005_101	Hafnarfjörður Norðurhella	Iceland	background	64.0442	-21.9854	European Envioronmental Agency (EEA)	2025-07-06	19.49425	8.255932807922363	5.794784069061279	Good	Good	
37	SPO-IS0049A_00005_100	PCC norður	Iceland	industrial	66.0793	-17.3422	European Envioronmental Agency (EEA)	2025-07-06	12.9643125	3.51872181892395	1.6203879117965698	Good	Good	
38	SPO-IS0050A_00005_100	PCC suður	Iceland	industrial	66.0549	-17.3476	European Envioronmental Agency (EEA)	2025-07-06	9.011241000000002	4.967082500457764	1.1454296112060547	Good	Good	
39	SPO_NO0071A_5_38	Manglerud	Norway	traffic	59.8986	10.8149	European Envioronmental Agency (EEA)	2025-07-06	8.699166666666668	8.584514617919922	6.96201753616333	Good	Good	
40	SPO_NO0093A_5_1039	Hjortnes	Norway	traffic	59.9113	10.704	European Envioronmental Agency (EEA)	2025-07-06	10.240000000000002	10.247452735900879	8.716938018798828	Good	Good	
41	SPO_NO0095A_5_934	Smestad	Norway	traffic	59.9325	10.6699	European Envioronmental Agency (EEA)	2025-07-06	10.348544083333334	7.942692279815674	5.4593424797058105	Good	Good	
42	SPO_NO0122A_5_2945	E6 Alna senter	Norway	traffic	59.9256	10.8504	European Envioronmental Agency (EEA)	2025-07-06	5.946082875000001	6.255910396575928	4.331207275390625	Good	Good	
43	SPO_NO0011A_5_19	Kirkeveien	Norway	traffic	59.9323	10.7245	European Envioronmental Agency (EEA)	2025-07-06	7.82155675	3.4992685317993164	0.396266907453537	Good	Good	
44	SPO_NO0057A_5_41	Alnabru	Norway	traffic	59.9277	10.8466	European Envioronmental Agency (EEA)	2025-07-06	5.070133608695651	5.770013809204102	4.340920448303223	Good	Good	
45	SPO_NO0072A_5_352	Skøyen	Norway	background	59.9197	10.6897	European Envioronmental Agency (EEA)	2025-07-06	7.819264583333333	6.883460998535156	5.150451183319092	Good	Good	
46	SPO_NO0073A_5_552	Sofienbergparken	Norway	background	59.923	10.7657	European Envioronmental Agency (EEA)	2025-07-06	6.717133166666668	5.469623565673828	4.095905303955078	Good	Good	
47	SPO_NO0083A_5_793	Bygdøy Alle	Norway	traffic	59.9193	10.6965	European Envioronmental Agency (EEA)	2025-07-06	8.654166666666667	6.152228832244873	3.9709737300872803	Good	Good	
48	SPO_NO0140A_5_3171	Spikersuppa	Norway	background	59.9141	10.736	European Envioronmental Agency (EEA)	2025-07-06	7.835603375000001	6.297647953033447	4.160022735595703	Good	Good	
49	SPO_NO0143A_5_3173	Vahl skole	Norway	traffic	59.9169	10.766	European Envioronmental Agency (EEA)	2025-07-06	6.808333333333334	5.874769687652588	3.6802518367767334	Good	Good	
50	SPO_NO0059A_5_11	Danmarks plass	Norway	traffic	60.3741	5.3404	European Envioronmental Agency (EEA)	2025-07-06	3.6905700416666662	1.0829228162765503	5.436206817626953	Good	Good	
51	SPO_NO0108A_5_2071	Rolland Åsane	Norway	background	60.4627	5.3324	European Envioronmental Agency (EEA)	2025-07-06	3.6344572083333335	0.9936590194702148	3.1575052738189697	Good	Good	
52	SPO_NO0109A_5_2067	Loddefjord	Norway	traffic	60.3611	5.2369	European Envioronmental Agency (EEA)	2025-07-06	4.078468791666666	2.3710930347442627	5.151169776916504	Good	Good	
53	SPO_NO0120A_5_2902	Klosterhaugen	Norway	background	60.3959	5.3127	European Envioronmental Agency (EEA)	2025-07-06	3.9582910000000004	1.3912566900253296	4.302597522735596	Good	Good	
54	SPO_NO0121A_5_2888	Rådal	Norway	traffic	60.2943	5.3246	European Envioronmental Agency (EEA)	2025-07-06	4.072270625	1.6251274347305298	5.473118305206299	Good	Good	
55	SPO_NO0135A_5_3126	Backeparken	Norway	background	59.7495	10.1653	European Envioronmental Agency (EEA)	2025-07-06	6.816666666666666	4.747519493103027	3.7046456336975098	Good	Good	
56	SPO_NO0136A_5_3124	Vårveien	Norway	traffic	59.7536	10.1444	European Envioronmental Agency (EEA)	2025-07-06	5.915789473684211	3.3800785541534424	3.0068955421447754	Good	Good	
57	SPO_NO0060A_5_1685	Elgeseter	Norway	traffic	63.4174	10.3968	European Envioronmental Agency (EEA)	2025-07-06	3.5026526315789472	5.602771282196045	6.005203723907471	Good	Good	
58	SPO_NO0102A_5_1530	E6-Tiller	Norway	traffic	63.3576	10.3717	European Envioronmental Agency (EEA)	2025-07-06		25.488685607910156	20.0152530670166	Moderate	Good	
59	SPO_NO0145A_5_3060	Omkjøringsvegen	Norway	traffic	63.4105	10.4444	European Envioronmental Agency (EEA)	2025-07-06	1.767836625	3.1225550174713135	4.878140449523926	Good	Good	
60	SPO_NO0061A_5_713	Lensmannsdalen	Norway	traffic	59.1593	9.6357	European Envioronmental Agency (EEA)	2025-07-06	10.129565217391304	7.498091220855713	7.770853519439697	Good	Good	
61	SPO_NO0106A_5_1231	Sverresgate	Norway	traffic	59.1382	9.6522	European Envioronmental Agency (EEA)	2025-07-06	9.72304347826087	6.537029266357422	6.140343189239502	Good	Good	
62	SPO_NO0115A_5_2473	Furulund	Norway	industrial	59.0573	9.6956	European Envioronmental Agency (EEA)	2025-07-06	5.34313775	7.432011127471924	5.82470703125	Good	Good	
63	SPO_NO0118A_5_2723	Knarrdalstranda	Norway	background	59.1335	9.6219	European Envioronmental Agency (EEA)	2025-07-06	8.827566583333335	7.757935047149658	6.157546520233154	Good	Good	
64	SPO_NO0063A_5_192	Stener Heyerdahl	Norway	background	58.1489	7.9918	European Envioronmental Agency (EEA)	2025-07-06	5.536976583333334	3.5323565006256104	4.186761379241943	Good	Good	
65	SPO_NO0134A_5_3121	Bjørndalssletta	Norway	traffic	58.1623	8.0238	European Envioronmental Agency (EEA)	2025-07-06	4.726311125	2.7349720001220703	2.9718706607818604	Good	Good	
66	SPO_NO0065A_5_52	Våland	Norway	background	58.9616	5.7314	European Envioronmental Agency (EEA)	2025-07-06	3.327213625	2.905095338821411	4.269466876983643	Good	Good	
67	SPO_NO0076A_5_46	Kannik	Norway	traffic	58.9642	5.7279	European Envioronmental Agency (EEA)	2025-07-06	4.431354833333334	4.112054347991943	5.0521559715271	Good	Good	
68	SPO_NO0125A_5_3017	Schancheholen	Norway	traffic	58.9519	5.7219	European Envioronmental Agency (EEA)	2025-07-06	3.0203443750000005	2.7652690410614014	4.0638651847839355	Good	Good	
69	SPO_NO0141A_5_3178	Vågen	Norway	background	58.9726	5.7265	European Envioronmental Agency (EEA)	2025-07-06	3.783992416666667	3.648275375366211	4.326803684234619	Good	Good	
70	SPO_NO0074A_5_539	Bankplassen	Norway	traffic	61.1129	10.4649	European Envioronmental Agency (EEA)	2025-07-06	4.0006125416666665	1.8031058311462402	1.7307193279266357	Good	Good	
71	SPO_NO0075A_5_544	Lillehammer barnehage	Norway	background	61.1209	10.4656	European Envioronmental Agency (EEA)	2025-07-06	3.5834827500000004	2.7410430908203125	2.869321823120117	Good	Good	
72	SPO_NO0079A_5_392	Hansjordnesbukta	Norway	traffic	69.6562	18.9637	European Envioronmental Agency (EEA)	2025-07-06	9.892284333333334	9.141014099121094	9.756255149841309	Good	Good	
73	SPO_NO0124A_5_2957	Rambergan	Norway	background	69.6543	18.9564	European Envioronmental Agency (EEA)	2025-07-06	7.213478833333333	6.907871246337891	7.607485771179199	Good	Good	
74	SPO_NO0084A_5_967	St.Croix	Norway	traffic	59.2103	10.9454	European Envioronmental Agency (EEA)	2025-07-06	5.718662958333333	6.666463375091553	4.418968200683594	Good	Good	
75	SPO_NO0114A_5_2325	Bekkestua	Norway	background	59.9182	10.5839	European Envioronmental Agency (EEA)	2025-07-06	7.4375	5.0495285987854	2.67828106880188	Good	Good	
76	SPO_NO0110A_5_2064	Alvim	Norway	traffic	59.2738	11.0892	European Envioronmental Agency (EEA)	2025-07-06	7.871177208333333	7.3588714599609375	3.782029151916504	Good	Good	
77	SPO_NO0112A_5_1221	Kransen	Norway	traffic	59.4335	10.6618	European Envioronmental Agency (EEA)	2025-07-06	8.180016166666666	8.794227600097656	4.317743301391602	Good	Good	
78	SPO_NO0119A_5_2701	Leiret	Norway	traffic	60.8836	11.5593	European Envioronmental Agency (EEA)	2025-07-06	4.460535208333334	1.7116411924362183	1.563963532447815	Good	Good	
79	SPO_NO0128A_5_2972	Nedre Langgate	Norway	traffic	59.2637	10.4112	European Envioronmental Agency (EEA)	2025-07-06	5.730316458333334	7.16433572769165	4.488936424255371	Good	Good	
80	SPO_NO0129A_5_2950	Solheim	Norway	traffic	59.9286	10.9532	European Envioronmental Agency (EEA)	2025-07-06	6.483064583333333	6.635789394378662	4.658880233764648	Good	Good	
81	SPO_NO0127A_5_2964	Seljestad Rv83	Norway	traffic	68.7922	16.5374	European Envioronmental Agency (EEA)	2025-07-06	3.5232640833333337	3.229260206222534	3.760188341140747	Good	Good	
82	SPO_NO0130A_5_3000	Ringsakervegen	Norway	traffic	60.8859	10.9379	European Envioronmental Agency (EEA)	2025-07-06	3.070833333333334	1.5555986166000366	1.2562752962112427	Good	Good	
83	SPO-SE0001A_00005_100	Malmö Rådhuset	Sweden	background	55.6064	13.002	European Envioronmental Agency (EEA)	2025-07-06	8.796521739130435	7.405563831329346	7.892493724822998	Good	Good	
84	SPO-SE0058A_00005_100	Malmö Dalaplan	Sweden	traffic	55.5847	13.0062	European Envioronmental Agency (EEA)	2025-07-06	8.772608695652174	6.843315601348877	7.864232540130615	Good	Good	
85	SPO-SE0085A_00005_101	Helsingborg Drottninggatan	Sweden	traffic	56.0472	12.6916	European Envioronmental Agency (EEA)	2025-07-06	9.4705	7.037106990814209	7.534329414367676	Good	Good	
86	SPO-SE38350_00005_100	Lund Trollebergsvägen	Sweden	traffic	55.7033	13.1803	European Envioronmental Agency (EEA)	2025-07-06	6.753913043478263	5.456265926361084	5.6397600173950195	Good	Good	
87	SPO-SE344172_00005_100	Västerås Stora Gatan 78	Sweden	traffic	59.6077	16.5359	European Envioronmental Agency (EEA)	2025-07-06	7.0485000000000015	6.751558780670166	7.047283172607422	Good	Good	
88	SPO-SE0003A_00005_100	Stockholm Hornsgatan 108 Gata	Sweden	traffic	59.3172	18.0487	European Envioronmental Agency (EEA)	2025-07-06	6.710133333333334	6.636425495147705	9.51823902130127	Good	Good	
89	SPO-SE0027A_00005_100	Stockholm Sveavägen 59 Gata	Sweden	traffic	59.3408	18.0583	European Envioronmental Agency (EEA)	2025-07-06	8.714579458333333	11.975251197814941	15.694642066955566	Good	Good	
90	SPO-SE0066A_00005_100	Norr Malma	Sweden	background	59.8324	18.6313	European Envioronmental Agency (EEA)	2025-07-06	5.632537500000001	5.271684646606445	3.932379722595215	Good	Good	
91	SPO-SE0071A_00005_100	Sollentuna E4 Häggvik	Sweden	traffic	59.4435	17.9224	European Envioronmental Agency (EEA)	2025-07-06	4.174495833333334	4.81862211227417	5.627007484436035	Good	Good	
92	SPO-SE0072A_00005_100	Södertälje Turingegatan 26	Sweden	traffic	59.1981	17.6211	European Envioronmental Agency (EEA)	2025-07-06	5.243695833333334	5.237757205963135	7.104172229766846	Good	Good	
93	SPO-SE0117A_00005_101	Visby Österväg 17	Sweden	traffic	57.6369	18.3036	European Envioronmental Agency (EEA)	2025-07-06	7.616241625000001	8.743592262268066	7.96002721786499	Good	Good	
94	SPO-SE156417_00005_100	Uppsala Kungsgatan 67	Sweden	traffic	59.8571	17.6463	European Envioronmental Agency (EEA)	2025-07-06	12.079412458333335	8.153656005859375	8.696956634521484	Good	Good	
95	SPO-SE159402_00005_100	Sollentuna Danderydsvägen	Sweden	traffic	59.4459	17.955	European Envioronmental Agency (EEA)	2025-07-06	5.501875000000001	5.197752475738525	5.995115756988525	Good	Good	
96	SPO-SE159404_00005_100	Uppsala Dragarbrunnsgatan 23 tak	Sweden	background	59.8605	17.6376	European Envioronmental Agency (EEA)	2025-07-06	6.31578325	4.859325885772705	4.863667964935303	Good	Good	
97	SPO-SE274652_00005_100	Sollentuna Sollentunavägen 192	Sweden	traffic	59.4336	17.9497	European Envioronmental Agency (EEA)	2025-07-06	5.688204083333335	5.734836578369141	6.954102039337158	Good	Good	
98	SPO-SE301111_00005_100	Norrköping Kungsgatan 32	Sweden	traffic	58.5915	16.1779	European Envioronmental Agency (EEA)	2025-07-06	5.118533291666666	4.114426136016846	5.417069911956787	Good	Good	
99	SPO-SE301113_00005_100	Norrköping Trädgårdsgatan 21	Sweden	background	58.592	16.1893	European Envioronmental Agency (EEA)	2025-07-06	4.343	3.8157894611358643	5.214252948760986	Good	Good	
100	SPO-SE301757_00005_100	Sundbyberg Tulegatan 9	Sweden	traffic	59.3643	17.9763	European Envioronmental Agency (EEA)	2025-07-06	7.830325000000001	6.03538703918457	8.724272727966309	Good	Good	
101	SPO-SE313381_00005_100	Visby Brömsebroväg 8	Sweden	background	57.6399	18.3097	European Envioronmental Agency (EEA)	2025-07-06	6.590512458333333	6.587244510650635	6.760653972625732	Good	Good	
102	SPO-SE338683_00005_100	Gävle Staketgatan 22	Sweden	traffic	60.6762	17.1376	European Envioronmental Agency (EEA)	2025-07-06	4.390102041666666	3.7927157878875732	3.2404701709747314	Good	Good	
103	SPO-SE338685_00005_100	Linköping Hamngatan 10	Sweden	traffic	58.4124	15.6301	European Envioronmental Agency (EEA)	2025-07-06	6.282379166666668	4.106329441070557	5.941826820373535	Good	Good	
104	SPO-SE37479_00005_100	Sollentuna Ekmans Väg 11	Sweden	traffic	59.489	17.9199	European Envioronmental Agency (EEA)	2025-07-06	6.4576166666666674	6.172586917877197	6.335752487182617	Good	Good	
105	SPO-SE0004A_00005_100	Göteborg Femman	Sweden	background	57.709	11.9702	European Envioronmental Agency (EEA)	2025-07-06	10.149270416666667	8.132519721984863	8.724347114562988	Good	Good	
106	SPO-SE0005R_00005_101	Bredkälen	Sweden	background	63.8455	15.3197	European Envioronmental Agency (EEA)	2025-07-06	3.6541666666666672	2.497121810913086	1.8537153005599976	Good	Good	
107	SPO-SE0014R_00005_100	Råö	Sweden	background	57.3936	11.9142	European Envioronmental Agency (EEA)	2025-07-06	12.774999999999999	10.309829711914062	8.75798511505127	Good	Good	
108	SPO-SE159388_00005_101	Norunda Stenen	Sweden	background	60.0858	17.5053	European Envioronmental Agency (EEA)	2025-07-06	6.246186363636365	4.145985126495361	3.905632972717285	Good	Good	
109	SPO-SE0067A_00005_100	Göteborg Haga	Sweden	traffic	57.6979	11.9605	European Envioronmental Agency (EEA)	2025-07-06	8.708577083333333	7.828729152679443	8.153090476989746	Good	Good	
110	SPO-SE274590_00005_100	Göteborg Övre Husargatan	Sweden	traffic	57.6937	11.9568	European Envioronmental Agency (EEA)	2025-07-06	10.3677775	7.57449197769165	8.254273414611816	Good	Good	
111	SPO-SE165095_00005_100	Hedemora Gussarvsgatan	Sweden	traffic	60.2814	15.9891	European Envioronmental Agency (EEA)	2025-07-06	3.50075	3.1905577182769775	2.446558713912964	Good	Good	
112	SPO-SE0095A_00005_100	Sundsvall Köpmangatan	Sweden	traffic	62.3886	17.3089	European Envioronmental Agency (EEA)	2025-07-06	3.9821666666666666	6.376027584075928	4.3284502029418945	Good	Good	
113	SPO-SE09569_00005_100	Sundsvall Bergsgatan	Sweden	traffic	62.3865	17.3032	European Envioronmental Agency (EEA)	2025-07-06	4.2530833333333335	6.297633647918701	5.024932384490967	Good	Good	
114	SPO-SE181002_00005_100	Växjö Liedbergsgatan 11	Sweden	traffic	56.8799	14.7993	European Envioronmental Agency (EEA)	2025-07-06	6.925	4.636250019073486	4.388162136077881	Good	Good	
115	SPO-SE181993_00005_100	Kalmar Södra Vägen	Sweden	traffic	56.6642	16.3336	European Envioronmental Agency (EEA)	2025-07-06	8.5125	11.458621978759766	9.263330459594727	Good	Good	
116	SPO-SE181259_00005_100	Östersund Rådhusgatan	Sweden	traffic	63.1739	14.6411	European Envioronmental Agency (EEA)	2025-07-06	3.5333333333333337	3.3767576217651367	1.6629130840301514	Good	Good	
117	SPO-SE0059A_00005_100	Umeå Västra Esplanaden	Sweden	traffic	63.8289	20.2585	European Envioronmental Agency (EEA)	2025-07-06	7.633333333333334	6.5351881980896	4.793278694152832	Good	Good	
118	SPO-SE274953_00005_100	Skellefteå Kv Pantern	Sweden	traffic	64.7495	20.9601	European Envioronmental Agency (EEA)	2025-07-06	5.836099999999999	5.266992092132568	2.8575990200042725	Good	Good	
119	FI_5_101983	Muonio Sammaltunturi	Finland		67.97	24.12	Finnish Meteorological Institute (FMI)	2025-07-06	1.7083333333333333	1.2074910402297974	1.0875787734985352	Good	Good	
