	Station Code	Station Name	Country	Station type	Latitude	Longitude	Network	Date	PM10 measured concentration (microg/m^3)	PM10 today forecast mean concentration (microg/m^3)	PM10 tomorrow forecast mean concentration (microg/m^3)	Today air quality	Tomorrow air quality	Actions
0	SPO-FI00570_00005_100	Raahen keskusta 2	Finland	traffic	64.6834	24.4816	European Envioronmental Agency (EEA)	2025-10-29	4.522787625	5.117984771728516	5.535149097442627	Good	Good	
1	SPO-FI00349_00005_100	Utö	Finland	background	59.7792	21.374	European Envioronmental Agency (EEA)	2025-10-29	1.3347644166666666	2.0507500171661377	4.067255020141602	Good	Good	
2	SPO-FI00427_00005_100	Matorova	Finland	background	68.0005	24.2457	European Envioronmental Agency (EEA)	2025-10-29	1.4088618750000002	1.6451219320297241	1.4278818368911743	Good	Good	
3	SPO-FI00838_00005_100	Epila 2	Finland	traffic	61.5085	23.6758	European Envioronmental Agency (EEA)	2025-10-29	10.649299333333333	5.213540554046631	3.927778720855713	Good	Good	
4	SPO-FI00208_00005_101	Luukki	Finland	background	60.3144	24.6849	European Envioronmental Agency (EEA)	2025-10-29	3.970584875	5.735270023345947	5.6889119148254395	Good	Good	
5	SPO-FI00370_00005_100	Tikkurila 3	Finland	traffic	60.2899	25.0395	European Envioronmental Agency (EEA)	2025-10-29	5.927510125	5.575657367706299	5.5974931716918945	Good	Good	
6	SPO-FI00425_00005_100	Kallio 2	Finland	background	60.1874	24.9506	European Envioronmental Agency (EEA)	2025-10-29	4.881053333333334	6.67139196395874	6.968585014343262	Good	Good	
7	SPO-FI00564_00005_100	Mannerheimintie	Finland	traffic	60.1696	24.9392	European Envioronmental Agency (EEA)	2025-10-29	4.595228291666667	6.541628360748291	7.466930389404297	Good	Good	
8	SPO-FI00781_00005_100	Vartiokylä Huivipolku	Finland	background	60.2239	25.1024	European Envioronmental Agency (EEA)	2025-10-29	7.307545666666667	5.904971599578857	5.682598114013672	Good	Good	
9	SPO-FI00841_00005_100	Leppävaara 4	Finland	traffic	60.2202	24.8113	European Envioronmental Agency (EEA)	2025-10-29	5.630594583333334	6.517266750335693	6.949211597442627	Good	Good	
10	SPO-FI00301_00005_100	Pyykösjärvi	Finland	background	65.0434	25.4979	European Envioronmental Agency (EEA)	2025-10-29	5.805320291666667	5.585737228393555	5.480064392089844	Good	Good	
11	SPO-FI00446_00005_100	Oulun keskusta 2	Finland	traffic	65.01	25.4713	European Envioronmental Agency (EEA)	2025-10-29	6.811401708333334	7.407894134521484	6.809188365936279	Good	Good	
12	SPO-FI00952_00005_100	Jyväskylä Hannikaisenkatu	Finland	traffic	62.2382	25.7479	European Envioronmental Agency (EEA)	2025-10-29	13.9728195	5.501140594482422	5.637041091918945	Good	Good	
13	SPO-FI00455_00005_100	Laune	Finland	traffic	60.967	25.6549	European Envioronmental Agency (EEA)	2025-10-29	6.707349333333334	7.119654178619385	5.0665812492370605	Good	Good	
14	SPO-FI00889_00005_100	Saimaankatu	Finland	traffic	60.9913	25.6658	European Envioronmental Agency (EEA)	2025-10-29	5.535741458333334	6.618849277496338	5.081269264221191	Good	Good	
15	SPO-FI00444_00005_100	Naantalin keskusta	Finland	traffic	60.4674	22.0284	European Envioronmental Agency (EEA)	2025-10-29	8.559402041666667	7.594339847564697	4.920839309692383	Good	Good	
16	SPO-FI00558_00005_100	Maaherrankatu	Finland	traffic	62.8933	27.6869	European Envioronmental Agency (EEA)	2025-10-29	7.538335083333333	5.744431972503662	6.114380359649658	Good	Good	
17	SPO-FI00839_00005_100	Tasavallankatu	Finland	traffic	62.882	27.6619	European Envioronmental Agency (EEA)	2025-10-29	6.8316965	6.8756537437438965	7.492311477661133	Good	Good	
18	SPO-FI00928_00005_100	Pori Paanakedonkatu	Finland	traffic	61.4823	21.8133	European Envioronmental Agency (EEA)	2025-10-29	10.188551625	6.258520603179932	3.170377731323242	Good	Good	
19	SPO-FI00424_00005_100	Mansikkala	Finland	traffic	61.1889	28.7701	European Envioronmental Agency (EEA)	2025-10-29	10.05588775	7.492852687835693	6.939438343048096	Good	Good	
20	SPO-FI00433_00005_100	Teppanala	Finland	industrial	61.153	28.8101	European Envioronmental Agency (EEA)	2025-10-29	10.336675958333332	8.20000171661377	7.7366108894348145	Good	Good	
21	SPO-FI00434_00005_100	Joutsenon keskusta	Finland	traffic	61.1171	28.4985	European Envioronmental Agency (EEA)	2025-10-29	2.5787116666666665	4.142810344696045	4.9623823165893555	Good	Good	
22	SPO-FI00606_00005_100	Lappeenrannan keskusta 4	Finland	traffic	61.0558	28.1843	European Envioronmental Agency (EEA)	2025-10-29	6.844688208333333	6.617307662963867	6.709768772125244	Good	Good	
23	SPO-FI00972_00005_100	Lohja Harjula	Finland	background	60.249	24.0695	European Envioronmental Agency (EEA)	2025-10-29	4.4000855	6.552637577056885	5.71245813369751	Good	Good	
24	SPO-FI00892_00005_100	Kankaan Koulu	Finland	traffic	60.8704	26.701	European Envioronmental Agency (EEA)	2025-10-29	9.833551	6.798149108886719	6.782032012939453	Good	Good	
25	SPO-FI00179_00005_100	Pirkkala	Finland	industrial	61.3316	22.1431	European Envioronmental Agency (EEA)	2025-10-29	4.708595750000001	4.88723087310791	4.363040924072266	Good	Good	
26	SPO-FI00184_00005_100	Kaleva	Finland	industrial	61.3135	22.135	European Envioronmental Agency (EEA)	2025-10-29	4.8754069583333335	5.131292819976807	4.221749305725098	Good	Good	
27	SPO-FI00397_00005_100	Bottenviksvägen	Finland	traffic	63.6791	22.7184	European Envioronmental Agency (EEA)	2025-10-29	11.863475458333333	6.200559616088867	3.645195722579956	Good	Good	
28	SPO-IS0005A_00005_103	Reykjavik Grensas	Iceland	traffic	64.1301	-21.8747	European Envioronmental Agency (EEA)	2025-10-29		17.08355140686035	16.937393188476562	Good	Good	
29	SPO-IS0052A_00005_100	Akureyri Strandgata (við Hof)	Iceland	traffic	65.6841	-18.0882	European Envioronmental Agency (EEA)	2025-10-29	9.166666666666666	1.3885473012924194	-5.835311412811279	Good	Good	
30	SPO-IS0025A_00005_100	Grundartangi Kríuvarða	Iceland	industrial	64.3736	-21.7591	European Envioronmental Agency (EEA)	2025-10-29		6.7470011711120605	6.053014278411865	Good	Good	
31	SPO-IS0041A_00005_100	Grundartangi Gröf	Iceland	industrial	64.3342	-21.8357	European Envioronmental Agency (EEA)	2025-10-29		0.631542980670929	1.1796019077301025	Good	Good	
32	SPO-IS0037A_00005_100	Kópavogur Dalsmári	Iceland	background	64.105	-21.889	European Envioronmental Agency (EEA)	2025-10-29	5.043658333333334	2.4544129371643066	3.2840964794158936	Good	Good	
33	SPO-IS0046A_00005_101	Hafnarfjörður Norðurhella	Iceland	background	64.0442	-21.9854	European Envioronmental Agency (EEA)	2025-10-29	2.0419250000000004	1.3705297708511353	2.0136499404907227	Good	Good	
34	SPO-IS0049A_00005_100	PCC norður	Iceland	industrial	66.0793	-17.3422	European Envioronmental Agency (EEA)	2025-10-29	5.629915	2.228184461593628	0.4368665814399719	Good	Good	
35	SPO-IS0050A_00005_100	PCC suður	Iceland	industrial	66.0549	-17.3476	European Envioronmental Agency (EEA)	2025-10-29	4.866955833333333	1.0465914011001587	0.28308629989624023	Good	Good	
36	SPO-SE0001A_00005_100	Malmö Rådhuset	Sweden	background	55.6064	13.002	European Envioronmental Agency (EEA)	2025-10-29	11.310833333333335	7.414979457855225	6.437046051025391	Good	Good	
37	SPO-SE0058A_00005_100	Malmö Dalaplan	Sweden	traffic	55.5847	13.0062	European Envioronmental Agency (EEA)	2025-10-29	11.887083333333335	7.8916015625	6.345476150512695	Good	Good	
38	SPO-SE0085A_00005_101	Helsingborg Drottninggatan	Sweden	traffic	56.0472	12.6916	European Envioronmental Agency (EEA)	2025-10-29	9.477875	6.66057825088501	6.174538612365723	Good	Good	
39	SPO-SE38350_00005_100	Lund Trollebergsvägen	Sweden	traffic	55.7033	13.1803	European Envioronmental Agency (EEA)	2025-10-29	8.201666666666666	8.129342079162598	6.285996913909912	Good	Good	
40	SPO-SE344172_00005_100	Västerås Stora Gatan 78	Sweden	traffic	59.6077	16.5359	European Envioronmental Agency (EEA)	2025-10-29	16.547250000000002	11.627842903137207	9.853626251220703	Good	Good	
41	SPO-SE0003A_00005_100	Stockholm Hornsgatan 108 Gata	Sweden	traffic	59.3172	18.0487	European Envioronmental Agency (EEA)	2025-10-29	5.660570833333334	7.586896896362305	10.737085342407227	Good	Good	
42	SPO-SE0022A_00005_100	Stockholm Torkel Knutssongatan	Sweden	background	59.316	18.0578	European Envioronmental Agency (EEA)	2025-10-29	3.706445791666667	5.816293716430664	7.712531566619873	Good	Good	
43	SPO-SE0027A_00005_100	Stockholm Sveavägen 59 Gata	Sweden	traffic	59.3408	18.0583	European Envioronmental Agency (EEA)	2025-10-29	21.05647079166667	16.61393928527832	19.197864532470703	Good	Good	
44	SPO-SE0066A_00005_100	Norr Malma	Sweden	background	59.8324	18.6313	European Envioronmental Agency (EEA)	2025-10-29	4.247458333333333	4.346229553222656	4.224792003631592	Good	Good	
45	SPO-SE0071A_00005_100	Sollentuna E4 Häggvik	Sweden	traffic	59.4435	17.9224	European Envioronmental Agency (EEA)	2025-10-29	4.34664575	4.694685459136963	5.8604583740234375	Good	Good	
46	SPO-SE0072A_00005_100	Södertälje Turingegatan 26	Sweden	traffic	59.1981	17.6211	European Envioronmental Agency (EEA)	2025-10-29	15.513833208333333	9.684855461120605	10.767712593078613	Good	Good	
47	SPO-SE0117A_00005_101	Visby Österväg 17	Sweden	traffic	57.6369	18.3036	European Envioronmental Agency (EEA)	2025-10-29	11.090733333333333	6.563655853271484	10.333537101745605	Good	Good	
48	SPO-SE156417_00005_100	Uppsala Kungsgatan 67	Sweden	traffic	59.8571	17.6463	European Envioronmental Agency (EEA)	2025-10-29	5.519379166666667	6.348482608795166	7.8889970779418945	Good	Good	
49	SPO-SE157992_00005_100	Stockholm St Eriksgatan 83	Sweden	traffic	59.3405	18.037	European Envioronmental Agency (EEA)	2025-10-29	6.759941625000001	7.401857852935791	10.050917625427246	Good	Good	
50	SPO-SE159402_00005_100	Sollentuna Danderydsvägen	Sweden	traffic	59.4459	17.955	European Envioronmental Agency (EEA)	2025-10-29	5.929091625000001	6.977717876434326	8.573318481445312	Good	Good	
51	SPO-SE159404_00005_100	Uppsala Dragarbrunnsgatan 23 tak	Sweden	background	59.8605	17.6376	European Envioronmental Agency (EEA)	2025-10-29	4.524254125	5.305678844451904	7.117856025695801	Good	Good	
52	SPO-SE274652_00005_100	Sollentuna Sollentunavägen 192	Sweden	traffic	59.4336	17.9497	European Envioronmental Agency (EEA)	2025-10-29	5.076216625	6.503714084625244	9.212631225585938	Good	Good	
53	SPO-SE301111_00005_100	Norrköping Kungsgatan 32	Sweden	traffic	58.5915	16.1779	European Envioronmental Agency (EEA)	2025-10-29	13.274724916666665	7.4837727546691895	6.206606864929199	Good	Good	
54	SPO-SE301113_00005_100	Norrköping Trädgårdsgatan 21	Sweden	background	58.592	16.1893	European Envioronmental Agency (EEA)	2025-10-29	6.6540291666666675	5.124523162841797	4.972048282623291	Good	Good	
55	SPO-SE301757_00005_100	Sundbyberg Tulegatan 9	Sweden	traffic	59.3643	17.9763	European Envioronmental Agency (EEA)	2025-10-29	5.9251000000000005	7.637791156768799	9.786316871643066	Good	Good	
56	SPO-SE338683_00005_100	Gävle Staketgatan 22	Sweden	traffic	60.6762	17.1376	European Envioronmental Agency (EEA)	2025-10-29	11.911549916666667	6.6353020668029785	5.912248611450195	Good	Good	
57	SPO-SE338685_00005_100	Linköping Hamngatan 10	Sweden	traffic	58.4124	15.6301	European Envioronmental Agency (EEA)	2025-10-29	5.719104083333334	3.9630634784698486	0.5603518486022949	Good	Good	
58	SPO-SE37479_00005_100	Sollentuna Ekmans Väg 11	Sweden	traffic	59.489	17.9199	European Envioronmental Agency (EEA)	2025-10-29	6.101766666666667	7.891229152679443	9.898004531860352	Good	Good	
59	SPO-SE0004A_00005_100	Göteborg Femman	Sweden	background	57.709	11.9702	European Envioronmental Agency (EEA)	2025-10-29	10.616205	6.74496603012085	5.352535724639893	Good	Good	
60	SPO-SE0005R_00005_101	Bredkälen	Sweden	background	63.8455	15.3197	European Envioronmental Agency (EEA)	2025-10-29	1.225	1.392039179801941	1.132900357246399	Good	Good	
61	SPO-SE0014R_00005_100	Råö	Sweden	background	57.3936	11.9142	European Envioronmental Agency (EEA)	2025-10-29	7.229166666666667	6.55682373046875	5.230876922607422	Good	Good	
62	SPO-SE159388_00005_101	Norunda Stenen	Sweden	background	60.0858	17.5053	European Envioronmental Agency (EEA)	2025-10-29	3.5711	3.883103609085083	3.7928738594055176	Good	Good	
63	SPO-SE0021A_00005_100	Göteborg Gårda	Sweden	traffic	57.7009	11.9946	European Envioronmental Agency (EEA)	2025-10-29	15.116999999999999	9.012015342712402	6.749022006988525	Good	Good	
64	SPO-SE0067A_00005_100	Göteborg Haga	Sweden	traffic	57.6979	11.9605	European Envioronmental Agency (EEA)	2025-10-29	13.424639166666667	8.389235496520996	6.967496871948242	Good	Good	
65	SPO-SE274590_00005_100	Göteborg Övre Husargatan	Sweden	traffic	57.6937	11.9568	European Envioronmental Agency (EEA)	2025-10-29	13.744214166666666	9.813414573669434	7.28719425201416	Good	Good	
66	SPO-SE165095_00005_100	Hedemora Gussarvsgatan	Sweden	traffic	60.2814	15.9891	European Envioronmental Agency (EEA)	2025-10-29	6.540375	1.6913889646530151	-0.009930859319865704	Good	Good	
67	SPO-SE0095A_00005_100	Sundsvall Köpmangatan	Sweden	traffic	62.3886	17.3089	European Envioronmental Agency (EEA)	2025-10-29	38.19504166666667	17.38482093811035	8.147356986999512	Good	Good	
68	SPO-SE09569_00005_100	Sundsvall Bergsgatan	Sweden	traffic	62.3865	17.3032	European Envioronmental Agency (EEA)	2025-10-29	58.07933333333333	25.605993270874023	9.730378150939941	Moderate	Good	
69	SPO-SE313140_00005_100	Örnsköldsvik Centralesplanaden - Nygatan 24	Sweden	traffic	63.2918	18.7175	European Envioronmental Agency (EEA)	2025-10-29	25.40833333333333	4.723320484161377	2.676133394241333	Good	Good	
70	SPO-SE181002_00005_100	Växjö Liedbergsgatan 11	Sweden	traffic	56.8799	14.7993	European Envioronmental Agency (EEA)	2025-10-29	5.458333333333333	4.2460246086120605	3.510603189468384	Good	Good	
71	SPO-SE181993_00005_100	Kalmar Södra Vägen	Sweden	traffic	56.6642	16.3336	European Envioronmental Agency (EEA)	2025-10-29	8.770833333333334	6.271637439727783	6.110824108123779	Good	Good	
72	SPO-SE181259_00005_100	Östersund Rådhusgatan	Sweden	traffic	63.1739	14.6411	European Envioronmental Agency (EEA)	2025-10-29	27.120833333333334	10.976081848144531	-2.3138587474823	Good	Good	
73	SPO-SE0059A_00005_100	Umeå Västra Esplanaden	Sweden	traffic	63.8289	20.2585	European Envioronmental Agency (EEA)	2025-10-29	63.97083333333334	7.1019439697265625	4.968255043029785	Good	Good	
74	SPO-SE274953_00005_100	Skellefteå Kv Pantern	Sweden	traffic	64.7495	20.9601	European Envioronmental Agency (EEA)	2025-10-29	12.532366666666666	6.8964667320251465	5.030633449554443	Good	Good	
75	FI_5_101983	Muonio Sammaltunturi	Finland		67.97	24.12	Finnish Meteorological Institute (FMI)	2025-10-29	0.3958333333333333	0.6728100776672363	0.6990939378738403	Good	Good	
