	Station Code	Station Name	Country	Station type	Latitude	Longitude	Network	Date	PM10 measured concentration (microg/m^3)	PM10 today forecast mean concentration (microg/m^3)	PM10 tomorrow forecast mean concentration (microg/m^3)	Today air quality	Tomorrow air quality	Actions
0	SPO-DK0034A_00005_100	Copenhagen/1103	Denmark	traffic	55.6743	12.5711	European Envioronmental Agency (EEA)	2026-04-28		49.6477165222168	47.243133544921875	Unhealthy	Unhealthy	
1	SPO-DK0012R_00005_101	Risoe	Denmark	background	55.6942	12.0889	European Envioronmental Agency (EEA)	2026-04-28		16.920658111572266	16.707927703857422	Good	Good	
2	SPO-FI00570_00005_100	Raahen keskusta 2	Finland	traffic	64.6834	24.4816	European Envioronmental Agency (EEA)	2026-04-28	6.03307175	2.4252936840057373	2.2211484909057617	Good	Good	
3	SPO-FI00349_00005_100	Utö	Finland	background	59.7792	21.374	European Envioronmental Agency (EEA)	2026-04-28	6.746976916666667	3.555497169494629	3.4852471351623535	Good	Good	
4	SPO-FI00427_00005_100	Matorova	Finland	background	68.0005	24.2457	European Envioronmental Agency (EEA)	2026-04-28	3.2573845833333337	4.411279201507568	3.837787389755249	Good	Good	
5	SPO-FI00549_00005_100	Pirkankatu	Finland	traffic	61.4987	23.7357	European Envioronmental Agency (EEA)	2026-04-28	6.846747375	2.405574083328247	3.338214635848999	Good	Good	
6	SPO-FI00838_00005_100	Epila 2	Finland	traffic	61.5085	23.6758	European Envioronmental Agency (EEA)	2026-04-28	11.528589083333335	3.5678958892822266	4.235577583312988	Good	Good	
7	SPO-FI00208_00005_101	Luukki	Finland	background	60.3144	24.6849	European Envioronmental Agency (EEA)	2026-04-28	4.530048	2.5488152503967285	3.0073888301849365	Good	Good	
8	SPO-FI00370_00005_100	Tikkurila 3	Finland	traffic	60.2899	25.0395	European Envioronmental Agency (EEA)	2026-04-28	8.457811583333333	5.5706353187561035	7.123162269592285	Good	Good	
9	SPO-FI00425_00005_100	Kallio 2	Finland	background	60.1874	24.9506	European Envioronmental Agency (EEA)	2026-04-28	9.836586083333334	6.240856170654297	7.439816474914551	Good	Good	
10	SPO-FI00564_00005_100	Mannerheimintie	Finland	traffic	60.1696	24.9392	European Envioronmental Agency (EEA)	2026-04-28	19.32062325	11.314544677734375	13.819074630737305	Good	Good	
11	SPO-FI00781_00005_100	Vartiokylä Huivipolku	Finland	background	60.2239	25.1024	European Envioronmental Agency (EEA)	2026-04-28	8.795761458333333	5.490124225616455	6.527111530303955	Good	Good	
12	SPO-FI00841_00005_100	Leppävaara 4	Finland	traffic	60.2202	24.8113	European Envioronmental Agency (EEA)	2026-04-28	8.940416208333334	4.119174003601074	6.765232086181641	Good	Good	
13	SPO-FI00301_00005_100	Pyykösjärvi	Finland	background	65.0434	25.4979	European Envioronmental Agency (EEA)	2026-04-28	6.605746791666667	4.77524995803833	4.574278354644775	Good	Good	
14	SPO-FI00446_00005_100	Oulun keskusta 2	Finland	traffic	65.01	25.4713	European Envioronmental Agency (EEA)	2026-04-28	10.556838333333333	7.654138088226318	7.2011260986328125	Good	Good	
15	SPO-FI00952_00005_100	Jyväskylä Hannikaisenkatu	Finland	traffic	62.2382	25.7479	European Envioronmental Agency (EEA)	2026-04-28	7.944301083333333	0.2995753586292267	2.220154047012329	Good	Good	
16	SPO-FI00455_00005_100	Laune	Finland	traffic	60.967	25.6549	European Envioronmental Agency (EEA)	2026-04-28	8.576040458333333	0.6533053517341614	4.000586032867432	Good	Good	
17	SPO-FI00889_00005_100	Saimaankatu	Finland	traffic	60.9913	25.6658	European Envioronmental Agency (EEA)	2026-04-28	7.854764333333333	2.853506088256836	5.051133155822754	Good	Good	
18	SPO-FI00444_00005_100	Naantalin keskusta	Finland	traffic	60.4674	22.0284	European Envioronmental Agency (EEA)	2026-04-28	6.307833958333333	2.2940728664398193	3.6604435443878174	Good	Good	
19	SPO-FI00558_00005_100	Maaherrankatu	Finland	traffic	62.8933	27.6869	European Envioronmental Agency (EEA)	2026-04-28	9.658599625	2.7007553577423096	4.938851833343506	Good	Good	
20	SPO-FI00839_00005_100	Tasavallankatu	Finland	traffic	62.882	27.6619	European Envioronmental Agency (EEA)	2026-04-28	6.0721450416666665	0.47029900550842285	3.4886460304260254	Good	Good	
21	SPO-FI00928_00005_100	Pori Paanakedonkatu	Finland	traffic	61.4823	21.8133	European Envioronmental Agency (EEA)	2026-04-28	9.0110285	0.21707570552825928	2.783627986907959	Good	Good	
22	SPO-FI00424_00005_100	Mansikkala	Finland	traffic	61.1889	28.7701	European Envioronmental Agency (EEA)	2026-04-28	5.6687339166666675	1.3083792924880981	2.0911426544189453	Good	Good	
23	SPO-FI00433_00005_100	Teppanala	Finland	industrial	61.153	28.8101	European Envioronmental Agency (EEA)	2026-04-28	5.633171041666667	4.281303882598877	4.852585792541504	Good	Good	
24	SPO-FI00606_00005_100	Lappeenrannan keskusta 4	Finland	traffic	61.0558	28.1843	European Envioronmental Agency (EEA)	2026-04-28	7.1413884166666675	2.8960037231445312	3.474411725997925	Good	Good	
25	SPO-FI00972_00005_100	Lohja Harjula	Finland	background	60.249	24.0695	European Envioronmental Agency (EEA)	2026-04-28	10.823905571428574	4.938552379608154	5.491969108581543	Good	Good	
26	SPO-FI00892_00005_100	Kankaan Koulu	Finland	traffic	60.8704	26.701	European Envioronmental Agency (EEA)	2026-04-28	7.349151333333334	3.43182110786438	5.218540191650391	Good	Good	
27	SPO-FI00179_00005_100	Pirkkala	Finland	industrial	61.3316	22.1431	European Envioronmental Agency (EEA)	2026-04-28	4.0991605652173915	2.919820785522461	3.8205482959747314	Good	Good	
28	SPO-FI00184_00005_100	Kaleva	Finland	industrial	61.3135	22.135	European Envioronmental Agency (EEA)	2026-04-28	5.083227	3.664236068725586	4.610118865966797	Good	Good	
29	SPO-FI00397_00005_100	Bottenviksvägen	Finland	traffic	63.6791	22.7184	European Envioronmental Agency (EEA)	2026-04-28	7.0457958750000005	-1.2540035247802734	-0.06691260635852814	Good	Good	
30	SPO-IS0005A_00005_103	Reykjavik Grensas	Iceland	traffic	64.1301	-21.8747	European Envioronmental Agency (EEA)	2026-04-28	15.784387500000001	22.988161087036133	33.93727493286133	Good	Moderate	
31	SPO-IS0052A_00005_100	Akureyri Strandgata (við Hof)	Iceland	traffic	65.6841	-18.0882	European Envioronmental Agency (EEA)	2026-04-28	63.45454545454545	21.959213256835938	29.850004196166992	Good	Moderate	
32	SPO-IS0025A_00005_100	Grundartangi Kríuvarða	Iceland	industrial	64.3736	-21.7591	European Envioronmental Agency (EEA)	2026-04-28	32.907833333333336	8.28892993927002	9.297815322875977	Good	Good	
33	SPO-IS0041A_00005_100	Grundartangi Gröf	Iceland	industrial	64.3342	-21.8357	European Envioronmental Agency (EEA)	2026-04-28	10.866316666666668	6.655534267425537	9.359476089477539	Good	Good	
34	SPO-IS0037A_00005_100	Kópavogur Dalsmári	Iceland	background	64.105	-21.889	European Envioronmental Agency (EEA)	2026-04-28	12.996295833333335	14.93513011932373	20.115257263183594	Good	Good	
35	SPO-IS0046A_00005_101	Hafnarfjörður Norðurhella	Iceland	background	64.0442	-21.9854	European Envioronmental Agency (EEA)	2026-04-28	12.141408333333336	11.008334159851074	12.686970710754395	Good	Good	
36	SPO-IS0049A_00005_100	PCC norður	Iceland	industrial	66.0793	-17.3422	European Envioronmental Agency (EEA)	2026-04-28		3.026463270187378	3.35715651512146	Good	Good	
37	SPO-IS0050A_00005_100	PCC suður	Iceland	industrial	66.0549	-17.3476	European Envioronmental Agency (EEA)	2026-04-28		7.329975128173828	7.506032466888428	Good	Good	
38	SPO_NO0093A_5_1039	Hjortnes	Norway	traffic	59.9113	10.704	European Envioronmental Agency (EEA)	2026-04-28	25.671250000000004	25.996679306030273	26.92447853088379	Moderate	Moderate	
39	SPO_NO0095A_5_934	Smestad	Norway	traffic	59.9325	10.6699	European Envioronmental Agency (EEA)	2026-04-28	25.230455909090914	17.74176025390625	20.733535766601562	Good	Good	
40	SPO_NO0122A_5_2945	E6 Alna senter	Norway	traffic	59.9256	10.8504	European Envioronmental Agency (EEA)	2026-04-28	42.607900291666674	24.458803176879883	26.87531089782715	Good	Moderate	
41	SPO_NO0011A_5_19	Kirkeveien	Norway	traffic	59.9323	10.7245	European Envioronmental Agency (EEA)	2026-04-28	18.508493375	15.694522857666016	17.09933090209961	Good	Good	
42	SPO_NO0057A_5_41	Alnabru	Norway	traffic	59.9277	10.8466	European Envioronmental Agency (EEA)	2026-04-28	23.393066250000004	22.256927490234375	24.346755981445312	Good	Good	
43	SPO_NO0072A_5_352	Skøyen	Norway	background	59.9197	10.6897	European Envioronmental Agency (EEA)	2026-04-28	13.811572833333335	11.436053276062012	13.17944049835205	Good	Good	
44	SPO_NO0073A_5_552	Sofienbergparken	Norway	background	59.923	10.7657	European Envioronmental Agency (EEA)	2026-04-28	10.515682875000001	9.552080154418945	10.55689811706543	Good	Good	
45	SPO_NO0083A_5_793	Bygdøy Alle	Norway	traffic	59.9193	10.6965	European Envioronmental Agency (EEA)	2026-04-28	20.0625	25.99187660217285	27.217823028564453	Moderate	Moderate	
46	SPO_NO0059A_5_11	Danmarks plass	Norway	traffic	60.3741	5.3404	European Envioronmental Agency (EEA)	2026-04-28	9.706502791666667	10.429614067077637	9.641229629516602	Good	Good	
47	SPO_NO0108A_5_2071	Rolland Åsane	Norway	background	60.4627	5.3324	European Envioronmental Agency (EEA)	2026-04-28	7.518367208333333	6.7569403648376465	5.78265905380249	Good	Good	
48	SPO_NO0109A_5_2067	Loddefjord	Norway	traffic	60.3611	5.2369	European Envioronmental Agency (EEA)	2026-04-28	13.015882333333332	9.310664176940918	7.8887128829956055	Good	Good	
49	SPO_NO0120A_5_2902	Klosterhaugen	Norway	background	60.3959	5.3127	European Envioronmental Agency (EEA)	2026-04-28	5.680748083333334	7.0031208992004395	6.489359378814697	Good	Good	
50	SPO_NO0121A_5_2888	Rådal	Norway	traffic	60.2943	5.3246	European Envioronmental Agency (EEA)	2026-04-28	8.936995625	14.131623268127441	11.413412094116211	Good	Good	
51	SPO_NO0135A_5_3126	Backeparken	Norway	background	59.7495	10.1653	European Envioronmental Agency (EEA)	2026-04-28	10.921468791666669	12.405120849609375	19.03884506225586	Good	Good	
52	SPO_NO0136A_5_3124	Vårveien	Norway	traffic	59.7536	10.1444	European Envioronmental Agency (EEA)	2026-04-28	19.615772958333334	19.085025787353516	20.44122314453125	Good	Good	
53	SPO_NO0060A_5_1685	Elgeseter	Norway	traffic	63.4174	10.3968	European Envioronmental Agency (EEA)	2026-04-28	40.144884125	27.818552017211914	21.150358200073242	Moderate	Good	
54	SPO_NO0102A_5_1530	E6-Tiller	Norway	traffic	63.3576	10.3717	European Envioronmental Agency (EEA)	2026-04-28	29.483069291666666	24.224708557128906	17.847576141357422	Good	Good	
55	SPO_NO0106A_5_1231	Sverresgate	Norway	traffic	59.1382	9.6522	European Envioronmental Agency (EEA)	2026-04-28	14.03416666666667	12.490710258483887	13.682180404663086	Good	Good	
56	SPO_NO0115A_5_2473	Furulund	Norway	industrial	59.0573	9.6956	European Envioronmental Agency (EEA)	2026-04-28	8.997677875	10.253623008728027	11.336265563964844	Good	Good	
57	SPO_NO0118A_5_2723	Knarrdalstranda	Norway	background	59.1335	9.6219	European Envioronmental Agency (EEA)	2026-04-28	18.12587375	12.17948055267334	13.728436470031738	Good	Good	
58	SPO_NO0063A_5_192	Stener Heyerdahl	Norway	background	58.1489	7.9918	European Envioronmental Agency (EEA)	2026-04-28	6.810520375	7.382133483886719	7.358965873718262	Good	Good	
59	SPO_NO0065A_5_52	Våland	Norway	background	58.9616	5.7314	European Envioronmental Agency (EEA)	2026-04-28	9.812854458333335	12.82555866241455	10.132074356079102	Good	Good	
60	SPO_NO0076A_5_46	Kannik	Norway	traffic	58.9642	5.7279	European Envioronmental Agency (EEA)	2026-04-28	9.823337791666667	10.884173393249512	9.365704536437988	Good	Good	
61	SPO_NO0125A_5_3017	Schancheholen	Norway	traffic	58.9519	5.7219	European Envioronmental Agency (EEA)	2026-04-28	11.12162325	11.27259349822998	9.604537010192871	Good	Good	
62	SPO_NO0074A_5_539	Bankplassen	Norway	traffic	61.1129	10.4649	European Envioronmental Agency (EEA)	2026-04-28	31.7968035	15.550971984863281	15.695838928222656	Good	Good	
63	SPO_NO0075A_5_544	Lillehammer barnehage	Norway	background	61.1209	10.4656	European Envioronmental Agency (EEA)	2026-04-28	19.418683208333334	6.443960666656494	7.176074028015137	Good	Good	
64	SPO_NO0079A_5_392	Hansjordnesbukta	Norway	traffic	69.6562	18.9637	European Envioronmental Agency (EEA)	2026-04-28	38.852839916666674	8.253863334655762	1.468406319618225	Good	Good	
65	SPO_NO0124A_5_2957	Rambergan	Norway	background	69.6543	18.9564	European Envioronmental Agency (EEA)	2026-04-28	11.238944166666668	12.30176067352295	9.226790428161621	Good	Good	
66	SPO_NO0084A_5_967	St.Croix	Norway	traffic	59.2103	10.9454	European Envioronmental Agency (EEA)	2026-04-28	10.819204125	6.331576824188232	10.509594917297363	Good	Good	
67	SPO_NO0114A_5_2325	Bekkestua	Norway	background	59.9182	10.5839	European Envioronmental Agency (EEA)	2026-04-28	14.841666666666667	11.056477546691895	14.679677963256836	Good	Good	
68	SPO_NO0110A_5_2064	Alvim	Norway	traffic	59.2738	11.0892	European Envioronmental Agency (EEA)	2026-04-28	18.221719833333335	15.391900062561035	18.226078033447266	Good	Good	
69	SPO_NO0112A_5_1221	Kransen	Norway	traffic	59.4335	10.6618	European Envioronmental Agency (EEA)	2026-04-28	30.865012708333335	9.58062744140625	14.264896392822266	Good	Good	
70	SPO_NO0119A_5_2701	Leiret	Norway	traffic	60.8836	11.5593	European Envioronmental Agency (EEA)	2026-04-28	20.255871458333335	14.826591491699219	15.529479026794434	Good	Good	
71	SPO_NO0128A_5_2972	Nedre Langgate	Norway	traffic	59.2637	10.4112	European Envioronmental Agency (EEA)	2026-04-28	8.459353708333333	9.195853233337402	14.445213317871094	Good	Good	
72	SPO_NO0129A_5_2950	Solheim	Norway	traffic	59.9286	10.9532	European Envioronmental Agency (EEA)	2026-04-28	34.776389583333334	23.20673942565918	26.733152389526367	Good	Moderate	
73	SPO_NO0127A_5_2964	Seljestad Rv83	Norway	traffic	68.7922	16.5374	European Envioronmental Agency (EEA)	2026-04-28	19.471245875	19.993751525878906	14.362578392028809	Good	Good	
74	SPO_NO0130A_5_3000	Ringsakervegen	Norway	traffic	60.8859	10.9379	European Envioronmental Agency (EEA)	2026-04-28	26.258333333333336	16.326860427856445	15.693964004516602	Good	Good	
75	SPO-SE0085A_00005_101	Helsingborg Drottninggatan	Sweden	traffic	56.0472	12.6916	European Envioronmental Agency (EEA)	2026-04-28	10.019666666666668	11.068610191345215	11.441727638244629	Good	Good	
76	SPO-SE344172_00005_100	Västerås Stora Gatan 78	Sweden	traffic	59.6077	16.5359	European Envioronmental Agency (EEA)	2026-04-28	11.84375	2.882169723510742	5.87628173828125	Good	Good	
77	SPO-SE0003A_00005_100	Stockholm Hornsgatan 108 Gata	Sweden	traffic	59.3172	18.0487	European Envioronmental Agency (EEA)	2026-04-28	18.99900829166667	8.15269660949707	12.036468505859375	Good	Good	
78	SPO-SE0022A_00005_100	Stockholm Torkel Knutssongatan	Sweden	background	59.316	18.0578	European Envioronmental Agency (EEA)	2026-04-28	4.5856332916666664	3.7766330242156982	5.760672569274902	Good	Good	
79	SPO-SE0027A_00005_100	Stockholm Sveavägen 59 Gata	Sweden	traffic	59.3408	18.0583	European Envioronmental Agency (EEA)	2026-04-28	11.341462416666666	10.888518333435059	13.492737770080566	Good	Good	
80	SPO-SE0066A_00005_100	Norr Malma	Sweden	background	59.8324	18.6313	European Envioronmental Agency (EEA)	2026-04-28	1.3123711666666669	1.3034721612930298	2.603472948074341	Good	Good	
81	SPO-SE0071A_00005_100	Sollentuna E4 Häggvik	Sweden	traffic	59.4435	17.9224	European Envioronmental Agency (EEA)	2026-04-28	11.835816500000002	6.4207916259765625	8.610685348510742	Good	Good	
82	SPO-SE0072A_00005_100	Södertälje Turingegatan 26	Sweden	traffic	59.1981	17.6211	European Envioronmental Agency (EEA)	2026-04-28	13.789787458333334	8.475807189941406	10.826277732849121	Good	Good	
83	SPO-SE0087A_00005_100	Stockholm E4/E20 Lilla Essingen	Sweden	traffic	59.3255	18.0044	European Envioronmental Agency (EEA)	2026-04-28	17.87692075	19.484006881713867	22.801406860351562	Good	Good	
84	SPO-SE0117A_00005_101	Visby Österväg 17	Sweden	traffic	57.6369	18.3036	European Envioronmental Agency (EEA)	2026-04-28	7.543591583333334	-0.40462446212768555	0.3847213685512543	Good	Good	
85	SPO-SE156417_00005_100	Uppsala Kungsgatan 67	Sweden	traffic	59.8571	17.6463	European Envioronmental Agency (EEA)	2026-04-28	8.12378325	7.872796535491943	8.94090747833252	Good	Good	
86	SPO-SE157992_00005_100	Stockholm St Eriksgatan 83	Sweden	traffic	59.3405	18.037	European Envioronmental Agency (EEA)	2026-04-28	15.010779083333334	8.584209442138672	12.630409240722656	Good	Good	
87	SPO-SE159402_00005_100	Sollentuna Danderydsvägen	Sweden	traffic	59.4459	17.955	European Envioronmental Agency (EEA)	2026-04-28	14.175037375000002	3.545360565185547	7.040688991546631	Good	Good	
88	SPO-SE159404_00005_100	Uppsala Dragarbrunnsgatan 23 tak	Sweden	background	59.8605	17.6376	European Envioronmental Agency (EEA)	2026-04-28	5.397533291666668	4.713561534881592	5.232627868652344	Good	Good	
89	SPO-SE274652_00005_100	Sollentuna Sollentunavägen 192	Sweden	traffic	59.4336	17.9497	European Envioronmental Agency (EEA)	2026-04-28	15.881808291666667	4.80659294128418	8.073308944702148	Good	Good	
90	SPO-SE301111_00005_100	Norrköping Kungsgatan 32	Sweden	traffic	58.5915	16.1779	European Envioronmental Agency (EEA)	2026-04-28	13.996137375000002	7.408986568450928	6.947316646575928	Good	Good	
91	SPO-SE301113_00005_100	Norrköping Trädgårdsgatan 21	Sweden	background	58.592	16.1893	European Envioronmental Agency (EEA)	2026-04-28	7.667491583333335	5.298789978027344	5.129968166351318	Good	Good	
92	SPO-SE301757_00005_100	Sundbyberg Tulegatan 9	Sweden	traffic	59.3643	17.9763	European Envioronmental Agency (EEA)	2026-04-28	9.95298325	3.472658157348633	6.943840980529785	Good	Good	
93	SPO-SE313381_00005_100	Visby Brömsebroväg 8	Sweden	background	57.6399	18.3097	European Envioronmental Agency (EEA)	2026-04-28	5.776466625	4.079566955566406	4.406760215759277	Good	Good	
94	SPO-SE338683_00005_100	Gävle Staketgatan 22	Sweden	traffic	60.6762	17.1376	European Envioronmental Agency (EEA)	2026-04-28	18.496495708333335	8.44249439239502	8.839248657226562	Good	Good	
95	SPO-SE338685_00005_100	Linköping Hamngatan 10	Sweden	traffic	58.4124	15.6301	European Envioronmental Agency (EEA)	2026-04-28	12.193624916666666	6.306133270263672	6.020000457763672	Good	Good	
96	SPO-SE37479_00005_100	Sollentuna Ekmans Väg 11	Sweden	traffic	59.489	17.9199	European Envioronmental Agency (EEA)	2026-04-28	24.901520750000003	11.204025268554688	12.859402656555176	Good	Good	
97	SPO-SE0004A_00005_100	Göteborg Femman	Sweden	background	57.709	11.9702	European Envioronmental Agency (EEA)	2026-04-28	12.393304166666667	10.441119194030762	12.399548530578613	Good	Good	
98	SPO-SE0005R_00005_101	Bredkälen	Sweden	background	63.8455	15.3197	European Envioronmental Agency (EEA)	2026-04-28	2.016666666666667	0.882011353969574	0.9640828967094421	Good	Good	
99	SPO-SE0014R_00005_100	Råö	Sweden	background	57.3936	11.9142	European Envioronmental Agency (EEA)	2026-04-28	4.0625	4.736732482910156	7.138636589050293	Good	Good	
100	SPO-SE159388_00005_101	Norunda Stenen	Sweden	background	60.0858	17.5053	European Envioronmental Agency (EEA)	2026-04-28	2.31325652173913	2.3197569847106934	2.40838885307312	Good	Good	
101	SPO-SE0021A_00005_100	Göteborg Gårda	Sweden	traffic	57.7009	11.9946	European Envioronmental Agency (EEA)	2026-04-28	17.833333333333332	16.169599533081055	20.905656814575195	Good	Good	
102	SPO-SE0067A_00005_100	Göteborg Haga	Sweden	traffic	57.6979	11.9605	European Envioronmental Agency (EEA)	2026-04-28	18.48665	15.303718566894531	17.710308074951172	Good	Good	
103	SPO-SE274590_00005_100	Göteborg Övre Husargatan	Sweden	traffic	57.6937	11.9568	European Envioronmental Agency (EEA)	2026-04-28	25.592475000000004	21.56062889099121	22.647497177124023	Good	Good	
104	SPO-SE165095_00005_100	Hedemora Gussarvsgatan	Sweden	traffic	60.2814	15.9891	European Envioronmental Agency (EEA)	2026-04-28	8.4015	10.748260498046875	9.424408912658691	Good	Good	
105	SPO-SE0095A_00005_100	Sundsvall Köpmangatan	Sweden	traffic	62.3886	17.3089	European Envioronmental Agency (EEA)	2026-04-28	9.580958333333333	3.6016905307769775	2.023925542831421	Good	Good	
106	SPO-SE09569_00005_100	Sundsvall Bergsgatan	Sweden	traffic	62.3865	17.3032	European Envioronmental Agency (EEA)	2026-04-28	18.919166666666666	7.376823425292969	5.276381015777588	Good	Good	
107	SPO-SE313140_00005_100	Örnsköldsvik Centralesplanaden - Nygatan 24	Sweden	traffic	63.2918	18.7175	European Envioronmental Agency (EEA)	2026-04-28	26.866666666666664	11.146456718444824	8.902032852172852	Good	Good	
108	SPO-SE181002_00005_100	Växjö Liedbergsgatan 11	Sweden	traffic	56.8799	14.7993	European Envioronmental Agency (EEA)	2026-04-28	7.354166666666667	6.6739726066589355	5.869357109069824	Good	Good	
109	SPO-SE32288_00005_100	Karlskrona N Smedjegatan Ö Köpmansgatan	Sweden	traffic	56.164	15.5889	European Envioronmental Agency (EEA)	2026-04-28	10.433333333333335	7.326616287231445	7.60500955581665	Good	Good	
110	SPO-SE181993_00005_100	Kalmar Södra Vägen	Sweden	traffic	56.6642	16.3336	European Envioronmental Agency (EEA)	2026-04-28	10.816666666666668	6.049999237060547	5.8507490158081055	Good	Good	
111	SPO-SE181259_00005_100	Östersund Rådhusgatan	Sweden	traffic	63.1739	14.6411	European Envioronmental Agency (EEA)	2026-04-28	19.154166666666665	-0.4854501783847809	0.39662542939186096	Good	Good	
112	SPO-SE0059A_00005_100	Umeå Västra Esplanaden	Sweden	traffic	63.8289	20.2585	European Envioronmental Agency (EEA)	2026-04-28	20.229166666666668	6.1146063804626465	3.92537260055542	Good	Good	
113	SPO-SE274953_00005_100	Skellefteå Kv Pantern	Sweden	traffic	64.7495	20.9601	European Envioronmental Agency (EEA)	2026-04-28	21.258737500000002	-0.4669223725795746	-0.9226120710372925	Good	Good	
114	FI_5_101983	Muonio Sammaltunturi	Finland		67.97	24.12	Finnish Meteorological Institute (FMI)	2026-04-28	3.1875	5.010794162750244	4.471243858337402	Good	Good	
