	Station Code	Station Name	Country	Station type	Latitude	Longitude	Network	Date	PM10 measured concentration (microg/m^3)	PM10 today forecast mean concentration (microg/m^3)	PM10 tomorrow forecast mean concentration (microg/m^3)	Today air quality	Tomorrow air quality	Actions
0	SPO-DK0034A_00005_100	Copenhagen/1103	Denmark	traffic	55.6743	12.5711	European Envioronmental Agency (EEA)	2026-01-19		39.155582427978516	35.85501480102539	Moderate	Moderate	
1	SPO-DK0012R_00005_101	Risoe	Denmark	background	55.6942	12.0889	European Envioronmental Agency (EEA)	2026-01-19		13.014620780944824	12.03482437133789	Good	Good	
2	SPO-FI00570_00005_100	Raahen keskusta 2	Finland	traffic	64.6834	24.4816	European Envioronmental Agency (EEA)	2026-01-19		3.2935028076171875	2.017071485519409	Good	Good	
3	SPO-FI00349_00005_100	Utö	Finland	background	59.7792	21.374	European Envioronmental Agency (EEA)	2026-01-19	16.511537416666666	10.449738502502441	8.216885566711426	Good	Good	
4	SPO-FI00427_00005_100	Matorova	Finland	background	68.0005	24.2457	European Envioronmental Agency (EEA)	2026-01-19	0.06488983333333333	0.5741477012634277	0.8647159934043884	Good	Good	
5	SPO-FI00549_00005_100	Pirkankatu	Finland	traffic	61.4987	23.7357	European Envioronmental Agency (EEA)	2026-01-19	9.444108208333333	7.769207000732422	9.672840118408203	Good	Good	
6	SPO-FI00838_00005_100	Epila 2	Finland	traffic	61.5085	23.6758	European Envioronmental Agency (EEA)	2026-01-19	6.671369625	6.032428741455078	6.935060501098633	Good	Good	
7	SPO-FI00208_00005_101	Luukki	Finland	background	60.3144	24.6849	European Envioronmental Agency (EEA)	2026-01-19	12.087500499999999	9.511610984802246	13.05762767791748	Good	Good	
8	SPO-FI00370_00005_100	Tikkurila 3	Finland	traffic	60.2899	25.0395	European Envioronmental Agency (EEA)	2026-01-19	16.716358458333335	15.345780372619629	22.835464477539062	Good	Good	
9	SPO-FI00425_00005_100	Kallio 2	Finland	background	60.1874	24.9506	European Envioronmental Agency (EEA)	2026-01-19	16.098443333333336	14.204474449157715	20.107986450195312	Good	Good	
10	SPO-FI00564_00005_100	Mannerheimintie	Finland	traffic	60.1696	24.9392	European Envioronmental Agency (EEA)	2026-01-19	11.888168681818183	13.27906322479248	22.074134826660156	Good	Good	
11	SPO-FI00781_00005_100	Vartiokylä Huivipolku	Finland	background	60.2239	25.1024	European Envioronmental Agency (EEA)	2026-01-19	15.436963833333332	14.366122245788574	19.53955078125	Good	Good	
12	SPO-FI00841_00005_100	Leppävaara 4	Finland	traffic	60.2202	24.8113	European Envioronmental Agency (EEA)	2026-01-19	17.590675208333334	16.19734001159668	23.49806022644043	Good	Good	
13	SPO-FI00301_00005_100	Pyykösjärvi	Finland	background	65.0434	25.4979	European Envioronmental Agency (EEA)	2026-01-19	2.803453625	5.1793670654296875	4.581814765930176	Good	Good	
14	SPO-FI00446_00005_100	Oulun keskusta 2	Finland	traffic	65.01	25.4713	European Envioronmental Agency (EEA)	2026-01-19	4.276215416666667	6.920986652374268	6.201163291931152	Good	Good	
15	SPO-FI00952_00005_100	Jyväskylä Hannikaisenkatu	Finland	traffic	62.2382	25.7479	European Envioronmental Agency (EEA)	2026-01-19	7.368206083333334	10.062724113464355	8.362207412719727	Good	Good	
16	SPO-FI00455_00005_100	Laune	Finland	traffic	60.967	25.6549	European Envioronmental Agency (EEA)	2026-01-19	9.454926375000001	9.993789672851562	9.90403938293457	Good	Good	
17	SPO-FI00889_00005_100	Saimaankatu	Finland	traffic	60.9913	25.6658	European Envioronmental Agency (EEA)	2026-01-19	8.959332208333334	8.31895923614502	9.525280952453613	Good	Good	
18	SPO-FI00444_00005_100	Naantalin keskusta	Finland	traffic	60.4674	22.0284	European Envioronmental Agency (EEA)	2026-01-19	12.184437208333335	7.104559421539307	7.24122953414917	Good	Good	
19	SPO-FI00558_00005_100	Maaherrankatu	Finland	traffic	62.8933	27.6869	European Envioronmental Agency (EEA)	2026-01-19	2.589017125	4.254099369049072	5.688316822052002	Good	Good	
20	SPO-FI00839_00005_100	Tasavallankatu	Finland	traffic	62.882	27.6619	European Envioronmental Agency (EEA)	2026-01-19	2.24677325	4.465379238128662	6.062434196472168	Good	Good	
21	SPO-FI00928_00005_100	Pori Paanakedonkatu	Finland	traffic	61.4823	21.8133	European Envioronmental Agency (EEA)	2026-01-19	13.723364458333336	9.365338325500488	8.043213844299316	Good	Good	
22	SPO-FI00424_00005_100	Mansikkala	Finland	traffic	61.1889	28.7701	European Envioronmental Agency (EEA)	2026-01-19	2.377319791666667	6.194398403167725	6.208413124084473	Good	Good	
23	SPO-FI00433_00005_100	Teppanala	Finland	industrial	61.153	28.8101	European Envioronmental Agency (EEA)	2026-01-19	2.3091087916666666	6.933750629425049	6.76645565032959	Good	Good	
24	SPO-FI00606_00005_100	Lappeenrannan keskusta 4	Finland	traffic	61.0558	28.1843	European Envioronmental Agency (EEA)	2026-01-19	3.8646332500000007	7.592026233673096	8.050176620483398	Good	Good	
25	SPO-FI00972_00005_100	Lohja Harjula	Finland	background	60.249	24.0695	European Envioronmental Agency (EEA)	2026-01-19	14.485440458333334	9.873658180236816	11.8019437789917	Good	Good	
26	SPO-FI00892_00005_100	Kankaan Koulu	Finland	traffic	60.8704	26.701	European Envioronmental Agency (EEA)	2026-01-19	7.575657500000001	8.71036434173584	10.449360847473145	Good	Good	
27	SPO-FI00179_00005_100	Pirkkala	Finland	industrial	61.3316	22.1431	European Envioronmental Agency (EEA)	2026-01-19	11.201003541666665	8.453133583068848	7.715271472930908	Good	Good	
28	SPO-FI00184_00005_100	Kaleva	Finland	industrial	61.3135	22.135	European Envioronmental Agency (EEA)	2026-01-19	11.320167	8.556777000427246	7.224697113037109	Good	Good	
29	SPO-FI00397_00005_100	Bottenviksvägen	Finland	traffic	63.6791	22.7184	European Envioronmental Agency (EEA)	2026-01-19	8.286737	7.423532009124756	7.275753974914551	Good	Good	
30	SPO-IS0005A_00005_103	Reykjavik Grensas	Iceland	traffic	64.1301	-21.8747	European Envioronmental Agency (EEA)	2026-01-19	5.75174625	4.3219146728515625	2.203721761703491	Good	Good	
31	SPO-IS0052A_00005_100	Akureyri Strandgata (við Hof)	Iceland	traffic	65.6841	-18.0882	European Envioronmental Agency (EEA)	2026-01-19	5.041666666666667	-0.4683483839035034	1.210077166557312	Good	Good	
32	SPO-IS0025A_00005_100	Grundartangi Kríuvarða	Iceland	industrial	64.3736	-21.7591	European Envioronmental Agency (EEA)	2026-01-19		6.63413667678833	5.8986968994140625	Good	Good	
33	SPO-IS0041A_00005_100	Grundartangi Gröf	Iceland	industrial	64.3342	-21.8357	European Envioronmental Agency (EEA)	2026-01-19	3.9366229166666664	2.2185685634613037	2.1009669303894043	Good	Good	
34	SPO-IS0037A_00005_100	Kópavogur Dalsmári	Iceland	background	64.105	-21.889	European Envioronmental Agency (EEA)	2026-01-19	6.0510375	5.365085124969482	4.739430904388428	Good	Good	
35	SPO-IS0046A_00005_101	Hafnarfjörður Norðurhella	Iceland	background	64.0442	-21.9854	European Envioronmental Agency (EEA)	2026-01-19	3.083591666666667	4.897017002105713	3.523808717727661	Good	Good	
36	SPO-IS0049A_00005_100	PCC norður	Iceland	industrial	66.0793	-17.3422	European Envioronmental Agency (EEA)	2026-01-19		1.3600598573684692	1.2550303936004639	Good	Good	
37	SPO-IS0050A_00005_100	PCC suður	Iceland	industrial	66.0549	-17.3476	European Envioronmental Agency (EEA)	2026-01-19	3.446162222222222	1.3679183721542358	1.2458184957504272	Good	Good	
38	SPO_NO0093A_5_1039	Hjortnes	Norway	traffic	59.9113	10.704	European Envioronmental Agency (EEA)	2026-01-19	12.883750000000001	11.813855171203613	14.995182037353516	Good	Good	
39	SPO_NO0095A_5_934	Smestad	Norway	traffic	59.9325	10.6699	European Envioronmental Agency (EEA)	2026-01-19	9.08508575	8.117415428161621	7.783255577087402	Good	Good	
40	SPO_NO0122A_5_2945	E6 Alna senter	Norway	traffic	59.9256	10.8504	European Envioronmental Agency (EEA)	2026-01-19	10.592936833333335	8.006826400756836	10.163481712341309	Good	Good	
41	SPO_NO0011A_5_19	Kirkeveien	Norway	traffic	59.9323	10.7245	European Envioronmental Agency (EEA)	2026-01-19	7.494424272727273	4.678983211517334	4.349453449249268	Good	Good	
42	SPO_NO0057A_5_41	Alnabru	Norway	traffic	59.9277	10.8466	European Envioronmental Agency (EEA)	2026-01-19	6.968592291666667	7.438159942626953	9.274703025817871	Good	Good	
43	SPO_NO0072A_5_352	Skøyen	Norway	background	59.9197	10.6897	European Envioronmental Agency (EEA)	2026-01-19	8.542995916666667	7.519451141357422	8.830205917358398	Good	Good	
44	SPO_NO0073A_5_552	Sofienbergparken	Norway	background	59.923	10.7657	European Envioronmental Agency (EEA)	2026-01-19	6.928521583333333	6.394272327423096	7.160157680511475	Good	Good	
45	SPO_NO0083A_5_793	Bygdøy Alle	Norway	traffic	59.9193	10.6965	European Envioronmental Agency (EEA)	2026-01-19	12.307692307692308	9.809762001037598	8.99186897277832	Good	Good	
46	SPO_NO0140A_5_3171	Spikersuppa	Norway	background	59.9141	10.736	European Envioronmental Agency (EEA)	2026-01-19	7.562360916666667	7.7635321617126465	9.539371490478516	Good	Good	
47	SPO_NO0059A_5_11	Danmarks plass	Norway	traffic	60.3741	5.3404	European Envioronmental Agency (EEA)	2026-01-19	11.659854833333332	15.727425575256348	22.84879493713379	Good	Good	
48	SPO_NO0108A_5_2071	Rolland Åsane	Norway	background	60.4627	5.3324	European Envioronmental Agency (EEA)	2026-01-19	7.133272958333333	4.936620235443115	9.418562889099121	Good	Good	
49	SPO_NO0109A_5_2067	Loddefjord	Norway	traffic	60.3611	5.2369	European Envioronmental Agency (EEA)	2026-01-19	9.278123	10.085036277770996	13.934061050415039	Good	Good	
50	SPO_NO0120A_5_2902	Klosterhaugen	Norway	background	60.3959	5.3127	European Envioronmental Agency (EEA)	2026-01-19	10.463943791666667	8.369034767150879	13.706119537353516	Good	Good	
51	SPO_NO0121A_5_2888	Rådal	Norway	traffic	60.2943	5.3246	European Envioronmental Agency (EEA)	2026-01-19	9.677577291666667	9.549508094787598	13.44324779510498	Good	Good	
52	SPO_NO0135A_5_3126	Backeparken	Norway	background	59.7495	10.1653	European Envioronmental Agency (EEA)	2026-01-19	11.539790000000002	11.246655464172363	10.5856294631958	Good	Good	
53	SPO_NO0136A_5_3124	Vårveien	Norway	traffic	59.7536	10.1444	European Envioronmental Agency (EEA)	2026-01-19	19.36749108333333	21.53791046142578	16.941892623901367	Good	Good	
54	SPO_NO0060A_5_1685	Elgeseter	Norway	traffic	63.4174	10.3968	European Envioronmental Agency (EEA)	2026-01-19	22.980842083333332	18.240211486816406	13.369331359863281	Good	Good	
55	SPO_NO0102A_5_1530	E6-Tiller	Norway	traffic	63.3576	10.3717	European Envioronmental Agency (EEA)	2026-01-19		30.883203506469727	38.086021423339844	Moderate	Moderate	
56	SPO_NO0106A_5_1231	Sverresgate	Norway	traffic	59.1382	9.6522	European Envioronmental Agency (EEA)	2026-01-19	9.99625	6.2981109619140625	8.996565818786621	Good	Good	
57	SPO_NO0115A_5_2473	Furulund	Norway	industrial	59.0573	9.6956	European Envioronmental Agency (EEA)	2026-01-19	11.124742166666666	9.970593452453613	13.726057052612305	Good	Good	
58	SPO_NO0118A_5_2723	Knarrdalstranda	Norway	background	59.1335	9.6219	European Envioronmental Agency (EEA)	2026-01-19	13.743522750000002	7.973811626434326	11.50251293182373	Good	Good	
59	SPO_NO0063A_5_192	Stener Heyerdahl	Norway	background	58.1489	7.9918	European Envioronmental Agency (EEA)	2026-01-19	21.34138379166667	14.48162841796875	11.887175559997559	Good	Good	
60	SPO_NO0065A_5_52	Våland	Norway	background	58.9616	5.7314	European Envioronmental Agency (EEA)	2026-01-19	6.730332791666666	9.381447792053223	10.96606731414795	Good	Good	
61	SPO_NO0076A_5_46	Kannik	Norway	traffic	58.9642	5.7279	European Envioronmental Agency (EEA)	2026-01-19	12.665368916666667	9.983580589294434	11.208416938781738	Good	Good	
62	SPO_NO0125A_5_3017	Schancheholen	Norway	traffic	58.9519	5.7219	European Envioronmental Agency (EEA)	2026-01-19	16.37776941666667	8.901820182800293	10.86280345916748	Good	Good	
63	SPO_NO0074A_5_539	Bankplassen	Norway	traffic	61.1129	10.4649	European Envioronmental Agency (EEA)	2026-01-19	19.153895000000002	15.121438026428223	20.081056594848633	Good	Good	
64	SPO_NO0075A_5_544	Lillehammer barnehage	Norway	background	61.1209	10.4656	European Envioronmental Agency (EEA)	2026-01-19	17.976496	19.584259033203125	20.454303741455078	Good	Good	
65	SPO_NO0124A_5_2957	Rambergan	Norway	background	69.6543	18.9564	European Envioronmental Agency (EEA)	2026-01-19	4.538874750000001	5.921655654907227	6.6873626708984375	Good	Good	
66	SPO_NO0084A_5_967	St.Croix	Norway	traffic	59.2103	10.9454	European Envioronmental Agency (EEA)	2026-01-19	14.060211125	11.114060401916504	13.395483016967773	Good	Good	
67	SPO_NO0114A_5_2325	Bekkestua	Norway	background	59.9182	10.5839	European Envioronmental Agency (EEA)	2026-01-19	10.508333333333335	7.758513927459717	7.8914337158203125	Good	Good	
68	SPO_NO0110A_5_2064	Alvim	Norway	traffic	59.2738	11.0892	European Envioronmental Agency (EEA)	2026-01-19	15.449286041666667	8.740443229675293	10.559327125549316	Good	Good	
69	SPO_NO0112A_5_1221	Kransen	Norway	traffic	59.4335	10.6618	European Envioronmental Agency (EEA)	2026-01-19	10.373891458333334	7.0840373039245605	9.314857482910156	Good	Good	
70	SPO_NO0119A_5_2701	Leiret	Norway	traffic	60.8836	11.5593	European Envioronmental Agency (EEA)	2026-01-19	8.4751135	12.378634452819824	14.649112701416016	Good	Good	
71	SPO_NO0128A_5_2972	Nedre Langgate	Norway	traffic	59.2637	10.4112	European Envioronmental Agency (EEA)	2026-01-19	11.573594791666666	6.959200382232666	8.833687782287598	Good	Good	
72	SPO_NO0129A_5_2950	Solheim	Norway	traffic	59.9286	10.9532	European Envioronmental Agency (EEA)	2026-01-19	10.9530835	10.27380657196045	11.865767478942871	Good	Good	
73	SPO_NO0127A_5_2964	Seljestad Rv83	Norway	traffic	68.7922	16.5374	European Envioronmental Agency (EEA)	2026-01-19	7.912024	7.383197784423828	5.916826248168945	Good	Good	
74	SPO_NO0130A_5_3000	Ringsakervegen	Norway	traffic	60.8859	10.9379	European Envioronmental Agency (EEA)	2026-01-19	11.883333333333333	16.87611198425293	16.025341033935547	Good	Good	
75	SPO-SE0001A_00005_100	Malmö Rådhuset	Sweden	background	55.6064	13.002	European Envioronmental Agency (EEA)	2026-01-19	31.045833333333334	19.830551147460938	17.44635581970215	Good	Good	
76	SPO-SE0058A_00005_100	Malmö Dalaplan	Sweden	traffic	55.5847	13.0062	European Envioronmental Agency (EEA)	2026-01-19	33.0125	21.890939712524414	19.17485809326172	Good	Good	
77	SPO-SE0085A_00005_101	Helsingborg Drottninggatan	Sweden	traffic	56.0472	12.6916	European Envioronmental Agency (EEA)	2026-01-19	32.38913043478261	19.82670783996582	17.749034881591797	Good	Good	
78	SPO-SE38350_00005_100	Lund Trollebergsvägen	Sweden	traffic	55.7033	13.1803	European Envioronmental Agency (EEA)	2026-01-19	22.610833333333336	12.352684020996094	13.159366607666016	Good	Good	
79	SPO-SE344172_00005_100	Västerås Stora Gatan 78	Sweden	traffic	59.6077	16.5359	European Envioronmental Agency (EEA)	2026-01-19	19.893478260869568	13.840553283691406	12.825218200683594	Good	Good	
80	SPO-SE0003A_00005_100	Stockholm Hornsgatan 108 Gata	Sweden	traffic	59.3172	18.0487	European Envioronmental Agency (EEA)	2026-01-19	27.348083291666665	19.074993133544922	21.886995315551758	Good	Good	
81	SPO-SE0022A_00005_100	Stockholm Torkel Knutssongatan	Sweden	background	59.316	18.0578	European Envioronmental Agency (EEA)	2026-01-19	21.183083333333332	14.134883880615234	16.20743751525879	Good	Good	
82	SPO-SE0027A_00005_100	Stockholm Sveavägen 59 Gata	Sweden	traffic	59.3408	18.0583	European Envioronmental Agency (EEA)	2026-01-19	27.432666541666666	16.503639221191406	17.999876022338867	Good	Good	
83	SPO-SE0066A_00005_100	Norr Malma	Sweden	background	59.8324	18.6313	European Envioronmental Agency (EEA)	2026-01-19	17.126333333333335	9.764617919921875	10.361612319946289	Good	Good	
84	SPO-SE0071A_00005_100	Sollentuna E4 Häggvik	Sweden	traffic	59.4435	17.9224	European Envioronmental Agency (EEA)	2026-01-19	24.436208333333337	16.3425235748291	17.826282501220703	Good	Good	
85	SPO-SE0072A_00005_100	Södertälje Turingegatan 26	Sweden	traffic	59.1981	17.6211	European Envioronmental Agency (EEA)	2026-01-19	22.217749833333333	13.419437408447266	15.604150772094727	Good	Good	
86	SPO-SE0117A_00005_101	Visby Österväg 17	Sweden	traffic	57.6369	18.3036	European Envioronmental Agency (EEA)	2026-01-19	29.98549995833334	23.380468368530273	30.57367515563965	Good	Moderate	
87	SPO-SE156417_00005_100	Uppsala Kungsgatan 67	Sweden	traffic	59.8571	17.6463	European Envioronmental Agency (EEA)	2026-01-19	22.338166583333333	13.371402740478516	13.378532409667969	Good	Good	
88	SPO-SE157992_00005_100	Stockholm St Eriksgatan 83	Sweden	traffic	59.3405	18.037	European Envioronmental Agency (EEA)	2026-01-19	24.205458291666663	16.1086368560791	17.493667602539062	Good	Good	
89	SPO-SE159402_00005_100	Sollentuna Danderydsvägen	Sweden	traffic	59.4459	17.955	European Envioronmental Agency (EEA)	2026-01-19	16.66458329166667	11.670384407043457	12.90729808807373	Good	Good	
90	SPO-SE159404_00005_100	Uppsala Dragarbrunnsgatan 23 tak	Sweden	background	59.8605	17.6376	European Envioronmental Agency (EEA)	2026-01-19	20.770249916666668	12.62828540802002	12.87065601348877	Good	Good	
91	SPO-SE274652_00005_100	Sollentuna Sollentunavägen 192	Sweden	traffic	59.4336	17.9497	European Envioronmental Agency (EEA)	2026-01-19	20.842541625	14.3643159866333	16.023439407348633	Good	Good	
92	SPO-SE301111_00005_100	Norrköping Kungsgatan 32	Sweden	traffic	58.5915	16.1779	European Envioronmental Agency (EEA)	2026-01-19	23.976374958333334	15.129347801208496	17.41832733154297	Good	Good	
93	SPO-SE301113_00005_100	Norrköping Trädgårdsgatan 21	Sweden	background	58.592	16.1893	European Envioronmental Agency (EEA)	2026-01-19	22.36316654166667	13.722163200378418	15.56981372833252	Good	Good	
94	SPO-SE301757_00005_100	Sundbyberg Tulegatan 9	Sweden	traffic	59.3643	17.9763	European Envioronmental Agency (EEA)	2026-01-19	24.274624916666667	15.932819366455078	18.689193725585938	Good	Good	
95	SPO-SE313381_00005_100	Visby Brömsebroväg 8	Sweden	background	57.6399	18.3097	European Envioronmental Agency (EEA)	2026-01-19	23.952541625	17.16242027282715	23.009521484375	Good	Good	
96	SPO-SE338683_00005_100	Gävle Staketgatan 22	Sweden	traffic	60.6762	17.1376	European Envioronmental Agency (EEA)	2026-01-19	12.978745666666667	5.739658355712891	9.635733604431152	Good	Good	
97	SPO-SE0004A_00005_100	Göteborg Femman	Sweden	background	57.709	11.9702	European Envioronmental Agency (EEA)	2026-01-19	16.175304166666667	8.952059745788574	11.99616527557373	Good	Good	
98	SPO-SE0005R_00005_101	Bredkälen	Sweden	background	63.8455	15.3197	European Envioronmental Agency (EEA)	2026-01-19	4.2875000000000005	3.297072649002075	5.648759365081787	Good	Good	
99	SPO-SE0014R_00005_100	Råö	Sweden	background	57.3936	11.9142	European Envioronmental Agency (EEA)	2026-01-19	20.483333333333334	12.579466819763184	13.67425537109375	Good	Good	
100	SPO-SE159388_00005_101	Norunda Stenen	Sweden	background	60.0858	17.5053	European Envioronmental Agency (EEA)	2026-01-19	11.383	9.285645484924316	9.481070518493652	Good	Good	
101	SPO-SE0021A_00005_100	Göteborg Gårda	Sweden	traffic	57.7009	11.9946	European Envioronmental Agency (EEA)	2026-01-19	8.200000000000001	12.618557929992676	19.659347534179688	Good	Good	
102	SPO-SE0067A_00005_100	Göteborg Haga	Sweden	traffic	57.6979	11.9605	European Envioronmental Agency (EEA)	2026-01-19	16.581133333333334	9.090847969055176	9.6957426071167	Good	Good	
103	SPO-SE274590_00005_100	Göteborg Övre Husargatan	Sweden	traffic	57.6937	11.9568	European Envioronmental Agency (EEA)	2026-01-19	17.580358333333333	9.69591236114502	12.95954418182373	Good	Good	
104	SPO-SE165095_00005_100	Hedemora Gussarvsgatan	Sweden	traffic	60.2814	15.9891	European Envioronmental Agency (EEA)	2026-01-19	9.51004347826087	4.331492900848389	7.492641925811768	Good	Good	
105	SPO-SE0095A_00005_100	Sundsvall Köpmangatan	Sweden	traffic	62.3886	17.3089	European Envioronmental Agency (EEA)	2026-01-19	7.503708333333333	9.497395515441895	4.793324947357178	Good	Good	
106	SPO-SE09569_00005_100	Sundsvall Bergsgatan	Sweden	traffic	62.3865	17.3032	European Envioronmental Agency (EEA)	2026-01-19	10.6195	11.385708808898926	5.8737473487854	Good	Good	
107	SPO-SE313140_00005_100	Örnsköldsvik Centralesplanaden - Nygatan 24	Sweden	traffic	63.2918	18.7175	European Envioronmental Agency (EEA)	2026-01-19	10.3375	9.30353832244873	7.062859058380127	Good	Good	
108	SPO-SE181002_00005_100	Växjö Liedbergsgatan 11	Sweden	traffic	56.8799	14.7993	European Envioronmental Agency (EEA)	2026-01-19	27.483333333333334	15.408485412597656	16.6444034576416	Good	Good	
109	SPO-SE181993_00005_100	Kalmar Södra Vägen	Sweden	traffic	56.6642	16.3336	European Envioronmental Agency (EEA)	2026-01-19	36.07083333333333	26.242294311523438	31.127273559570312	Moderate	Moderate	
110	SPO-SE181259_00005_100	Östersund Rådhusgatan	Sweden	traffic	63.1739	14.6411	European Envioronmental Agency (EEA)	2026-01-19	2.0125	3.5025203227996826	4.275595188140869	Good	Good	
111	SPO-SE0059A_00005_100	Umeå Västra Esplanaden	Sweden	traffic	63.8289	20.2585	European Envioronmental Agency (EEA)	2026-01-19	11.608333333333334	5.84547233581543	4.853367328643799	Good	Good	
112	SPO-SE274953_00005_100	Skellefteå Kv Pantern	Sweden	traffic	64.7495	20.9601	European Envioronmental Agency (EEA)	2026-01-19	4.583859583333333	4.164440155029297	7.200088024139404	Good	Good	
113	FI_5_101983	Muonio Sammaltunturi	Finland		67.97	24.12	Finnish Meteorological Institute (FMI)	2026-01-19	0.09166666666666667	0.6666441559791565	0.6696155667304993	Good	Good	
