	Station Code	Station Name	Country	Station type	Latitude	Longitude	Network	PM10 measured concentration (microg/m^3)	PM10 today forecast mean concentration (microg/m^3)	PM10 tomorrow forecast mean concentration (microg/m^3)	Today air quality	Tomorrow air quality	Actions
0	SPO-DK0034A_00005_100	Copenhagen/1103	Denmark	traffic	55.6743	12.5711	European Envioronmental Agency (EEA)				Very unhealthy	Very unhealthy	
1	SPO-DK0012R_00005_101	Risoe	Denmark	background	55.6942	12.0889	European Envioronmental Agency (EEA)				Very unhealthy	Very unhealthy	
2	SPO-FI00570_00005_100	Raahen keskusta 2	Finland	traffic	64.6834	24.4816	European Envioronmental Agency (EEA)				Very unhealthy	Very unhealthy	
3	SPO-FI00349_00005_100	Utö	Finland	background	59.7792	21.374	European Envioronmental Agency (EEA)	2.3209768333333334	3.019207290981127	3.9173655406288477	Good	Good	
4	SPO-FI00427_00005_100	Matorova	Finland	background	68.0005	24.2457	European Envioronmental Agency (EEA)	0.752646	1.487338177535845	1.7061849210573279	Good	Good	
5	SPO-FI00893_00005_100	Virolahti 2	Finland	background	60.53	27.6754	European Envioronmental Agency (EEA)				Very unhealthy	Very unhealthy	
6	SPO-FI00549_00005_100	Pirkankatu	Finland	traffic	61.4987	23.7357	European Envioronmental Agency (EEA)	7.973678041666667	7.307841995488042	9.584784072378408	Good	Good	
7	SPO-FI00838_00005_100	Epila 2	Finland	traffic	61.5085	23.6758	European Envioronmental Agency (EEA)	5.5081226249999995	6.449008910552315	6.832323696302331	Good	Good	
8	SPO-FI00208_00005_101	Luukki	Finland	background	60.3144	24.6849	European Envioronmental Agency (EEA)	4.96743175	7.897500390591829	6.216929917750151	Good	Good	
9	SPO-FI00370_00005_100	Tikkurila 3	Finland	traffic	60.2899	25.0395	European Envioronmental Agency (EEA)	10.31270052173913	10.979206271793531	12.656116568523904	Good	Good	
10	SPO-FI00425_00005_100	Kallio 2	Finland	background	60.1874	24.9506	European Envioronmental Agency (EEA)	6.067061083333333	10.563767702683158	10.615736360135285	Good	Good	
11	SPO-FI00564_00005_100	Mannerheimintie	Finland	traffic	60.1696	24.9392	European Envioronmental Agency (EEA)	7.784402166666667	16.85600401007611	16.68849576037863	Good	Good	
12	SPO-FI00781_00005_100	Vartiokylä Huivipolku	Finland	background	60.2239	25.1024	European Envioronmental Agency (EEA)	8.271718625	9.798319630000902	10.359718841055166	Good	Good	
13	SPO-FI00841_00005_100	Leppävaara 4	Finland	traffic	60.2202	24.8113	European Envioronmental Agency (EEA)	9.323351541666666	12.17676882121874	14.121353667715322	Good	Good	
14	SPO-FI00902_00005_100	Mäkelänkatu	Finland	traffic	60.1964	24.952	European Envioronmental Agency (EEA)				Very unhealthy	Very unhealthy	
15	SPO-FI00301_00005_100	Pyykösjärvi	Finland	background	65.0434	25.4979	European Envioronmental Agency (EEA)	2.948386041666667	4.5707895548447315	5.967661007590916	Good	Good	
16	SPO-FI00446_00005_100	Oulun keskusta 2	Finland	traffic	65.01	25.4713	European Envioronmental Agency (EEA)	5.080526416666667	7.605369225792263	8.0597620425017	Good	Good	
17	SPO-FI00952_00005_100	Jyväskylä Hannikaisenkatu	Finland	traffic	62.2382	25.7479	European Envioronmental Agency (EEA)	7.459122541666667	5.637965523678323	7.748146881227908	Good	Good	
18	SPO-FI00455_00005_100	Laune	Finland	traffic	60.967	25.6549	European Envioronmental Agency (EEA)	7.809602583333334	8.435818288637245	8.893597519916037	Good	Good	
19	SPO-FI00889_00005_100	Saimaankatu	Finland	traffic	60.9913	25.6658	European Envioronmental Agency (EEA)	6.172325416666667	7.497996382091356	7.621887030808822	Good	Good	
20	SPO-FI00444_00005_100	Naantalin keskusta	Finland	traffic	60.4674	22.0284	European Envioronmental Agency (EEA)	4.540453833333333	10.613934174827907	11.79133995719578	Good	Good	
21	SPO-FI00558_00005_100	Maaherrankatu	Finland	traffic	62.8933	27.6869	European Envioronmental Agency (EEA)	12.802692791666667	7.477376232976499	8.06609935345857	Good	Good	
22	SPO-FI00839_00005_100	Tasavallankatu	Finland	traffic	62.882	27.6619	European Envioronmental Agency (EEA)	15.365269249999999	9.287174307781717	10.581675342891527	Good	Good	
23	SPO-FI00928_00005_100	Pori Paanakedonkatu	Finland	traffic	61.4823	21.8133	European Envioronmental Agency (EEA)	9.077536583333334	6.927191226378731	10.433895048887834	Good	Good	
24	SPO-FI00080_00005_100	Rautionkylä	Finland	traffic	61.2381	28.8737	European Envioronmental Agency (EEA)				Very unhealthy	Very unhealthy	
25	SPO-FI00378_00005_100	Lauritsala	Finland	traffic	61.0719	28.2641	European Envioronmental Agency (EEA)				Very unhealthy	Very unhealthy	
26	SPO-FI00424_00005_100	Mansikkala	Finland	traffic	61.1889	28.7701	European Envioronmental Agency (EEA)	5.9299476250000005	7.918151689612347	7.349223852157593	Good	Good	
27	SPO-FI00433_00005_100	Teppanala	Finland	industrial	61.153	28.8101	European Envioronmental Agency (EEA)	6.214545208333334	6.568529232688572	7.674921761388364	Good	Good	
28	SPO-FI00434_00005_100	Joutsenon keskusta	Finland	traffic	61.1171	28.4985	European Envioronmental Agency (EEA)				Very unhealthy	Very unhealthy	
29	SPO-FI00606_00005_100	Lappeenrannan keskusta 4	Finland	traffic	61.0558	28.1843	European Envioronmental Agency (EEA)	5.959341333333334	7.080387851466304	8.61313598052315	Good	Good	
30	SPO-FI00972_00005_100	Lohja Harjula	Finland	background	60.249	24.0695	European Envioronmental Agency (EEA)	5.0897485	8.528421505637791	9.261366927105447	Good	Good	
31	SPO-FI00404_00005_100	Keskusta Pitkänsillankatu	Finland	traffic	63.8376	23.1316	European Envioronmental Agency (EEA)				Very unhealthy	Very unhealthy	
32	SPO-FI00892_00005_100	Kankaan Koulu	Finland	traffic	60.8704	26.701	European Envioronmental Agency (EEA)	8.758946583333334	7.568243451740431	8.779109063355818	Good	Good	
33	SPO-FI00179_00005_100	Pirkkala	Finland	industrial	61.3316	22.1431	European Envioronmental Agency (EEA)	7.231533875	6.423437159994374	7.217409693676492	Good	Good	
34	SPO-FI00184_00005_100	Kaleva	Finland	industrial	61.3135	22.135	European Envioronmental Agency (EEA)	6.407628416666668	5.719939926396245	6.277787167093028	Good	Good	
35	SPO-FI00465_00005_100	Vaasan keskusta	Finland	traffic	63.0951	21.6183	European Envioronmental Agency (EEA)				Very unhealthy	Very unhealthy	
36	SPO-FI00586_00005_100	Vaasa vesitorni	Finland	background	63.0935	21.6127	European Envioronmental Agency (EEA)				Very unhealthy	Very unhealthy	
37	SPO-FI00397_00005_100	Bottenviksvägen	Finland	traffic	63.6791	22.7184	European Envioronmental Agency (EEA)	8.894168	6.131865760554438	6.298108059427013	Good	Good	
38	SPO-IS0005A_00005_103	Reykjavik Grensas	Iceland	traffic	64.1301	-21.8747	European Envioronmental Agency (EEA)	58.27935416666666	27.455114530480426	19.206157352613367	Moderate	Good	
39	SPO-IS0052A_00005_100	Akureyri Strandgata (við Hof)	Iceland	traffic	65.6841	-18.0882	European Envioronmental Agency (EEA)	4.130434782608695	10.14844861237899	12.667819230452828	Good	Good	
40	SPO-IS0025A_00005_100	Grundartangi Kríuvarða	Iceland	industrial	64.3736	-21.7591	European Envioronmental Agency (EEA)				Very unhealthy	Very unhealthy	
41	SPO-IS0041A_00005_100	Grundartangi Gröf	Iceland	industrial	64.3342	-21.8357	European Envioronmental Agency (EEA)	5.869704166666668	3.6097515665966533	5.0628141734911045	Good	Good	
42	SPO-IS0037A_00005_100	Kópavogur Dalsmári	Iceland	background	64.105	-21.889	European Envioronmental Agency (EEA)	22.28016666666667	20.855570959008258	13.403376268303912	Good	Good	
43	SPO-IS0046A_00005_101	Hafnarfjörður Norðurhella	Iceland	background	64.0442	-21.9854	European Envioronmental Agency (EEA)	4.52825	10.344822095788043	9.698074900585672	Good	Good	
44	SPO-IS0049A_00005_100	PCC norður	Iceland	industrial	66.0793	-17.3422	European Envioronmental Agency (EEA)				Very unhealthy	Very unhealthy	
45	SPO-IS0050A_00005_100	PCC suður	Iceland	industrial	66.0549	-17.3476	European Envioronmental Agency (EEA)	2.9036552380952383	4.444792488346929	5.541014070096224	Good	Good	
46	SPO_NO0071A_5_38	Manglerud	Norway	traffic	59.8986	10.8149	European Envioronmental Agency (EEA)				Very unhealthy	Very unhealthy	
47	SPO_NO0093A_5_1039	Hjortnes	Norway	traffic	59.9113	10.704	European Envioronmental Agency (EEA)	16.628333333333334	21.395343469536822	21.84032514820928	Good	Good	
48	SPO_NO0095A_5_934	Smestad	Norway	traffic	59.9325	10.6699	European Envioronmental Agency (EEA)	8.680039928571428			Very unhealthy	Very unhealthy	
49	SPO_NO0101A_5_332	Rv 4 Aker sykehus	Norway	traffic	59.941	10.798	European Envioronmental Agency (EEA)				Very unhealthy	Very unhealthy	
50	SPO_NO0122A_5_2945	E6 Alna senter	Norway	traffic	59.9256	10.8504	European Envioronmental Agency (EEA)	2.7940941666666674	11.836820789005445	11.716719834700875	Good	Good	
51	SPO_NO0002R_5_1572	Birkenesobservatoriet	Norway	background	58.3885	8.2519	European Envioronmental Agency (EEA)				Very unhealthy	Very unhealthy	
52	SPO_NO0039R_5_1546	Kårvatn	Norway	background	62.7825	8.8766	European Envioronmental Agency (EEA)				Very unhealthy	Very unhealthy	
53	SPO_NO0056R_5_1539	Hurdal25	Norway	background	60.3729	11.0741	European Envioronmental Agency (EEA)				Very unhealthy	Very unhealthy	
54	SPO_NO0011A_5_19	Kirkeveien	Norway	traffic	59.9323	10.7245	European Envioronmental Agency (EEA)	3.8322824782608698	9.271198625149934	9.567671402640965	Good	Good	
55	SPO_NO0057A_5_41	Alnabru	Norway	traffic	59.9277	10.8466	European Envioronmental Agency (EEA)	2.8092942	10.025811682576718	11.242163129474806	Good	Good	
56	SPO_NO0072A_5_352	Skøyen	Norway	background	59.9197	10.6897	European Envioronmental Agency (EEA)	4.0281740416666665	13.758770693903385	15.7410946721616	Good	Good	
57	SPO_NO0073A_5_552	Sofienbergparken	Norway	background	59.923	10.7657	European Envioronmental Agency (EEA)	4.834955083333333	8.736954098162444	10.26447644441024	Good	Good	
58	SPO_NO0083A_5_793	Bygdøy Alle	Norway	traffic	59.9193	10.6965	European Envioronmental Agency (EEA)	4.654166666666667	15.767598338749098	16.425968211630117	Good	Good	
59	SPO_NO0140A_5_3171	Spikersuppa	Norway	background	59.9141	10.736	European Envioronmental Agency (EEA)	3.569301625	8.71738802868387	10.756419513536537	Good	Good	
60	SPO_NO0143A_5_3173	Vahl skole	Norway	traffic	59.9169	10.766	European Envioronmental Agency (EEA)				Very unhealthy	Very unhealthy	
61	SPO_NO0146A_5_3145	Loallmenningen	Norway	background	59.9031	10.7584	European Envioronmental Agency (EEA)				Very unhealthy	Very unhealthy	
62	SPO_NO0059A_5_11	Danmarks plass	Norway	traffic	60.3741	5.3404	European Envioronmental Agency (EEA)	25.617658791666667	22.666573897652004	20.354768359142803	Good	Good	
63	SPO_NO0108A_5_2071	Rolland Åsane	Norway	background	60.4627	5.3324	European Envioronmental Agency (EEA)	6.716345083333334	7.687649384788845	6.489002207051152	Good	Good	
64	SPO_NO0109A_5_2067	Loddefjord	Norway	traffic	60.3611	5.2369	European Envioronmental Agency (EEA)	15.432792874999999	16.216977492622707	13.722758334615957	Good	Good	
65	SPO_NO0120A_5_2902	Klosterhaugen	Norway	background	60.3959	5.3127	European Envioronmental Agency (EEA)	19.863251625	17.39546460690706	12.823751822761867	Good	Good	
66	SPO_NO0121A_5_2888	Rådal	Norway	traffic	60.2943	5.3246	European Envioronmental Agency (EEA)	17.091938333333335	13.306028905122176	11.956084106279457	Good	Good	
67	SPO_NO0135A_5_3126	Backeparken	Norway	background	59.7495	10.1653	European Envioronmental Agency (EEA)				Very unhealthy	Very unhealthy	
68	SPO_NO0136A_5_3124	Vårveien	Norway	traffic	59.7536	10.1444	European Envioronmental Agency (EEA)	6.362585833333334	10.831387343613997	17.127426209657088	Good	Good	
69	SPO_NO0060A_5_1685	Elgeseter	Norway	traffic	63.4174	10.3968	European Envioronmental Agency (EEA)	18.283354958333334	14.028650833212811	14.074673134347666	Good	Good	
70	SPO_NO0089A_5_1082	Torvet	Norway	background	63.4304	10.3936	European Envioronmental Agency (EEA)				Very unhealthy	Very unhealthy	
71	SPO_NO0102A_5_1530	E6-Tiller	Norway	traffic	63.3576	10.3717	European Envioronmental Agency (EEA)				Very unhealthy	Very unhealthy	
72	SPO_NO0145A_5_3060	Omkjøringsvegen	Norway	traffic	63.4105	10.4444	European Envioronmental Agency (EEA)				Very unhealthy	Very unhealthy	
73	SPO_NO0061A_5_713	Lensmannsdalen	Norway	traffic	59.1593	9.6357	European Envioronmental Agency (EEA)				Very unhealthy	Very unhealthy	
74	SPO_NO0106A_5_1231	Sverresgate	Norway	traffic	59.1382	9.6522	European Envioronmental Agency (EEA)	4.917916666666667	12.311694103738535	15.14067032026208	Good	Good	
75	SPO_NO0115A_5_2473	Furulund	Norway	industrial	59.0573	9.6956	European Envioronmental Agency (EEA)	5.3520546666666675	8.825641404027524	11.32171570736429	Good	Good	
76	SPO_NO0118A_5_2723	Knarrdalstranda	Norway	background	59.1335	9.6219	European Envioronmental Agency (EEA)	8.640831291666666	16.80629593393077	15.99576763484789	Good	Good	
77	SPO_NO0063A_5_192	Stener Heyerdahl	Norway	background	58.1489	7.9918	European Envioronmental Agency (EEA)	4.36727375	6.854128288186115	8.921441803807797	Good	Good	
78	SPO_NO0134A_5_3121	Bjørndalssletta	Norway	traffic	58.1623	8.0238	European Envioronmental Agency (EEA)				Very unhealthy	Very unhealthy	
79	SPO_NO0065A_5_52	Våland	Norway	background	58.9616	5.7314	European Envioronmental Agency (EEA)	5.908801375	8.802987181622049	9.861127770465353	Good	Good	
80	SPO_NO0076A_5_46	Kannik	Norway	traffic	58.9642	5.7279	European Envioronmental Agency (EEA)	13.437908625	7.043948484503704	8.073324390079664	Good	Good	
81	SPO_NO0125A_5_3017	Schancheholen	Norway	traffic	58.9519	5.7219	European Envioronmental Agency (EEA)	5.49229175	6.7146999524987265	7.896512031555176	Good	Good	
82	SPO_NO0141A_5_3178	Vågen	Norway	background	58.9726	5.7265	European Envioronmental Agency (EEA)				Very unhealthy	Very unhealthy	
83	SPO_NO0074A_5_539	Bankplassen	Norway	traffic	61.1129	10.4649	European Envioronmental Agency (EEA)	10.860755458333331	12.258515005526336	16.315339378688645	Good	Good	
84	SPO_NO0075A_5_544	Lillehammer barnehage	Norway	background	61.1209	10.4656	European Envioronmental Agency (EEA)	7.904399083333334	14.435022001681121	14.288123296654742	Good	Good	
85	SPO_NO0079A_5_392	Hansjordnesbukta	Norway	traffic	69.6562	18.9637	European Envioronmental Agency (EEA)	4.075194166666667	11.651392376941184	15.49384357618249	Good	Good	
86	SPO_NO0124A_5_2957	Rambergan	Norway	background	69.6543	18.9564	European Envioronmental Agency (EEA)	3.4459025000000003	8.95534080007802	9.541061152582584	Good	Good	
87	SPO_NO0084A_5_967	St.Croix	Norway	traffic	59.2103	10.9454	European Envioronmental Agency (EEA)	6.738973250000001	17.21867030599843	15.128793177397355	Good	Good	
88	SPO_NO0114A_5_2325	Bekkestua	Norway	background	59.9182	10.5839	European Envioronmental Agency (EEA)	3.9499999999999997	14.187575298806895	15.617951724840248	Good	Good	
89	SPO_NO0142A_5_3183	E18 Høvik kirke	Norway	traffic	59.8988	10.5759	European Envioronmental Agency (EEA)				Very unhealthy	Very unhealthy	
90	SPO_NO0110A_5_2064	Alvim	Norway	traffic	59.2738	11.0892	European Envioronmental Agency (EEA)	3.8753343333333334	11.34247991313105	10.006047518356986	Good	Good	
91	SPO_NO0112A_5_1221	Kransen	Norway	traffic	59.4335	10.6618	European Envioronmental Agency (EEA)	2.8834077083333334	10.963159623353377	12.521509543709133	Good	Good	
92	SPO_NO0119A_5_2701	Leiret	Norway	traffic	60.8836	11.5593	European Envioronmental Agency (EEA)	6.2730275833333335	7.392810717872951	9.23295343440512	Good	Good	
93	SPO_NO0104A_5_1671	Vangsveien Hamar	Norway	traffic	60.7965	11.0978	European Envioronmental Agency (EEA)				Very unhealthy	Very unhealthy	
94	SPO_NO0111A_5_1692	Vigernes	Norway	traffic	59.9555	11.074	European Envioronmental Agency (EEA)				Very unhealthy	Very unhealthy	
95	SPO_NO0128A_5_2972	Nedre Langgate	Norway	traffic	59.2637	10.4112	European Envioronmental Agency (EEA)	3.180925666666667	8.380993697954262	12.058908524720565	Good	Good	
96	SPO_NO0129A_5_2950	Solheim	Norway	traffic	59.9286	10.9532	European Envioronmental Agency (EEA)	3.9068119583333334	12.056117617565652	9.571920187576957	Good	Good	
97	SPO_NO0127A_5_2964	Seljestad Rv83	Norway	traffic	68.7922	16.5374	European Envioronmental Agency (EEA)	9.559275291666667	12.86384537945623	12.808347525803939	Good	Good	
98	SPO_NO0130A_5_3000	Ringsakervegen	Norway	traffic	60.8859	10.9379	European Envioronmental Agency (EEA)	4.633333333333334	11.194419384002686	12.363897841909658	Good	Good	
99	SPO_NO0147A_5_3157	Vollaparken øst	Norway	background	59.9583	11.0429	European Envioronmental Agency (EEA)				Very unhealthy	Very unhealthy	
100	SPO-SE0001A_00005_100	Malmö Rådhuset	Sweden	background	55.6064	13.002	European Envioronmental Agency (EEA)	4.7825	10.70543270525725	11.172476395316746	Good	Good	
101	SPO-SE0056A_00005_101	Landskrona Eriksgatan	Sweden	traffic	55.8774	12.8336	European Envioronmental Agency (EEA)				Very unhealthy	Very unhealthy	
102	SPO-SE0058A_00005_100	Malmö Dalaplan	Sweden	traffic	55.5847	13.0062	European Envioronmental Agency (EEA)	5.144583333333334	10.852716902027959	13.01884120443593	Good	Good	
103	SPO-SE0085A_00005_101	Helsingborg Drottninggatan	Sweden	traffic	56.0472	12.6916	European Envioronmental Agency (EEA)	3.762625	8.75186710772307	10.17882840529732	Good	Good	
104	SPO-SE155531_00005_100	Trelleborg Hamngatan	Sweden	traffic	55.3729	13.1575	European Envioronmental Agency (EEA)				Very unhealthy	Very unhealthy	
105	SPO-SE38350_00005_100	Lund Trollebergsvägen	Sweden	traffic	55.7033	13.1803	European Envioronmental Agency (EEA)	3.5849999999999995	9.070840586786685	11.067429563273555	Good	Good	
106	SPO-SE343956_00005_100	Karlstad Jungmansgatan 8	Sweden	traffic	59.3767	13.4903	European Envioronmental Agency (EEA)				Very unhealthy	Very unhealthy	
107	SPO-SE344172_00005_100	Västerås Stora Gatan 78	Sweden	traffic	59.6077	16.5359	European Envioronmental Agency (EEA)	51.75927272727274	14.409942751345428	16.459406728329867	Good	Good	
108	SPO-SE344172_00005_101	Västerås Stora Gatan 78	Sweden	traffic	59.6077	16.5359	European Envioronmental Agency (EEA)				Very unhealthy	Very unhealthy	
109	SPO-SE0003A_00005_100	Stockholm Hornsgatan 108 Gata	Sweden	traffic	59.3172	18.0487	European Envioronmental Agency (EEA)	11.334491173913046	33.521132842354156	24.24208180800728	Moderate	Good	
110	SPO-SE0022A_00005_100	Stockholm Torkel Knutssongatan	Sweden	background	59.316	18.0578	European Envioronmental Agency (EEA)	7.342374958333335	15.668000262716543	12.765527041062064	Good	Good	
111	SPO-SE0027A_00005_100	Stockholm Sveavägen 59 Gata	Sweden	traffic	59.3408	18.0583	European Envioronmental Agency (EEA)	10.340283333333334	18.914340889972188	15.84470495970353	Good	Good	
112	SPO-SE0066A_00005_100	Norr Malma	Sweden	background	59.8324	18.6313	European Envioronmental Agency (EEA)	4.058224958333334	6.347806562548098	6.217849275340205	Good	Good	
113	SPO-SE0071A_00005_100	Sollentuna E4 Häggvik	Sweden	traffic	59.4435	17.9224	European Envioronmental Agency (EEA)	7.8039916666666675	22.07502149498981	17.00226522528607	Good	Good	
114	SPO-SE0072A_00005_100	Södertälje Turingegatan 26	Sweden	traffic	59.1981	17.6211	European Envioronmental Agency (EEA)	4.5429332916666665	13.234796897224758	14.92888995875483	Good	Good	
115	SPO-SE0087A_00005_100	Stockholm E4/E20 Lilla Essingen	Sweden	traffic	59.3255	18.0044	European Envioronmental Agency (EEA)				Very unhealthy	Very unhealthy	
116	SPO-SE0114A_00005_100	Södertälje Birkakorset	Sweden	traffic	59.2013	17.6348	European Envioronmental Agency (EEA)				Very unhealthy	Very unhealthy	
117	SPO-SE0117A_00005_101	Visby Österväg 17	Sweden	traffic	57.6369	18.3036	European Envioronmental Agency (EEA)	18.85604579166667	31.320906846419625	27.38376882801885	Moderate	Moderate	
118	SPO-SE156417_00005_100	Uppsala Kungsgatan 67	Sweden	traffic	59.8571	17.6463	European Envioronmental Agency (EEA)	6.144337458333333	12.880415501801863	14.845438563305398	Good	Good	
119	SPO-SE157992_00005_100	Stockholm St Eriksgatan 83	Sweden	traffic	59.3405	18.037	European Envioronmental Agency (EEA)	8.754266625	26.305634001026984	21.073549353558086	Moderate	Good	
120	SPO-SE157993_00005_100	Stockholm E4 Skonertvägen	Sweden	traffic	59.3133	18.004	European Envioronmental Agency (EEA)				Very unhealthy	Very unhealthy	
121	SPO-SE159402_00005_100	Sollentuna Danderydsvägen	Sweden	traffic	59.4459	17.955	European Envioronmental Agency (EEA)	7.1735874583333334	18.706620755402938	14.797400847725246	Good	Good	
122	SPO-SE159403_00005_100	Stockholm Folkungagatan 70	Sweden	traffic	59.3146	18.0771	European Envioronmental Agency (EEA)				Very unhealthy	Very unhealthy	
123	SPO-SE159404_00005_100	Uppsala Dragarbrunnsgatan 23 tak	Sweden	background	59.8605	17.6376	European Envioronmental Agency (EEA)	5.861924958333333	9.497716302457063	9.498302957286006	Good	Good	
124	SPO-SE164905_00005_100	Solna Råsundavägen 107	Sweden	traffic	59.3651	17.9969	European Envioronmental Agency (EEA)				Very unhealthy	Very unhealthy	
125	SPO-SE274652_00005_100	Sollentuna Sollentunavägen 192	Sweden	traffic	59.4336	17.9497	European Envioronmental Agency (EEA)	7.727041625000001	23.426942908245586	18.295288272525955	Good	Good	
126	SPO-SE301111_00005_100	Norrköping Kungsgatan 32	Sweden	traffic	58.5915	16.1779	European Envioronmental Agency (EEA)	5.728049875000001	11.975748953611955	10.14833636905836	Good	Good	
127	SPO-SE301113_00005_100	Norrköping Trädgårdsgatan 21	Sweden	background	58.592	16.1893	European Envioronmental Agency (EEA)	4.355029125000001	8.04395460045856	7.313111450361169	Good	Good	
128	SPO-SE301757_00005_100	Sundbyberg Tulegatan 9	Sweden	traffic	59.3643	17.9763	European Envioronmental Agency (EEA)	6.7574958333333335	20.47718798595926	16.228634502576746	Good	Good	
129	SPO-SE313381_00005_100	Visby Brömsebroväg 8	Sweden	background	57.6399	18.3097	European Envioronmental Agency (EEA)	6.9000291250000005	14.379597788271697	13.050319920415463	Good	Good	
130	SPO-SE338683_00005_100	Gävle Staketgatan 22	Sweden	traffic	60.6762	17.1376	European Envioronmental Agency (EEA)	3.7621791666666673	4.690358856449956	8.175420812938524	Good	Good	
131	SPO-SE338685_00005_100	Linköping Hamngatan 10	Sweden	traffic	58.4124	15.6301	European Envioronmental Agency (EEA)	4.784375000000001	14.298962655274764	14.31244128683339	Good	Good	
132	SPO-SE344250_00005_100	Danderyd Gymnasiet	Sweden	background	59.4156	18.0424	European Envioronmental Agency (EEA)				Very unhealthy	Very unhealthy	
133	SPO-SE344252_00005_100	Danderyd Mörbyskolan	Sweden	background	59.3939	18.0441	European Envioronmental Agency (EEA)				Very unhealthy	Very unhealthy	
134	SPO-SE37479_00005_100	Sollentuna Ekmans Väg 11	Sweden	traffic	59.489	17.9199	European Envioronmental Agency (EEA)	8.521854041666666	22.45292224054751	17.213282336359438	Good	Good	
135	SPO-SE0004A_00005_100	Göteborg Femman	Sweden	background	57.709	11.9702	European Envioronmental Agency (EEA)	3.106806666666667	6.7144217024678765	9.507376142170118	Good	Good	
136	SPO-SE0005R_00005_101	Bredkälen	Sweden	background	63.8455	15.3197	European Envioronmental Agency (EEA)				Very unhealthy	Very unhealthy	
137	SPO-SE0014R_00005_100	Råö	Sweden	background	57.3936	11.9142	European Envioronmental Agency (EEA)				Very unhealthy	Very unhealthy	
138	SPO-SE0116A_00005_100	Hallahus	Sweden	background	56.0424	13.1486	European Envioronmental Agency (EEA)				Very unhealthy	Very unhealthy	
139	SPO-SE159388_00005_100	Norunda Stenen	Sweden	background	60.0858	17.5053	European Envioronmental Agency (EEA)				Very unhealthy	Very unhealthy	
140	SPO-SE159388_00005_101	Norunda Stenen	Sweden	background	60.0858	17.5053	European Envioronmental Agency (EEA)	2.544816043478261	4.42391530327175	5.29690817128057	Good	Good	
141	SPO-SE0021A_00005_100	Göteborg Gårda	Sweden	traffic	57.7009	11.9946	European Envioronmental Agency (EEA)	11.229166666666666	11.974816913190095	17.29125712228858	Good	Good	
142	SPO-SE0067A_00005_100	Göteborg Haga	Sweden	traffic	57.6979	11.9605	European Envioronmental Agency (EEA)	2.807530416666667	8.064860965894615	9.463407039642334	Good	Good	
143	SPO-SE274590_00005_100	Göteborg Övre Husargatan	Sweden	traffic	57.6937	11.9568	European Envioronmental Agency (EEA)	3.186027916666667	7.505717443383259	10.300001973691193	Good	Good	
144	SPO-SE0113A_00005_100	Borås Kungsgatan	Sweden	traffic	57.7208	12.9447	European Envioronmental Agency (EEA)				Very unhealthy	Very unhealthy	
145	SPO-SE165095_00005_100	Hedemora Gussarvsgatan	Sweden	traffic	60.2814	15.9891	European Envioronmental Agency (EEA)	2.389666666666667	4.954386451969976	6.964875760285751	Good	Good	
146	SPO-SE157868_00005_100	Jönköping Kungsgatan 2A	Sweden	traffic	57.7782	14.1595	European Envioronmental Agency (EEA)				Very unhealthy	Very unhealthy	
147	SPO-SE36365_00005_100	Jönköping Lantmätaregränd	Sweden	background	57.7816	14.1737	European Envioronmental Agency (EEA)				Very unhealthy	Very unhealthy	
148	SPO-SE0012A_00005_101	Timrå	Sweden	background	62.4868	17.3244	European Envioronmental Agency (EEA)				Very unhealthy	Very unhealthy	
149	SPO-SE0095A_00005_100	Sundsvall Köpmangatan	Sweden	traffic	62.3886	17.3089	European Envioronmental Agency (EEA)	4.352166666666666	9.132321824198185	8.169250954752384	Good	Good	
150	SPO-SE09569_00005_100	Sundsvall Bergsgatan	Sweden	traffic	62.3865	17.3032	European Envioronmental Agency (EEA)	4.587625	9.47079236611076	10.534186155899711	Good	Good	
151	SPO-SE313140_00005_100	Örnsköldsvik Centralesplanaden - Nygatan 24	Sweden	traffic	63.2918	18.7175	European Envioronmental Agency (EEA)	3.2625000000000006	11.982038477192754	10.168963618900465	Good	Good	
152	SPO-SE181002_00005_100	Växjö Liedbergsgatan 11	Sweden	traffic	56.8799	14.7993	European Envioronmental Agency (EEA)				Very unhealthy	Very unhealthy	
153	SPO-SE32288_00005_100	Karlskrona N Smedjegatan Ö Köpmansgatan	Sweden	traffic	56.164	15.5889	European Envioronmental Agency (EEA)	4.166666666666667	10.193230152130127	9.455558341482412	Good	Good	
154	SPO-SE181993_00005_100	Kalmar Södra Vägen	Sweden	traffic	56.6642	16.3336	European Envioronmental Agency (EEA)	4.2125	14.729283042576002	16.19427560723346	Good	Good	
155	SPO-SE36364_00005_100	Örebro Rudbecksskolan	Sweden	traffic	59.2683	15.2149	European Envioronmental Agency (EEA)				Very unhealthy	Very unhealthy	
156	SPO-SE181259_00005_100	Östersund Rådhusgatan	Sweden	traffic	63.1739	14.6411	European Envioronmental Agency (EEA)	14.000000000000002	26.87406755530316	18.199011968529742	Moderate	Good	
157	SPO-SE0059A_00005_100	Umeå Västra Esplanaden	Sweden	traffic	63.8289	20.2585	European Envioronmental Agency (EEA)	1.2249999999999999	5.026063297105872	5.392603353313778	Good	Good	
158	SPO-SE274953_00005_100	Skellefteå Kv Pantern	Sweden	traffic	64.7495	20.9601	European Envioronmental Agency (EEA)				Very unhealthy	Very unhealthy	
159	SPO-SE0100A_00005_100	Luleå Sandviksgatan	Sweden	traffic	65.5806	22.1404	European Envioronmental Agency (EEA)				Very unhealthy	Very unhealthy	
160	SPO-SE31752_00005_100	Piteå Prästgårdsgatan	Sweden	traffic	65.3181	21.4792	European Envioronmental Agency (EEA)				Very unhealthy	Very unhealthy	
161	FI_5_101983	Muonio Sammaltunturi	Finland		67.97	24.12	Finnish Meteorological Institute	0.8291666666666666	2.3485746487327246	2.688539235488228	Good	Good	
162	FI_5_100656	Virolahti Koivuniemi Ääpälä	Finland		60.53	27.68	Finnish Meteorological Institute				Very unhealthy	Very unhealthy	
