	Station Code	Station Name	Country	Station type	Latitude	Longitude	Network	Date	PM10 measured concentration (microg/m^3)	PM10 today forecast mean concentration (microg/m^3)	PM10 tomorrow forecast mean concentration (microg/m^3)	Today air quality	Tomorrow air quality	Actions
0	SPO-DK0034A_00005_100	Copenhagen/1103	Denmark	traffic	55.6743	12.5711	European Envioronmental Agency (EEA)	2025-09-15		40.313114166259766	31.738954544067383	Moderate	Moderate	
1	SPO-DK0012R_00005_101	Risoe	Denmark	background	55.6942	12.0889	European Envioronmental Agency (EEA)	2025-09-15		13.962845802307129	11.636673927307129	Good	Good	
2	SPO-FI00570_00005_100	Raahen keskusta 2	Finland	traffic	64.6834	24.4816	European Envioronmental Agency (EEA)	2025-09-15	7.281733583333334	6.731141567230225	5.520892143249512	Good	Good	
3	SPO-FI00349_00005_100	Utö	Finland	background	59.7792	21.374	European Envioronmental Agency (EEA)	2025-09-15	6.3073392916666675	6.352066516876221	5.7372846603393555	Good	Good	
4	SPO-FI00427_00005_100	Matorova	Finland	background	68.0005	24.2457	European Envioronmental Agency (EEA)	2025-09-15	4.608984708333334	4.6641435623168945	3.1898839473724365	Good	Good	
5	SPO-FI00838_00005_100	Epila 2	Finland	traffic	61.5085	23.6758	European Envioronmental Agency (EEA)	2025-09-15	6.890431458333334	6.209757328033447	5.75798225402832	Good	Good	
6	SPO-FI00208_00005_101	Luukki	Finland	background	60.3144	24.6849	European Envioronmental Agency (EEA)	2025-09-15	10.270706083333334	9.948351860046387	7.313440799713135	Good	Good	
7	SPO-FI00370_00005_100	Tikkurila 3	Finland	traffic	60.2899	25.0395	European Envioronmental Agency (EEA)	2025-09-15	11.436670125	11.29779052734375	8.696771621704102	Good	Good	
8	SPO-FI00425_00005_100	Kallio 2	Finland	background	60.1874	24.9506	European Envioronmental Agency (EEA)	2025-09-15	12.460304166666667	11.296100616455078	8.750770568847656	Good	Good	
9	SPO-FI00564_00005_100	Mannerheimintie	Finland	traffic	60.1696	24.9392	European Envioronmental Agency (EEA)	2025-09-15	13.293238791666667	14.015318870544434	11.6527738571167	Good	Good	
10	SPO-FI00781_00005_100	Vartiokylä Huivipolku	Finland	background	60.2239	25.1024	European Envioronmental Agency (EEA)	2025-09-15	11.679521625	10.653704643249512	8.365204811096191	Good	Good	
11	SPO-FI00841_00005_100	Leppävaara 4	Finland	traffic	60.2202	24.8113	European Envioronmental Agency (EEA)	2025-09-15	10.999431791666666	11.745185852050781	9.667481422424316	Good	Good	
12	SPO-FI00301_00005_100	Pyykösjärvi	Finland	background	65.0434	25.4979	European Envioronmental Agency (EEA)	2025-09-15	6.268507666666667	4.825831890106201	4.162205696105957	Good	Good	
13	SPO-FI00446_00005_100	Oulun keskusta 2	Finland	traffic	65.01	25.4713	European Envioronmental Agency (EEA)	2025-09-15	6.093914761904762	7.909658908843994	6.935199737548828	Good	Good	
14	SPO-FI00952_00005_100	Jyväskylä Hannikaisenkatu	Finland	traffic	62.2382	25.7479	European Envioronmental Agency (EEA)	2025-09-15	10.809156250000001	8.647656440734863	7.294528484344482	Good	Good	
15	SPO-FI00455_00005_100	Laune	Finland	traffic	60.967	25.6549	European Envioronmental Agency (EEA)	2025-09-15	12.663239583333336	11.052989959716797	8.438671112060547	Good	Good	
16	SPO-FI00889_00005_100	Saimaankatu	Finland	traffic	60.9913	25.6658	European Envioronmental Agency (EEA)	2025-09-15	11.554579833333335	9.971846580505371	7.5943708419799805	Good	Good	
17	SPO-FI00444_00005_100	Naantalin keskusta	Finland	traffic	60.4674	22.0284	European Envioronmental Agency (EEA)	2025-09-15	8.581223125000001	7.254789352416992	6.58570671081543	Good	Good	
18	SPO-FI00558_00005_100	Maaherrankatu	Finland	traffic	62.8933	27.6869	European Envioronmental Agency (EEA)	2025-09-15	11.903927000000001	9.835658073425293	8.057077407836914	Good	Good	
19	SPO-FI00839_00005_100	Tasavallankatu	Finland	traffic	62.882	27.6619	European Envioronmental Agency (EEA)	2025-09-15	13.313557333333334	11.647032737731934	9.348287582397461	Good	Good	
20	SPO-FI00928_00005_100	Pori Paanakedonkatu	Finland	traffic	61.4823	21.8133	European Envioronmental Agency (EEA)	2025-09-15	6.196380333333334	5.159785747528076	4.873030185699463	Good	Good	
21	SPO-FI00424_00005_100	Mansikkala	Finland	traffic	61.1889	28.7701	European Envioronmental Agency (EEA)	2025-09-15	14.900388	10.857952117919922	9.79723072052002	Good	Good	
22	SPO-FI00433_00005_100	Teppanala	Finland	industrial	61.153	28.8101	European Envioronmental Agency (EEA)	2025-09-15	14.958206500000001	10.627467155456543	9.279068946838379	Good	Good	
23	SPO-FI00434_00005_100	Joutsenon keskusta	Finland	traffic	61.1171	28.4985	European Envioronmental Agency (EEA)	2025-09-15	9.355943083333335	8.087979316711426	7.264700889587402	Good	Good	
24	SPO-FI00606_00005_100	Lappeenrannan keskusta 4	Finland	traffic	61.0558	28.1843	European Envioronmental Agency (EEA)	2025-09-15	13.36206445833333	11.48083209991455	10.49923324584961	Good	Good	
25	SPO-FI00972_00005_100	Lohja Harjula	Finland	background	60.249	24.0695	European Envioronmental Agency (EEA)	2025-09-15	9.849449208333333	9.671093940734863	7.369015693664551	Good	Good	
26	SPO-FI00892_00005_100	Kankaan Koulu	Finland	traffic	60.8704	26.701	European Envioronmental Agency (EEA)	2025-09-15	11.05283075	10.480819702148438	9.601460456848145	Good	Good	
27	SPO-FI00179_00005_100	Pirkkala	Finland	industrial	61.3316	22.1431	European Envioronmental Agency (EEA)	2025-09-15	7.0420948333333335	6.163893222808838	5.9759321212768555	Good	Good	
28	SPO-FI00184_00005_100	Kaleva	Finland	industrial	61.3135	22.135	European Envioronmental Agency (EEA)	2025-09-15	6.713593041666667	5.583580493927002	5.609930992126465	Good	Good	
29	SPO-FI00397_00005_100	Bottenviksvägen	Finland	traffic	63.6791	22.7184	European Envioronmental Agency (EEA)	2025-09-15	7.144394875000001	7.162935733795166	4.981239318847656	Good	Good	
30	SPO-IS0005A_00005_103	Reykjavik Grensas	Iceland	traffic	64.1301	-21.8747	European Envioronmental Agency (EEA)	2025-09-15		16.8553409576416	12.2931489944458	Good	Good	
31	SPO-IS0052A_00005_100	Akureyri Strandgata (við Hof)	Iceland	traffic	65.6841	-18.0882	European Envioronmental Agency (EEA)	2025-09-15	3.5454545454545454	3.246377944946289	2.9876320362091064	Good	Good	
32	SPO-IS0025A_00005_100	Grundartangi Kríuvarða	Iceland	industrial	64.3736	-21.7591	European Envioronmental Agency (EEA)	2025-09-15		6.70775842666626	6.132483005523682	Good	Good	
33	SPO-IS0041A_00005_100	Grundartangi Gröf	Iceland	industrial	64.3342	-21.8357	European Envioronmental Agency (EEA)	2025-09-15		0.2225913256406784	0.5533626675605774	Good	Good	
34	SPO-IS0037A_00005_100	Kópavogur Dalsmári	Iceland	background	64.105	-21.889	European Envioronmental Agency (EEA)	2025-09-15	5.3437166666666664	2.900559186935425	2.4903719425201416	Good	Good	
35	SPO-IS0046A_00005_101	Hafnarfjörður Norðurhella	Iceland	background	64.0442	-21.9854	European Envioronmental Agency (EEA)	2025-09-15		10.677699089050293	8.199997901916504	Good	Good	
36	SPO-IS0049A_00005_100	PCC norður	Iceland	industrial	66.0793	-17.3422	European Envioronmental Agency (EEA)	2025-09-15	8.93690909090909	5.70425271987915	5.958736419677734	Good	Good	
37	SPO-IS0050A_00005_100	PCC suður	Iceland	industrial	66.0549	-17.3476	European Envioronmental Agency (EEA)	2025-09-15	3.1563484210526322	3.284048318862915	3.2210311889648438	Good	Good	
38	SPO_NO0071A_5_38	Manglerud	Norway	traffic	59.8986	10.8149	European Envioronmental Agency (EEA)	2025-09-15	6.329583333333335	6.554325103759766	8.402155876159668	Good	Good	
39	SPO_NO0093A_5_1039	Hjortnes	Norway	traffic	59.9113	10.704	European Envioronmental Agency (EEA)	2025-09-15	10.816666666666668	8.849043846130371	10.197335243225098	Good	Good	
40	SPO_NO0095A_5_934	Smestad	Norway	traffic	59.9325	10.6699	European Envioronmental Agency (EEA)	2025-09-15	11.637128166666665	5.815454959869385	6.183236122131348	Good	Good	
41	SPO_NO0122A_5_2945	E6 Alna senter	Norway	traffic	59.9256	10.8504	European Envioronmental Agency (EEA)	2025-09-15	6.3387049583333335	4.754613876342773	7.0486345291137695	Good	Good	
42	SPO_NO0011A_5_19	Kirkeveien	Norway	traffic	59.9323	10.7245	European Envioronmental Agency (EEA)	2025-09-15	4.781773375	1.9212099313735962	1.948143720626831	Good	Good	
43	SPO_NO0057A_5_41	Alnabru	Norway	traffic	59.9277	10.8466	European Envioronmental Agency (EEA)	2025-09-15	8.819699052631579	5.549978733062744	7.57065486907959	Good	Good	
44	SPO_NO0073A_5_552	Sofienbergparken	Norway	background	59.923	10.7657	European Envioronmental Agency (EEA)	2025-09-15	4.917879956521739	3.894061326980591	5.0685601234436035	Good	Good	
45	SPO_NO0083A_5_793	Bygdøy Alle	Norway	traffic	59.9193	10.6965	European Envioronmental Agency (EEA)	2025-09-15	5.837500000000001	3.7743587493896484	4.6734113693237305	Good	Good	
46	SPO_NO0140A_5_3171	Spikersuppa	Norway	background	59.9141	10.736	European Envioronmental Agency (EEA)	2025-09-15	4.7071577499999995	4.977769374847412	6.313228607177734	Good	Good	
47	SPO_NO0143A_5_3173	Vahl skole	Norway	traffic	59.9169	10.766	European Envioronmental Agency (EEA)	2025-09-15	4.133333333333334	4.0666584968566895	5.0968098640441895	Good	Good	
48	SPO_NO0059A_5_11	Danmarks plass	Norway	traffic	60.3741	5.3404	European Envioronmental Agency (EEA)	2025-09-15	4.9644307916666675	1.621849536895752	4.744554042816162	Good	Good	
49	SPO_NO0108A_5_2071	Rolland Åsane	Norway	background	60.4627	5.3324	European Envioronmental Agency (EEA)	2025-09-15	3.0945487916666665	1.2710596323013306	2.8437914848327637	Good	Good	
50	SPO_NO0109A_5_2067	Loddefjord	Norway	traffic	60.3611	5.2369	European Envioronmental Agency (EEA)	2025-09-15	5.646744708333333	3.7808284759521484	4.7704877853393555	Good	Good	
51	SPO_NO0120A_5_2902	Klosterhaugen	Norway	background	60.3959	5.3127	European Envioronmental Agency (EEA)	2025-09-15	3.7282701739130433	2.1193325519561768	4.036275386810303	Good	Good	
52	SPO_NO0121A_5_2888	Rådal	Norway	traffic	60.2943	5.3246	European Envioronmental Agency (EEA)	2025-09-15	5.081229749999999	1.9609661102294922	4.937971115112305	Good	Good	
53	SPO_NO0060A_5_1685	Elgeseter	Norway	traffic	63.4174	10.3968	European Envioronmental Agency (EEA)	2025-09-15	6.709451916666667	4.4444756507873535	4.352627754211426	Good	Good	
54	SPO_NO0102A_5_1530	E6-Tiller	Norway	traffic	63.3576	10.3717	European Envioronmental Agency (EEA)	2025-09-15		24.1734561920166	23.654159545898438	Good	Good	
55	SPO_NO0145A_5_3060	Omkjøringsvegen	Norway	traffic	63.4105	10.4444	European Envioronmental Agency (EEA)	2025-09-15	2.12352175	1.1412886381149292	3.2905080318450928	Good	Good	
56	SPO_NO0061A_5_713	Lensmannsdalen	Norway	traffic	59.1593	9.6357	European Envioronmental Agency (EEA)	2025-09-15	7.011304347826086	7.611900329589844	7.20551061630249	Good	Good	
57	SPO_NO0106A_5_1231	Sverresgate	Norway	traffic	59.1382	9.6522	European Envioronmental Agency (EEA)	2025-09-15	8.024761904761906	6.042269229888916	5.534642219543457	Good	Good	
58	SPO_NO0115A_5_2473	Furulund	Norway	industrial	59.0573	9.6956	European Envioronmental Agency (EEA)	2025-09-15	9.984843916666668	8.43935775756836	5.3779706954956055	Good	Good	
59	SPO_NO0118A_5_2723	Knarrdalstranda	Norway	background	59.1335	9.6219	European Envioronmental Agency (EEA)	2025-09-15	14.743272041666666	8.201858520507812	6.59161901473999	Good	Good	
60	SPO_NO0063A_5_192	Stener Heyerdahl	Norway	background	58.1489	7.9918	European Envioronmental Agency (EEA)	2025-09-15	7.483688541666666	5.32553768157959	4.007136344909668	Good	Good	
61	SPO_NO0134A_5_3121	Bjørndalssletta	Norway	traffic	58.1623	8.0238	European Envioronmental Agency (EEA)	2025-09-15	6.376578571428571	4.5964226722717285	3.646897315979004	Good	Good	
62	SPO_NO0065A_5_52	Våland	Norway	background	58.9616	5.7314	European Envioronmental Agency (EEA)	2025-09-15	4.026908416666667	1.1894878149032593	2.9099810123443604	Good	Good	
63	SPO_NO0076A_5_46	Kannik	Norway	traffic	58.9642	5.7279	European Envioronmental Agency (EEA)	2025-09-15	4.098835291666667	2.6020164489746094	3.843794345855713	Good	Good	
64	SPO_NO0125A_5_3017	Schancheholen	Norway	traffic	58.9519	5.7219	European Envioronmental Agency (EEA)	2025-09-15	2.397848666666667	1.4579061269760132	2.986952066421509	Good	Good	
65	SPO_NO0141A_5_3178	Vågen	Norway	background	58.9726	5.7265	European Envioronmental Agency (EEA)	2025-09-15	3.067193916666666	2.876610517501831	3.9283454418182373	Good	Good	
66	SPO_NO0074A_5_539	Bankplassen	Norway	traffic	61.1129	10.4649	European Envioronmental Agency (EEA)	2025-09-15	6.612177625000001	3.530015230178833	2.73406982421875	Good	Good	
67	SPO_NO0075A_5_544	Lillehammer barnehage	Norway	background	61.1209	10.4656	European Envioronmental Agency (EEA)	2025-09-15	3.698903208333334	3.9425570964813232	3.768731117248535	Good	Good	
68	SPO_NO0079A_5_392	Hansjordnesbukta	Norway	traffic	69.6562	18.9637	European Envioronmental Agency (EEA)	2025-09-15	15.31742325	8.874848365783691	6.348295211791992	Good	Good	
69	SPO_NO0124A_5_2957	Rambergan	Norway	background	69.6543	18.9564	European Envioronmental Agency (EEA)	2025-09-15	8.813825958333334	6.723737716674805	5.9686126708984375	Good	Good	
70	SPO_NO0084A_5_967	St.Croix	Norway	traffic	59.2103	10.9454	European Envioronmental Agency (EEA)	2025-09-15	3.909661291666667	3.8267574310302734	3.69681453704834	Good	Good	
71	SPO_NO0114A_5_2325	Bekkestua	Norway	background	59.9182	10.5839	European Envioronmental Agency (EEA)	2025-09-15	3.8874999999999997	3.2310028076171875	3.4722588062286377	Good	Good	
72	SPO_NO0110A_5_2064	Alvim	Norway	traffic	59.2738	11.0892	European Envioronmental Agency (EEA)	2025-09-15	6.5378854166666684	4.877012729644775	4.376690864562988	Good	Good	
73	SPO_NO0112A_5_1221	Kransen	Norway	traffic	59.4335	10.6618	European Envioronmental Agency (EEA)	2025-09-15	6.269191583333334	4.169591903686523	3.5167667865753174	Good	Good	
74	SPO_NO0119A_5_2701	Leiret	Norway	traffic	60.8836	11.5593	European Envioronmental Agency (EEA)	2025-09-15	8.282987541666667	4.371376037597656	4.349508762359619	Good	Good	
75	SPO_NO0128A_5_2972	Nedre Langgate	Norway	traffic	59.2637	10.4112	European Envioronmental Agency (EEA)	2025-09-15	7.96032425	5.424941539764404	4.553250789642334	Good	Good	
76	SPO_NO0127A_5_2964	Seljestad Rv83	Norway	traffic	68.7922	16.5374	European Envioronmental Agency (EEA)	2025-09-15		4.84804105758667	3.020012855529785	Good	Good	
77	SPO_NO0130A_5_3000	Ringsakervegen	Norway	traffic	60.8859	10.9379	European Envioronmental Agency (EEA)	2025-09-15	4.2875000000000005	2.002896308898926	1.6138877868652344	Good	Good	
78	SPO-SE0001A_00005_100	Malmö Rådhuset	Sweden	background	55.6064	13.002	European Envioronmental Agency (EEA)	2025-09-15	6.440833333333334	6.612629413604736	7.430782794952393	Good	Good	
79	SPO-SE0058A_00005_100	Malmö Dalaplan	Sweden	traffic	55.5847	13.0062	European Envioronmental Agency (EEA)	2025-09-15	6.489583333333333	6.921440124511719	8.41278076171875	Good	Good	
80	SPO-SE0085A_00005_101	Helsingborg Drottninggatan	Sweden	traffic	56.0472	12.6916	European Envioronmental Agency (EEA)	2025-09-15	7.732958333333333	5.060302257537842	6.183794975280762	Good	Good	
81	SPO-SE38350_00005_100	Lund Trollebergsvägen	Sweden	traffic	55.7033	13.1803	European Envioronmental Agency (EEA)	2025-09-15	4.555833333333333	5.556456089019775	5.989539623260498	Good	Good	
82	SPO-SE344172_00005_100	Västerås Stora Gatan 78	Sweden	traffic	59.6077	16.5359	European Envioronmental Agency (EEA)	2025-09-15	7.382416666666667	6.476927280426025	6.684836387634277	Good	Good	
83	SPO-SE0003A_00005_100	Stockholm Hornsgatan 108 Gata	Sweden	traffic	59.3172	18.0487	European Envioronmental Agency (EEA)	2025-09-15	5.898220833333333	8.361401557922363	9.903136253356934	Good	Good	
84	SPO-SE0027A_00005_100	Stockholm Sveavägen 59 Gata	Sweden	traffic	59.3408	18.0583	European Envioronmental Agency (EEA)	2025-09-15	10.191941583333334	10.48315143585205	12.56336498260498	Good	Good	
85	SPO-SE0066A_00005_100	Norr Malma	Sweden	background	59.8324	18.6313	European Envioronmental Agency (EEA)	2025-09-15	5.656366625	5.562170505523682	4.782114505767822	Good	Good	
86	SPO-SE0071A_00005_100	Sollentuna E4 Häggvik	Sweden	traffic	59.4435	17.9224	European Envioronmental Agency (EEA)	2025-09-15	3.8549500000000005	4.680452346801758	5.93173885345459	Good	Good	
87	SPO-SE0072A_00005_100	Södertälje Turingegatan 26	Sweden	traffic	59.1981	17.6211	European Envioronmental Agency (EEA)	2025-09-15	4.735279125000001	5.592906951904297	6.602595329284668	Good	Good	
88	SPO-SE0117A_00005_101	Visby Österväg 17	Sweden	traffic	57.6369	18.3036	European Envioronmental Agency (EEA)	2025-09-15	7.550366666666668	8.346041679382324	4.046842575073242	Good	Good	
89	SPO-SE156417_00005_100	Uppsala Kungsgatan 67	Sweden	traffic	59.8571	17.6463	European Envioronmental Agency (EEA)	2025-09-15	9.574145833333333	9.515007019042969	10.162324905395508	Good	Good	
90	SPO-SE157992_00005_100	Stockholm St Eriksgatan 83	Sweden	traffic	59.3405	18.037	European Envioronmental Agency (EEA)	2025-09-15	6.488245833333334	8.438663482666016	9.615811347961426	Good	Good	
91	SPO-SE159402_00005_100	Sollentuna Danderydsvägen	Sweden	traffic	59.4459	17.955	European Envioronmental Agency (EEA)	2025-09-15	6.156324958333333	5.322607517242432	6.652708530426025	Good	Good	
92	SPO-SE159404_00005_100	Uppsala Dragarbrunnsgatan 23 tak	Sweden	background	59.8605	17.6376	European Envioronmental Agency (EEA)	2025-09-15	7.780149958333333	7.991659641265869	8.449018478393555	Good	Good	
93	SPO-SE274652_00005_100	Sollentuna Sollentunavägen 192	Sweden	traffic	59.4336	17.9497	European Envioronmental Agency (EEA)	2025-09-15	6.131104125	6.492298126220703	7.845864295959473	Good	Good	
94	SPO-SE301111_00005_100	Norrköping Kungsgatan 32	Sweden	traffic	58.5915	16.1779	European Envioronmental Agency (EEA)	2025-09-15	6.075824958333333	5.191095352172852	4.2151384353637695	Good	Good	
95	SPO-SE301113_00005_100	Norrköping Trädgårdsgatan 21	Sweden	background	58.592	16.1893	European Envioronmental Agency (EEA)	2025-09-15	5.0029999583333336	5.0073161125183105	4.338865756988525	Good	Good	
96	SPO-SE301757_00005_100	Sundbyberg Tulegatan 9	Sweden	traffic	59.3643	17.9763	European Envioronmental Agency (EEA)	2025-09-15	7.440345791666668	7.233074188232422	8.424403190612793	Good	Good	
97	SPO-SE313381_00005_100	Visby Brömsebroväg 8	Sweden	background	57.6399	18.3097	European Envioronmental Agency (EEA)	2025-09-15	4.952312500000001	6.816840648651123	5.246348857879639	Good	Good	
98	SPO-SE338683_00005_100	Gävle Staketgatan 22	Sweden	traffic	60.6762	17.1376	European Envioronmental Agency (EEA)	2025-09-15	6.7774207916666676	5.771785736083984	7.053701877593994	Good	Good	
99	SPO-SE338685_00005_100	Linköping Hamngatan 10	Sweden	traffic	58.4124	15.6301	European Envioronmental Agency (EEA)	2025-09-15	5.424433333333334	2.015951156616211	0.8584643602371216	Good	Good	
100	SPO-SE37479_00005_100	Sollentuna Ekmans Väg 11	Sweden	traffic	59.489	17.9199	European Envioronmental Agency (EEA)	2025-09-15	5.6362499999999995	6.515758514404297	7.56974983215332	Good	Good	
101	SPO-SE0004A_00005_100	Göteborg Femman	Sweden	background	57.709	11.9702	European Envioronmental Agency (EEA)	2025-09-15	8.2474875	6.225105285644531	7.2358717918396	Good	Good	
102	SPO-SE0005R_00005_101	Bredkälen	Sweden	background	63.8455	15.3197	European Envioronmental Agency (EEA)	2025-09-15	4.3125	3.9647915363311768	2.8096463680267334	Good	Good	
103	SPO-SE0014R_00005_100	Råö	Sweden	background	57.3936	11.9142	European Envioronmental Agency (EEA)	2025-09-15	12.558823529411764	10.043015480041504	9.648550033569336	Good	Good	
104	SPO-SE159388_00005_101	Norunda Stenen	Sweden	background	60.0858	17.5053	European Envioronmental Agency (EEA)	2025-09-15	6.182477227272727	5.59532356262207	5.0240583419799805	Good	Good	
105	SPO-SE0021A_00005_100	Göteborg Gårda	Sweden	traffic	57.7009	11.9946	European Envioronmental Agency (EEA)	2025-09-15	7.994125	6.700094223022461	10.088444709777832	Good	Good	
106	SPO-SE0067A_00005_100	Göteborg Haga	Sweden	traffic	57.6979	11.9605	European Envioronmental Agency (EEA)	2025-09-15	7.708333333333333	7.013450622558594	8.432236671447754	Good	Good	
107	SPO-SE274590_00005_100	Göteborg Övre Husargatan	Sweden	traffic	57.6937	11.9568	European Envioronmental Agency (EEA)	2025-09-15	9.0744495	7.8376383781433105	8.713447570800781	Good	Good	
108	SPO-SE165095_00005_100	Hedemora Gussarvsgatan	Sweden	traffic	60.2814	15.9891	European Envioronmental Agency (EEA)	2025-09-15	5.796375	4.865260601043701	5.507841110229492	Good	Good	
109	SPO-SE0095A_00005_100	Sundsvall Köpmangatan	Sweden	traffic	62.3886	17.3089	European Envioronmental Agency (EEA)	2025-09-15	5.431916666666666	4.998908996582031	6.130301475524902	Good	Good	
110	SPO-SE09569_00005_100	Sundsvall Bergsgatan	Sweden	traffic	62.3865	17.3032	European Envioronmental Agency (EEA)	2025-09-15	7.217166666666667	4.737640380859375	5.933593273162842	Good	Good	
111	SPO-SE181002_00005_100	Växjö Liedbergsgatan 11	Sweden	traffic	56.8799	14.7993	European Envioronmental Agency (EEA)	2025-09-15	5.108333333333333	4.333199501037598	3.543142795562744	Good	Good	
112	SPO-SE181993_00005_100	Kalmar Södra Vägen	Sweden	traffic	56.6642	16.3336	European Envioronmental Agency (EEA)	2025-09-15	7.3500000000000005	8.356894493103027	6.674848556518555	Good	Good	
113	SPO-SE181259_00005_100	Östersund Rådhusgatan	Sweden	traffic	63.1739	14.6411	European Envioronmental Agency (EEA)	2025-09-15	3.3791666666666664	0.9619513154029846	-0.26089560985565186	Good	Good	
114	SPO-SE0059A_00005_100	Umeå Västra Esplanaden	Sweden	traffic	63.8289	20.2585	European Envioronmental Agency (EEA)	2025-09-15	4.666666666666667	7.063047885894775	8.017596244812012	Good	Good	
115	SPO-SE274953_00005_100	Skellefteå Kv Pantern	Sweden	traffic	64.7495	20.9601	European Envioronmental Agency (EEA)	2025-09-15	5.518958333333334	10.667353630065918	9.335356712341309	Good	Good	
116	FI_5_101983	Muonio Sammaltunturi	Finland		67.97	24.12	Finnish Meteorological Institute (FMI)	2025-09-15	2.9333333333333336	2.6224889755249023	2.1842148303985596	Good	Good	
