	Station Code	Station Name	Country	Station type	Latitude	Longitude	Network	Date	PM10 measured concentration (microg/m^3)	PM10 today forecast mean concentration (microg/m^3)	PM10 tomorrow forecast mean concentration (microg/m^3)	Today air quality	Tomorrow air quality	Actions
0	SPO-DK0034A_00005_100	Copenhagen/1103	Denmark	traffic	55.6743	12.5711	European Envioronmental Agency (EEA)	2026-03-01		52.34288024902344	49.51658630371094	Unhealthy	Unhealthy	
1	SPO-DK0012R_00005_101	Risoe	Denmark	background	55.6942	12.0889	European Envioronmental Agency (EEA)	2026-03-01		17.800554275512695	16.68860626220703	Good	Good	
2	SPO-FI00570_00005_100	Raahen keskusta 2	Finland	traffic	64.6834	24.4816	European Envioronmental Agency (EEA)	2026-03-01	6.145858375	9.494036674499512	11.472382545471191	Good	Good	
3	SPO-FI00349_00005_100	Utö	Finland	background	59.7792	21.374	European Envioronmental Agency (EEA)	2026-03-01	5.23657725	2.1659345626831055	2.8658463954925537	Good	Good	
4	SPO-FI00427_00005_100	Matorova	Finland	background	68.0005	24.2457	European Envioronmental Agency (EEA)	2026-03-01	2.9685782083333336	3.9630496501922607	4.223517417907715	Good	Good	
5	SPO-FI00549_00005_100	Pirkankatu	Finland	traffic	61.4987	23.7357	European Envioronmental Agency (EEA)	2026-03-01	3.682519291666667	-1.1784521341323853	-0.010607927106320858	Good	Good	
6	SPO-FI00838_00005_100	Epila 2	Finland	traffic	61.5085	23.6758	European Envioronmental Agency (EEA)	2026-03-01	2.0780264583333334	-2.5966997146606445	-1.3118664026260376	Good	Good	
7	SPO-FI00208_00005_101	Luukki	Finland	background	60.3144	24.6849	European Envioronmental Agency (EEA)	2026-03-01	4.161169666666667	2.5615015029907227	2.467115640640259	Good	Good	
8	SPO-FI00370_00005_100	Tikkurila 3	Finland	traffic	60.2899	25.0395	European Envioronmental Agency (EEA)	2026-03-01	6.093526291666667	4.073784828186035	3.8864023685455322	Good	Good	
9	SPO-FI00425_00005_100	Kallio 2	Finland	background	60.1874	24.9506	European Envioronmental Agency (EEA)	2026-03-01	6.302371750000002	3.708888053894043	4.130895137786865	Good	Good	
10	SPO-FI00564_00005_100	Mannerheimintie	Finland	traffic	60.1696	24.9392	European Envioronmental Agency (EEA)	2026-03-01	6.725130291666667	0.7306742668151855	1.964614987373352	Good	Good	
11	SPO-FI00781_00005_100	Vartiokylä Huivipolku	Finland	background	60.2239	25.1024	European Envioronmental Agency (EEA)	2026-03-01	4.928402291666667	4.735612869262695	4.622748851776123	Good	Good	
12	SPO-FI00841_00005_100	Leppävaara 4	Finland	traffic	60.2202	24.8113	European Envioronmental Agency (EEA)	2026-03-01	6.543552833333334	2.6844675540924072	2.4876415729522705	Good	Good	
13	SPO-FI00301_00005_100	Pyykösjärvi	Finland	background	65.0434	25.4979	European Envioronmental Agency (EEA)	2026-03-01	2.9945760833333335	4.760910987854004	5.600647449493408	Good	Good	
14	SPO-FI00446_00005_100	Oulun keskusta 2	Finland	traffic	65.01	25.4713	European Envioronmental Agency (EEA)	2026-03-01	4.034673625	7.1057305335998535	8.155091285705566	Good	Good	
15	SPO-FI00952_00005_100	Jyväskylä Hannikaisenkatu	Finland	traffic	62.2382	25.7479	European Envioronmental Agency (EEA)	2026-03-01	3.250940291666667	-2.1066808700561523	-0.02692384272813797	Good	Good	
16	SPO-FI00455_00005_100	Laune	Finland	traffic	60.967	25.6549	European Envioronmental Agency (EEA)	2026-03-01	3.855626166666667	-1.4047046899795532	-1.3881423473358154	Good	Good	
17	SPO-FI00889_00005_100	Saimaankatu	Finland	traffic	60.9913	25.6658	European Envioronmental Agency (EEA)	2026-03-01	3.4871085833333333	0.22555549442768097	0.30084896087646484	Good	Good	
18	SPO-FI00444_00005_100	Naantalin keskusta	Finland	traffic	60.4674	22.0284	European Envioronmental Agency (EEA)	2026-03-01	2.882968041666667	0.270685076713562	1.1626476049423218	Good	Good	
19	SPO-FI00558_00005_100	Maaherrankatu	Finland	traffic	62.8933	27.6869	European Envioronmental Agency (EEA)	2026-03-01	2.2038343333333335	0.8645678162574768	1.7396689653396606	Good	Good	
20	SPO-FI00839_00005_100	Tasavallankatu	Finland	traffic	62.882	27.6619	European Envioronmental Agency (EEA)	2026-03-01	2.679574166666667	2.483366012573242	3.54634165763855	Good	Good	
21	SPO-FI00928_00005_100	Pori Paanakedonkatu	Finland	traffic	61.4823	21.8133	European Envioronmental Agency (EEA)	2026-03-01	4.376696125	-2.060973882675171	-0.10270591080188751	Good	Good	
22	SPO-FI00424_00005_100	Mansikkala	Finland	traffic	61.1889	28.7701	European Envioronmental Agency (EEA)	2026-03-01	3.4002699166666672	3.1433117389678955	2.140104293823242	Good	Good	
23	SPO-FI00433_00005_100	Teppanala	Finland	industrial	61.153	28.8101	European Envioronmental Agency (EEA)	2026-03-01	3.3410234583333334	4.5834431648254395	4.202317714691162	Good	Good	
24	SPO-FI00606_00005_100	Lappeenrannan keskusta 4	Finland	traffic	61.0558	28.1843	European Envioronmental Agency (EEA)	2026-03-01	4.201203875	3.331655740737915	2.5168933868408203	Good	Good	
25	SPO-FI00972_00005_100	Lohja Harjula	Finland	background	60.249	24.0695	European Envioronmental Agency (EEA)	2026-03-01	4.521168458333334	2.1301498413085938	1.6000653505325317	Good	Good	
26	SPO-FI00892_00005_100	Kankaan Koulu	Finland	traffic	60.8704	26.701	European Envioronmental Agency (EEA)	2026-03-01	2.7721457272727275	2.053431987762451	1.6177012920379639	Good	Good	
27	SPO-FI00179_00005_100	Pirkkala	Finland	industrial	61.3316	22.1431	European Envioronmental Agency (EEA)	2026-03-01	3.8023619583333335	3.0235707759857178	3.345106601715088	Good	Good	
28	SPO-FI00184_00005_100	Kaleva	Finland	industrial	61.3135	22.135	European Envioronmental Agency (EEA)	2026-03-01	3.4021247500000005	2.050706624984741	2.4676566123962402	Good	Good	
29	SPO-FI00397_00005_100	Bottenviksvägen	Finland	traffic	63.6791	22.7184	European Envioronmental Agency (EEA)	2026-03-01	3.4165791666666667	-2.1717042922973633	-0.2554061710834503	Good	Good	
30	SPO-IS0005A_00005_103	Reykjavik Grensas	Iceland	traffic	64.1301	-21.8747	European Envioronmental Agency (EEA)	2026-03-01	6.388837500000001	12.732691764831543	7.0351152420043945	Good	Good	
31	SPO-IS0052A_00005_100	Akureyri Strandgata (við Hof)	Iceland	traffic	65.6841	-18.0882	European Envioronmental Agency (EEA)	2026-03-01	34.291666666666664	25.0991268157959	21.849763870239258	Moderate	Good	
32	SPO-IS0025A_00005_100	Grundartangi Kríuvarða	Iceland	industrial	64.3736	-21.7591	European Envioronmental Agency (EEA)	2026-03-01		7.7981276512146	7.641402721405029	Good	Good	
33	SPO-IS0041A_00005_100	Grundartangi Gröf	Iceland	industrial	64.3342	-21.8357	European Envioronmental Agency (EEA)	2026-03-01	4.754016666666667	4.503335475921631	4.077365875244141	Good	Good	
34	SPO-IS0037A_00005_100	Kópavogur Dalsmári	Iceland	background	64.105	-21.889	European Envioronmental Agency (EEA)	2026-03-01	5.62465	10.378942489624023	7.578096389770508	Good	Good	
35	SPO-IS0046A_00005_101	Hafnarfjörður Norðurhella	Iceland	background	64.0442	-21.9854	European Envioronmental Agency (EEA)	2026-03-01	5.2932999999999995	7.473473072052002	6.622997760772705	Good	Good	
36	SPO-IS0049A_00005_100	PCC norður	Iceland	industrial	66.0793	-17.3422	European Envioronmental Agency (EEA)	2026-03-01		3.990947723388672	4.316044330596924	Good	Good	
37	SPO-IS0050A_00005_100	PCC suður	Iceland	industrial	66.0549	-17.3476	European Envioronmental Agency (EEA)	2026-03-01	7.450791666666667	5.231966495513916	5.801693439483643	Good	Good	
38	SPO_NO0093A_5_1039	Hjortnes	Norway	traffic	59.9113	10.704	European Envioronmental Agency (EEA)	2026-03-01	13.2	7.549773693084717	9.352563858032227	Good	Good	
39	SPO_NO0095A_5_934	Smestad	Norway	traffic	59.9325	10.6699	European Envioronmental Agency (EEA)	2026-03-01	12.535347000000002	7.5108184814453125	8.626204490661621	Good	Good	
40	SPO_NO0122A_5_2945	E6 Alna senter	Norway	traffic	59.9256	10.8504	European Envioronmental Agency (EEA)	2026-03-01	2.401666	4.7782368659973145	6.676823616027832	Good	Good	
41	SPO_NO0011A_5_19	Kirkeveien	Norway	traffic	59.9323	10.7245	European Envioronmental Agency (EEA)	2026-03-01	2.253145	-3.0800492763519287	-1.0027445554733276	Good	Good	
42	SPO_NO0057A_5_41	Alnabru	Norway	traffic	59.9277	10.8466	European Envioronmental Agency (EEA)	2026-03-01	3.213772	4.105575084686279	6.150302886962891	Good	Good	
43	SPO_NO0072A_5_352	Skøyen	Norway	background	59.9197	10.6897	European Envioronmental Agency (EEA)	2026-03-01	6.543913000000001	6.867809295654297	7.922120571136475	Good	Good	
44	SPO_NO0073A_5_552	Sofienbergparken	Norway	background	59.923	10.7657	European Envioronmental Agency (EEA)	2026-03-01	8.053227	3.1059181690216064	4.21492338180542	Good	Good	
45	SPO_NO0083A_5_793	Bygdøy Alle	Norway	traffic	59.9193	10.6965	European Envioronmental Agency (EEA)	2026-03-01	10.1	6.222006320953369	7.73738431930542	Good	Good	
46	SPO_NO0140A_5_3171	Spikersuppa	Norway	background	59.9141	10.736	European Envioronmental Agency (EEA)	2026-03-01	5.638750000000001	5.740728855133057	6.593527317047119	Good	Good	
47	SPO_NO0059A_5_11	Danmarks plass	Norway	traffic	60.3741	5.3404	European Envioronmental Agency (EEA)	2026-03-01	32.921938000000004	19.932100296020508	16.324769973754883	Good	Good	
48	SPO_NO0108A_5_2071	Rolland Åsane	Norway	background	60.4627	5.3324	European Envioronmental Agency (EEA)	2026-03-01	4.814744	6.54010534286499	4.249027252197266	Good	Good	
49	SPO_NO0109A_5_2067	Loddefjord	Norway	traffic	60.3611	5.2369	European Envioronmental Agency (EEA)	2026-03-01	14.190805	10.997220039367676	8.634521484375	Good	Good	
50	SPO_NO0120A_5_2902	Klosterhaugen	Norway	background	60.3959	5.3127	European Envioronmental Agency (EEA)	2026-03-01	8.763144	7.93481969833374	6.41502046585083	Good	Good	
51	SPO_NO0121A_5_2888	Rådal	Norway	traffic	60.2943	5.3246	European Envioronmental Agency (EEA)	2026-03-01	14.250050000000002	8.507401466369629	6.588345527648926	Good	Good	
52	SPO_NO0135A_5_3126	Backeparken	Norway	background	59.7495	10.1653	European Envioronmental Agency (EEA)	2026-03-01		8.653878211975098	11.82773494720459	Good	Good	
53	SPO_NO0136A_5_3124	Vårveien	Norway	traffic	59.7536	10.1444	European Envioronmental Agency (EEA)	2026-03-01	10.365348208333332	8.976691246032715	13.929311752319336	Good	Good	
54	SPO_NO0060A_5_1685	Elgeseter	Norway	traffic	63.4174	10.3968	European Envioronmental Agency (EEA)	2026-03-01	6.229522	12.038241386413574	6.471444606781006	Good	Good	
55	SPO_NO0102A_5_1530	E6-Tiller	Norway	traffic	63.3576	10.3717	European Envioronmental Agency (EEA)	2026-03-01	10.14027	20.681495666503906	12.73419189453125	Good	Good	
56	SPO_NO0106A_5_1231	Sverresgate	Norway	traffic	59.1382	9.6522	European Envioronmental Agency (EEA)	2026-03-01	4.29	3.8735387325286865	5.585668087005615	Good	Good	
57	SPO_NO0115A_5_2473	Furulund	Norway	industrial	59.0573	9.6956	European Envioronmental Agency (EEA)	2026-03-01	7.858566000000001	7.305700302124023	8.682700157165527	Good	Good	
58	SPO_NO0118A_5_2723	Knarrdalstranda	Norway	background	59.1335	9.6219	European Envioronmental Agency (EEA)	2026-03-01	1.26553	8.213353157043457	9.388023376464844	Good	Good	
59	SPO_NO0063A_5_192	Stener Heyerdahl	Norway	background	58.1489	7.9918	European Envioronmental Agency (EEA)	2026-03-01	0.872083	5.887816905975342	7.924940586090088	Good	Good	
60	SPO_NO0065A_5_52	Våland	Norway	background	58.9616	5.7314	European Envioronmental Agency (EEA)	2026-03-01	3.139402	9.363667488098145	9.79908275604248	Good	Good	
61	SPO_NO0076A_5_46	Kannik	Norway	traffic	58.9642	5.7279	European Envioronmental Agency (EEA)	2026-03-01	3.003194	8.983007431030273	9.27973747253418	Good	Good	
62	SPO_NO0125A_5_3017	Schancheholen	Norway	traffic	58.9519	5.7219	European Envioronmental Agency (EEA)	2026-03-01	4.0411660000000005	10.144852638244629	10.439111709594727	Good	Good	
63	SPO_NO0074A_5_539	Bankplassen	Norway	traffic	61.1129	10.4649	European Envioronmental Agency (EEA)	2026-03-01	14.910000000000002	3.0701520442962646	4.35866117477417	Good	Good	
64	SPO_NO0075A_5_544	Lillehammer barnehage	Norway	background	61.1209	10.4656	European Envioronmental Agency (EEA)	2026-03-01	14.173055000000002	7.665791988372803	7.863040924072266	Good	Good	
65	SPO_NO0079A_5_392	Hansjordnesbukta	Norway	traffic	69.6562	18.9637	European Envioronmental Agency (EEA)	2026-03-01	7.775166	9.553959846496582	8.036699295043945	Good	Good	
66	SPO_NO0124A_5_2957	Rambergan	Norway	background	69.6543	18.9564	European Envioronmental Agency (EEA)	2026-03-01	5.883166	13.37228775024414	11.94418716430664	Good	Good	
67	SPO_NO0084A_5_967	St.Croix	Norway	traffic	59.2103	10.9454	European Envioronmental Agency (EEA)	2026-03-01	3.007725	1.9091771841049194	6.45552396774292	Good	Good	
68	SPO_NO0114A_5_2325	Bekkestua	Norway	background	59.9182	10.5839	European Envioronmental Agency (EEA)	2026-03-01	5.800000000000001	10.122843742370605	10.836363792419434	Good	Good	
69	SPO_NO0110A_5_2064	Alvim	Norway	traffic	59.2738	11.0892	European Envioronmental Agency (EEA)	2026-03-01	3.4702770000000003	3.80318546295166	5.88105583190918	Good	Good	
70	SPO_NO0112A_5_1221	Kransen	Norway	traffic	59.4335	10.6618	European Envioronmental Agency (EEA)	2026-03-01	4.067312	2.861624002456665	5.428305625915527	Good	Good	
71	SPO_NO0119A_5_2701	Leiret	Norway	traffic	60.8836	11.5593	European Envioronmental Agency (EEA)	2026-03-01	2.5828610000000003	4.848374366760254	6.138941764831543	Good	Good	
72	SPO_NO0128A_5_2972	Nedre Langgate	Norway	traffic	59.2637	10.4112	European Envioronmental Agency (EEA)	2026-03-01	4.607255	-2.417968511581421	2.0446369647979736	Good	Good	
73	SPO_NO0129A_5_2950	Solheim	Norway	traffic	59.9286	10.9532	European Envioronmental Agency (EEA)	2026-03-01	3.140972	4.993902206420898	6.923377513885498	Good	Good	
74	SPO_NO0127A_5_2964	Seljestad Rv83	Norway	traffic	68.7922	16.5374	European Envioronmental Agency (EEA)	2026-03-01	1.321944	14.28260326385498	11.87104320526123	Good	Good	
75	SPO_NO0130A_5_3000	Ringsakervegen	Norway	traffic	60.8859	10.9379	European Envioronmental Agency (EEA)	2026-03-01	8.9	6.20098352432251	9.758986473083496	Good	Good	
76	SPO-SE0001A_00005_100	Malmö Rådhuset	Sweden	background	55.6064	13.002	European Envioronmental Agency (EEA)	2026-03-01	8.169166666666667	13.34990406036377	14.038396835327148	Good	Good	
77	SPO-SE0058A_00005_100	Malmö Dalaplan	Sweden	traffic	55.5847	13.0062	European Envioronmental Agency (EEA)	2026-03-01	11.491666666666667	15.1217041015625	15.972973823547363	Good	Good	
78	SPO-SE0085A_00005_101	Helsingborg Drottninggatan	Sweden	traffic	56.0472	12.6916	European Envioronmental Agency (EEA)	2026-03-01	10.707833333333335	15.151265144348145	15.314138412475586	Good	Good	
79	SPO-SE38350_00005_100	Lund Trollebergsvägen	Sweden	traffic	55.7033	13.1803	European Envioronmental Agency (EEA)	2026-03-01	9.599166666666667	14.84812068939209	14.936759948730469	Good	Good	
80	SPO-SE344172_00005_100	Västerås Stora Gatan 78	Sweden	traffic	59.6077	16.5359	European Envioronmental Agency (EEA)	2026-03-01	5.379	-11.020241737365723	-2.878659725189209	Good	Good	
81	SPO-SE0003A_00005_100	Stockholm Hornsgatan 108 Gata	Sweden	traffic	59.3172	18.0487	European Envioronmental Agency (EEA)	2026-03-01	3.7456658333333337	0.2516521215438843	5.175507068634033	Good	Good	
82	SPO-SE0022A_00005_100	Stockholm Torkel Knutssongatan	Sweden	background	59.316	18.0578	European Envioronmental Agency (EEA)	2026-03-01	3.2046978749999995	3.5131168365478516	5.493382453918457	Good	Good	
83	SPO-SE0027A_00005_100	Stockholm Sveavägen 59 Gata	Sweden	traffic	59.3408	18.0583	European Envioronmental Agency (EEA)	2026-03-01	4.259730857142857	1.7134227752685547	5.550459384918213	Good	Good	
84	SPO-SE0066A_00005_100	Norr Malma	Sweden	background	59.8324	18.6313	European Envioronmental Agency (EEA)	2026-03-01	3.2684678750000002	4.245438575744629	5.299010276794434	Good	Good	
85	SPO-SE0071A_00005_100	Sollentuna E4 Häggvik	Sweden	traffic	59.4435	17.9224	European Envioronmental Agency (EEA)	2026-03-01	5.0827358333333335	2.5280351638793945	5.445398330688477	Good	Good	
86	SPO-SE0072A_00005_100	Södertälje Turingegatan 26	Sweden	traffic	59.1981	17.6211	European Envioronmental Agency (EEA)	2026-03-01	2.34396575	-3.7377536296844482	0.3449498414993286	Good	Good	
87	SPO-SE0117A_00005_101	Visby Österväg 17	Sweden	traffic	57.6369	18.3036	European Envioronmental Agency (EEA)	2026-03-01	18.186812333333336	15.565422058105469	15.39259147644043	Good	Good	
88	SPO-SE156417_00005_100	Uppsala Kungsgatan 67	Sweden	traffic	59.8571	17.6463	European Envioronmental Agency (EEA)	2026-03-01	3.288674166666667	1.6908421516418457	5.422461032867432	Good	Good	
89	SPO-SE157992_00005_100	Stockholm St Eriksgatan 83	Sweden	traffic	59.3405	18.037	European Envioronmental Agency (EEA)	2026-03-01	3.9140333333333337	-1.265674114227295	3.8444509506225586	Good	Good	
90	SPO-SE159402_00005_100	Sollentuna Danderydsvägen	Sweden	traffic	59.4459	17.955	European Envioronmental Agency (EEA)	2026-03-01	2.17910825	-5.129932880401611	0.06290954351425171	Good	Good	
91	SPO-SE159404_00005_100	Uppsala Dragarbrunnsgatan 23 tak	Sweden	background	59.8605	17.6376	European Envioronmental Agency (EEA)	2026-03-01	3.3088512083333335	4.6580071449279785	5.824012279510498	Good	Good	
92	SPO-SE274652_00005_100	Sollentuna Sollentunavägen 192	Sweden	traffic	59.4336	17.9497	European Envioronmental Agency (EEA)	2026-03-01	3.2195637083333337	-0.8663609027862549	3.3690271377563477	Good	Good	
93	SPO-SE301111_00005_100	Norrköping Kungsgatan 32	Sweden	traffic	58.5915	16.1779	European Envioronmental Agency (EEA)	2026-03-01	4.939595791666667	2.8219573497772217	7.532470226287842	Good	Good	
94	SPO-SE301113_00005_100	Norrköping Trädgårdsgatan 21	Sweden	background	58.592	16.1893	European Envioronmental Agency (EEA)	2026-03-01	4.373021666666667	3.7096168994903564	5.818915843963623	Good	Good	
95	SPO-SE301757_00005_100	Sundbyberg Tulegatan 9	Sweden	traffic	59.3643	17.9763	European Envioronmental Agency (EEA)	2026-03-01	3.7246187083333333	-1.915388584136963	2.564422607421875	Good	Good	
96	SPO-SE313381_00005_100	Visby Brömsebroväg 8	Sweden	background	57.6399	18.3097	European Envioronmental Agency (EEA)	2026-03-01	7.805783333333333	9.786015510559082	9.467373847961426	Good	Good	
97	SPO-SE338683_00005_100	Gävle Staketgatan 22	Sweden	traffic	60.6762	17.1376	European Envioronmental Agency (EEA)	2026-03-01	1.891735	-1.923047661781311	4.827359199523926	Good	Good	
98	SPO-SE338685_00005_100	Linköping Hamngatan 10	Sweden	traffic	58.4124	15.6301	European Envioronmental Agency (EEA)	2026-03-01	5.728732416666666	-1.9867912530899048	5.0733962059021	Good	Good	
99	SPO-SE37479_00005_100	Sollentuna Ekmans Väg 11	Sweden	traffic	59.489	17.9199	European Envioronmental Agency (EEA)	2026-03-01	5.884337416666667	4.126100540161133	6.78452205657959	Good	Good	
100	SPO-SE0004A_00005_100	Göteborg Femman	Sweden	background	57.709	11.9702	European Envioronmental Agency (EEA)	2026-03-01	10.504692083333333	11.565261840820312	13.163802146911621	Good	Good	
101	SPO-SE0005R_00005_101	Bredkälen	Sweden	background	63.8455	15.3197	European Envioronmental Agency (EEA)	2026-03-01	1.7291666666666667	1.9333924055099487	1.321728229522705	Good	Good	
102	SPO-SE0014R_00005_100	Råö	Sweden	background	57.3936	11.9142	European Envioronmental Agency (EEA)	2026-03-01	14.445833333333335	13.166958808898926	14.114836692810059	Good	Good	
103	SPO-SE159388_00005_101	Norunda Stenen	Sweden	background	60.0858	17.5053	European Envioronmental Agency (EEA)	2026-03-01	3.161	1.976891040802002	3.5721547603607178	Good	Good	
104	SPO-SE0021A_00005_100	Göteborg Gårda	Sweden	traffic	57.7009	11.9946	European Envioronmental Agency (EEA)	2026-03-01	18.561904761904763	12.981173515319824	17.960918426513672	Good	Good	
105	SPO-SE0067A_00005_100	Göteborg Haga	Sweden	traffic	57.6979	11.9605	European Envioronmental Agency (EEA)	2026-03-01	10.574897499999999	12.83270263671875	15.083715438842773	Good	Good	
106	SPO-SE274590_00005_100	Göteborg Övre Husargatan	Sweden	traffic	57.6937	11.9568	European Envioronmental Agency (EEA)	2026-03-01	12.000796666666668	10.880537986755371	14.05373764038086	Good	Good	
107	SPO-SE165095_00005_100	Hedemora Gussarvsgatan	Sweden	traffic	60.2814	15.9891	European Envioronmental Agency (EEA)	2026-03-01	2.9033124999999997	2.016505718231201	5.743913650512695	Good	Good	
108	SPO-SE0095A_00005_100	Sundsvall Köpmangatan	Sweden	traffic	62.3886	17.3089	European Envioronmental Agency (EEA)	2026-03-01	4.441291666666667	-3.5909881591796875	-0.7029873132705688	Good	Good	
109	SPO-SE09569_00005_100	Sundsvall Bergsgatan	Sweden	traffic	62.3865	17.3032	European Envioronmental Agency (EEA)	2026-03-01	7.365291666666667	-3.2729415893554688	-0.37399590015411377	Good	Good	
110	SPO-SE313140_00005_100	Örnsköldsvik Centralesplanaden - Nygatan 24	Sweden	traffic	63.2918	18.7175	European Envioronmental Agency (EEA)	2026-03-01	6.4913043478260875	8.765341758728027	8.107000350952148	Good	Good	
111	SPO-SE181002_00005_100	Växjö Liedbergsgatan 11	Sweden	traffic	56.8799	14.7993	European Envioronmental Agency (EEA)	2026-03-01	6.133333333333333	9.189669609069824	9.08311939239502	Good	Good	
112	SPO-SE32288_00005_100	Karlskrona N Smedjegatan Ö Köpmansgatan	Sweden	traffic	56.164	15.5889	European Envioronmental Agency (EEA)	2026-03-01	7.104347826086957	10.650053977966309	10.834603309631348	Good	Good	
113	SPO-SE181993_00005_100	Kalmar Södra Vägen	Sweden	traffic	56.6642	16.3336	European Envioronmental Agency (EEA)	2026-03-01	7.052173913043478	15.544068336486816	16.301132202148438	Good	Good	
114	SPO-SE181259_00005_100	Östersund Rådhusgatan	Sweden	traffic	63.1739	14.6411	European Envioronmental Agency (EEA)	2026-03-01	4.808695652173913	0.8918852806091309	-14.842658996582031	Good	Good	
115	SPO-SE0059A_00005_100	Umeå Västra Esplanaden	Sweden	traffic	63.8289	20.2585	European Envioronmental Agency (EEA)	2026-03-01	5.033333333333334	2.174229860305786	2.9033923149108887	Good	Good	
116	SPO-SE274953_00005_100	Skellefteå Kv Pantern	Sweden	traffic	64.7495	20.9601	European Envioronmental Agency (EEA)	2026-03-01	4.681225	-3.6603221893310547	-2.22707200050354	Good	Good	
117	FI_5_101983	Muonio Sammaltunturi	Finland		67.97	24.12	Finnish Meteorological Institute (FMI)	2026-03-01	2.454166666666667	3.265566825866699	3.716942548751831	Good	Good	
