	Station Code	Station Name	Country	Station type	Latitude	Longitude	Network	Date	PM10 measured concentration (microg/m^3)	PM10 today forecast mean concentration (microg/m^3)	PM10 tomorrow forecast mean concentration (microg/m^3)	Today air quality	Tomorrow air quality	Actions
0	SPO-DK0034A_00005_100	Copenhagen/1103	Denmark	traffic	55.6743	12.5711	European Envioronmental Agency (EEA)	2026-05-07		50.95659255981445	46.0406608581543	Unhealthy	Unhealthy	
1	SPO-DK0012R_00005_101	Risoe	Denmark	background	55.6942	12.0889	European Envioronmental Agency (EEA)	2026-05-07		17.861562728881836	17.743953704833984	Good	Good	
2	SPO-FI00570_00005_100	Raahen keskusta 2	Finland	traffic	64.6834	24.4816	European Envioronmental Agency (EEA)	2026-05-07	9.273275875	2.267274856567383	4.628152847290039	Good	Good	
3	SPO-FI00349_00005_100	Utö	Finland	background	59.7792	21.374	European Envioronmental Agency (EEA)	2026-05-07	3.660078083333334	1.8749817609786987	2.93930721282959	Good	Good	
4	SPO-FI00427_00005_100	Matorova	Finland	background	68.0005	24.2457	European Envioronmental Agency (EEA)	2026-05-07	1.9414207083333332	2.7610867023468018	2.6236743927001953	Good	Good	
5	SPO-FI00549_00005_100	Pirkankatu	Finland	traffic	61.4987	23.7357	European Envioronmental Agency (EEA)	2026-05-07	10.535904541666667	2.6433660984039307	4.69602108001709	Good	Good	
6	SPO-FI00838_00005_100	Epila 2	Finland	traffic	61.5085	23.6758	European Envioronmental Agency (EEA)	2026-05-07	13.631074500000002	4.853598117828369	4.828934192657471	Good	Good	
7	SPO-FI00208_00005_101	Luukki	Finland	background	60.3144	24.6849	European Envioronmental Agency (EEA)	2026-05-07	6.569353875	3.0893678665161133	3.6795382499694824	Good	Good	
8	SPO-FI00370_00005_100	Tikkurila 3	Finland	traffic	60.2899	25.0395	European Envioronmental Agency (EEA)	2026-05-07	12.467084291666666	9.704333305358887	10.307531356811523	Good	Good	
9	SPO-FI00425_00005_100	Kallio 2	Finland	background	60.1874	24.9506	European Envioronmental Agency (EEA)	2026-05-07	10.596281416666665	6.954639434814453	7.057980060577393	Good	Good	
10	SPO-FI00564_00005_100	Mannerheimintie	Finland	traffic	60.1696	24.9392	European Envioronmental Agency (EEA)	2026-05-07	21.20850041666667	11.725051879882812	11.784912109375	Good	Good	
11	SPO-FI00781_00005_100	Vartiokylä Huivipolku	Finland	background	60.2239	25.1024	European Envioronmental Agency (EEA)	2026-05-07	9.154412125	6.359743595123291	6.871106147766113	Good	Good	
12	SPO-FI00841_00005_100	Leppävaara 4	Finland	traffic	60.2202	24.8113	European Envioronmental Agency (EEA)	2026-05-07	13.388367958333335	6.065549850463867	7.898077964782715	Good	Good	
13	SPO-FI00301_00005_100	Pyykösjärvi	Finland	background	65.0434	25.4979	European Envioronmental Agency (EEA)	2026-05-07	8.534056416666667	6.15497350692749	5.988880157470703	Good	Good	
14	SPO-FI00446_00005_100	Oulun keskusta 2	Finland	traffic	65.01	25.4713	European Envioronmental Agency (EEA)	2026-05-07	13.735924041666669	6.559398651123047	6.770646572113037	Good	Good	
15	SPO-FI00952_00005_100	Jyväskylä Hannikaisenkatu	Finland	traffic	62.2382	25.7479	European Envioronmental Agency (EEA)	2026-05-07	12.599490416666669	7.365165710449219	6.40269136428833	Good	Good	
16	SPO-FI00455_00005_100	Laune	Finland	traffic	60.967	25.6549	European Envioronmental Agency (EEA)	2026-05-07	14.619701500000001	6.21539306640625	7.1829514503479	Good	Good	
17	SPO-FI00889_00005_100	Saimaankatu	Finland	traffic	60.9913	25.6658	European Envioronmental Agency (EEA)	2026-05-07	8.812694142857143	3.779729127883911	4.903505802154541	Good	Good	
18	SPO-FI00444_00005_100	Naantalin keskusta	Finland	traffic	60.4674	22.0284	European Envioronmental Agency (EEA)	2026-05-07	11.219530391304348	2.4497649669647217	3.8092312812805176	Good	Good	
19	SPO-FI00558_00005_100	Maaherrankatu	Finland	traffic	62.8933	27.6869	European Envioronmental Agency (EEA)	2026-05-07	6.535607583333334	2.9966468811035156	4.2538042068481445	Good	Good	
20	SPO-FI00839_00005_100	Tasavallankatu	Finland	traffic	62.882	27.6619	European Envioronmental Agency (EEA)	2026-05-07	13.286336375	5.101612567901611	6.506405353546143	Good	Good	
21	SPO-FI00928_00005_100	Pori Paanakedonkatu	Finland	traffic	61.4823	21.8133	European Envioronmental Agency (EEA)	2026-05-07	9.509580708333333	4.892458438873291	6.2810444831848145	Good	Good	
22	SPO-FI00424_00005_100	Mansikkala	Finland	traffic	61.1889	28.7701	European Envioronmental Agency (EEA)	2026-05-07	8.723276260869566	6.245885848999023	6.617386341094971	Good	Good	
23	SPO-FI00433_00005_100	Teppanala	Finland	industrial	61.153	28.8101	European Envioronmental Agency (EEA)	2026-05-07	7.370775708333333	5.715153217315674	6.101086616516113	Good	Good	
24	SPO-FI00606_00005_100	Lappeenrannan keskusta 4	Finland	traffic	61.0558	28.1843	European Envioronmental Agency (EEA)	2026-05-07	9.351980666666668	3.6832754611968994	4.2859787940979	Good	Good	
25	SPO-FI00972_00005_100	Lohja Harjula	Finland	background	60.249	24.0695	European Envioronmental Agency (EEA)	2026-05-07	10.424982208333333	6.1261677742004395	7.157155513763428	Good	Good	
26	SPO-FI00892_00005_100	Kankaan Koulu	Finland	traffic	60.8704	26.701	European Envioronmental Agency (EEA)	2026-05-07	12.118469249999999	6.608152866363525	7.60539436340332	Good	Good	
27	SPO-FI00179_00005_100	Pirkkala	Finland	industrial	61.3316	22.1431	European Envioronmental Agency (EEA)	2026-05-07	6.1076915000000005	4.059330463409424	4.679482460021973	Good	Good	
28	SPO-FI00184_00005_100	Kaleva	Finland	industrial	61.3135	22.135	European Envioronmental Agency (EEA)	2026-05-07	9.55126175	6.120378494262695	6.472867012023926	Good	Good	
29	SPO-FI00397_00005_100	Bottenviksvägen	Finland	traffic	63.6791	22.7184	European Envioronmental Agency (EEA)	2026-05-07	7.500291666666667	-4.112514972686768	-1.6468971967697144	Good	Good	
30	SPO-IS0005A_00005_103	Reykjavik Grensas	Iceland	traffic	64.1301	-21.8747	European Envioronmental Agency (EEA)	2026-05-07	13.363095833333334	25.17946434020996	25.096912384033203	Moderate	Moderate	
31	SPO-IS0052A_00005_100	Akureyri Strandgata (við Hof)	Iceland	traffic	65.6841	-18.0882	European Envioronmental Agency (EEA)	2026-05-07	6.434782608695652	10.994000434875488	18.91994285583496	Good	Good	
32	SPO-IS0025A_00005_100	Grundartangi Kríuvarða	Iceland	industrial	64.3736	-21.7591	European Envioronmental Agency (EEA)	2026-05-07	6.6869625	7.437089920043945	7.421847343444824	Good	Good	
33	SPO-IS0041A_00005_100	Grundartangi Gröf	Iceland	industrial	64.3342	-21.8357	European Envioronmental Agency (EEA)	2026-05-07	3.5538958333333333	4.576615810394287	4.6201934814453125	Good	Good	
34	SPO-IS0037A_00005_100	Kópavogur Dalsmári	Iceland	background	64.105	-21.889	European Envioronmental Agency (EEA)	2026-05-07	6.947720833333334	10.994895935058594	11.58753490447998	Good	Good	
35	SPO-IS0046A_00005_101	Hafnarfjörður Norðurhella	Iceland	background	64.0442	-21.9854	European Envioronmental Agency (EEA)	2026-05-07		8.099254608154297	8.326997756958008	Good	Good	
36	SPO-IS0049A_00005_100	PCC norður	Iceland	industrial	66.0793	-17.3422	European Envioronmental Agency (EEA)	2026-05-07		2.782879590988159	4.083111763000488	Good	Good	
37	SPO-IS0050A_00005_100	PCC suður	Iceland	industrial	66.0549	-17.3476	European Envioronmental Agency (EEA)	2026-05-07		6.853732585906982	8.504776000976562	Good	Good	
38	SPO_NO0093A_5_1039	Hjortnes	Norway	traffic	59.9113	10.704	European Envioronmental Agency (EEA)	2026-05-07	24.754583333333333	20.273889541625977	22.450048446655273	Good	Good	
39	SPO_NO0095A_5_934	Smestad	Norway	traffic	59.9325	10.6699	European Envioronmental Agency (EEA)	2026-05-07	21.57718216666667	13.659591674804688	18.410511016845703	Good	Good	
40	SPO_NO0122A_5_2945	E6 Alna senter	Norway	traffic	59.9256	10.8504	European Envioronmental Agency (EEA)	2026-05-07	32.258404041666665	19.576475143432617	20.935871124267578	Good	Good	
41	SPO_NO0011A_5_19	Kirkeveien	Norway	traffic	59.9323	10.7245	European Envioronmental Agency (EEA)	2026-05-07	10.959904750000002	7.86070442199707	11.856341361999512	Good	Good	
42	SPO_NO0057A_5_41	Alnabru	Norway	traffic	59.9277	10.8466	European Envioronmental Agency (EEA)	2026-05-07	18.62427225	17.172494888305664	18.47435188293457	Good	Good	
43	SPO_NO0072A_5_352	Skøyen	Norway	background	59.9197	10.6897	European Envioronmental Agency (EEA)	2026-05-07	12.318667083333333	8.397244453430176	11.110237121582031	Good	Good	
44	SPO_NO0073A_5_552	Sofienbergparken	Norway	background	59.923	10.7657	European Envioronmental Agency (EEA)	2026-05-07	9.854778208333332	8.632067680358887	10.2505464553833	Good	Good	
45	SPO_NO0083A_5_793	Bygdøy Alle	Norway	traffic	59.9193	10.6965	European Envioronmental Agency (EEA)	2026-05-07	12.695833333333333	10.968480110168457	15.24213695526123	Good	Good	
46	SPO_NO0140A_5_3171	Spikersuppa	Norway	background	59.9141	10.736	European Envioronmental Agency (EEA)	2026-05-07	9.150918833333334	8.281105041503906	9.574618339538574	Good	Good	
47	SPO_NO0059A_5_11	Danmarks plass	Norway	traffic	60.3741	5.3404	European Envioronmental Agency (EEA)	2026-05-07	10.307925958333334	9.64568042755127	9.292120933532715	Good	Good	
48	SPO_NO0108A_5_2071	Rolland Åsane	Norway	background	60.4627	5.3324	European Envioronmental Agency (EEA)	2026-05-07	4.454368125	5.277190685272217	5.107117176055908	Good	Good	
49	SPO_NO0109A_5_2067	Loddefjord	Norway	traffic	60.3611	5.2369	European Envioronmental Agency (EEA)	2026-05-07	8.624735833333334	8.402847290039062	7.923403739929199	Good	Good	
50	SPO_NO0120A_5_2902	Klosterhaugen	Norway	background	60.3959	5.3127	European Envioronmental Agency (EEA)	2026-05-07	5.259661666666667	5.512068271636963	5.402134418487549	Good	Good	
51	SPO_NO0121A_5_2888	Rådal	Norway	traffic	60.2943	5.3246	European Envioronmental Agency (EEA)	2026-05-07	11.513512666666665	5.902008056640625	6.374279022216797	Good	Good	
52	SPO_NO0135A_5_3126	Backeparken	Norway	background	59.7495	10.1653	European Envioronmental Agency (EEA)	2026-05-07	6.39095425	-3.459803581237793	3.229600667953491	Good	Good	
53	SPO_NO0136A_5_3124	Vårveien	Norway	traffic	59.7536	10.1444	European Envioronmental Agency (EEA)	2026-05-07	12.710297250000002	8.648622512817383	11.115396499633789	Good	Good	
54	SPO_NO0060A_5_1685	Elgeseter	Norway	traffic	63.4174	10.3968	European Envioronmental Agency (EEA)	2026-05-07	31.752779875000005	26.476099014282227	27.107763290405273	Moderate	Moderate	
55	SPO_NO0102A_5_1530	E6-Tiller	Norway	traffic	63.3576	10.3717	European Envioronmental Agency (EEA)	2026-05-07	23.240060083333333	19.85980224609375	17.936241149902344	Good	Good	
56	SPO_NO0106A_5_1231	Sverresgate	Norway	traffic	59.1382	9.6522	European Envioronmental Agency (EEA)	2026-05-07	11.215416666666668	8.356743812561035	11.056114196777344	Good	Good	
57	SPO_NO0115A_5_2473	Furulund	Norway	industrial	59.0573	9.6956	European Envioronmental Agency (EEA)	2026-05-07	9.568175250000001	10.838919639587402	11.8384370803833	Good	Good	
58	SPO_NO0118A_5_2723	Knarrdalstranda	Norway	background	59.1335	9.6219	European Envioronmental Agency (EEA)	2026-05-07	22.681348125	9.041563987731934	12.103950500488281	Good	Good	
59	SPO_NO0063A_5_192	Stener Heyerdahl	Norway	background	58.1489	7.9918	European Envioronmental Agency (EEA)	2026-05-07	3.3880040416666666	7.124368190765381	8.787018775939941	Good	Good	
60	SPO_NO0065A_5_52	Våland	Norway	background	58.9616	5.7314	European Envioronmental Agency (EEA)	2026-05-07	8.85994525	10.994549751281738	12.80126953125	Good	Good	
61	SPO_NO0076A_5_46	Kannik	Norway	traffic	58.9642	5.7279	European Envioronmental Agency (EEA)	2026-05-07	4.9371242083333335	8.048568725585938	9.224331855773926	Good	Good	
62	SPO_NO0125A_5_3017	Schancheholen	Norway	traffic	58.9519	5.7219	European Envioronmental Agency (EEA)	2026-05-07	6.0913915	10.15921688079834	11.378767013549805	Good	Good	
63	SPO_NO0074A_5_539	Bankplassen	Norway	traffic	61.1129	10.4649	European Envioronmental Agency (EEA)	2026-05-07	29.905332333333337	15.789488792419434	16.693891525268555	Good	Good	
64	SPO_NO0075A_5_544	Lillehammer barnehage	Norway	background	61.1209	10.4656	European Envioronmental Agency (EEA)	2026-05-07	10.983387458333333	7.445632457733154	8.436196327209473	Good	Good	
65	SPO_NO0079A_5_392	Hansjordnesbukta	Norway	traffic	69.6562	18.9637	European Envioronmental Agency (EEA)	2026-05-07	41.2055825	24.47039222717285	23.758220672607422	Good	Good	
66	SPO_NO0124A_5_2957	Rambergan	Norway	background	69.6543	18.9564	European Envioronmental Agency (EEA)	2026-05-07	19.186902416666666	19.355501174926758	18.113815307617188	Good	Good	
67	SPO_NO0084A_5_967	St.Croix	Norway	traffic	59.2103	10.9454	European Envioronmental Agency (EEA)	2026-05-07	7.7518892500000005	6.532411098480225	8.917210578918457	Good	Good	
68	SPO_NO0114A_5_2325	Bekkestua	Norway	background	59.9182	10.5839	European Envioronmental Agency (EEA)	2026-05-07	35.8375	7.943656921386719	11.187933921813965	Good	Good	
69	SPO_NO0110A_5_2064	Alvim	Norway	traffic	59.2738	11.0892	European Envioronmental Agency (EEA)	2026-05-07	11.447526166666668	9.558785438537598	9.196333885192871	Good	Good	
70	SPO_NO0112A_5_1221	Kransen	Norway	traffic	59.4335	10.6618	European Envioronmental Agency (EEA)	2026-05-07	6.650541333333334	10.937827110290527	13.808823585510254	Good	Good	
71	SPO_NO0119A_5_2701	Leiret	Norway	traffic	60.8836	11.5593	European Envioronmental Agency (EEA)	2026-05-07	48.28510887500001	15.69347858428955	15.11975383758545	Good	Good	
72	SPO_NO0128A_5_2972	Nedre Langgate	Norway	traffic	59.2637	10.4112	European Envioronmental Agency (EEA)	2026-05-07	9.983273375	3.917198896408081	8.187929153442383	Good	Good	
73	SPO_NO0129A_5_2950	Solheim	Norway	traffic	59.9286	10.9532	European Envioronmental Agency (EEA)	2026-05-07	34.041667708333335	19.957550048828125	20.85195541381836	Good	Good	
74	SPO_NO0127A_5_2964	Seljestad Rv83	Norway	traffic	68.7922	16.5374	European Envioronmental Agency (EEA)	2026-05-07	9.346442	16.11785125732422	14.824767112731934	Good	Good	
75	SPO_NO0130A_5_3000	Ringsakervegen	Norway	traffic	60.8859	10.9379	European Envioronmental Agency (EEA)	2026-05-07	10.441666666666668	8.08092212677002	11.761672019958496	Good	Good	
76	SPO-SE0001A_00005_100	Malmö Rådhuset	Sweden	background	55.6064	13.002	European Envioronmental Agency (EEA)	2026-05-07	8.57	11.718360900878906	11.146668434143066	Good	Good	
77	SPO-SE0058A_00005_100	Malmö Dalaplan	Sweden	traffic	55.5847	13.0062	European Envioronmental Agency (EEA)	2026-05-07	8.38	13.084511756896973	12.308566093444824	Good	Good	
78	SPO-SE0085A_00005_101	Helsingborg Drottninggatan	Sweden	traffic	56.0472	12.6916	European Envioronmental Agency (EEA)	2026-05-07	12.202875	15.377334594726562	14.63735580444336	Good	Good	
79	SPO-SE38350_00005_100	Lund Trollebergsvägen	Sweden	traffic	55.7033	13.1803	European Envioronmental Agency (EEA)	2026-05-07	8.51	8.607250213623047	8.491954803466797	Good	Good	
80	SPO-SE344172_00005_100	Västerås Stora Gatan 78	Sweden	traffic	59.6077	16.5359	European Envioronmental Agency (EEA)	2026-05-07	14.443583333333335	2.2067437171936035	-0.1303592324256897	Good	Good	
81	SPO-SE0003A_00005_100	Stockholm Hornsgatan 108 Gata	Sweden	traffic	59.3172	18.0487	European Envioronmental Agency (EEA)	2026-05-07	24.306845749999997	14.659647941589355	13.682339668273926	Good	Good	
82	SPO-SE0022A_00005_100	Stockholm Torkel Knutssongatan	Sweden	background	59.316	18.0578	European Envioronmental Agency (EEA)	2026-05-07	5.103970833333334	3.1834208965301514	3.3716039657592773	Good	Good	
83	SPO-SE0027A_00005_100	Stockholm Sveavägen 59 Gata	Sweden	traffic	59.3408	18.0583	European Envioronmental Agency (EEA)	2026-05-07	17.304541583333336	14.71488094329834	13.963518142700195	Good	Good	
84	SPO-SE0066A_00005_100	Norr Malma	Sweden	background	59.8324	18.6313	European Envioronmental Agency (EEA)	2026-05-07	3.4889262083333334	2.3515799045562744	2.916203737258911	Good	Good	
85	SPO-SE0071A_00005_100	Sollentuna E4 Häggvik	Sweden	traffic	59.4435	17.9224	European Envioronmental Agency (EEA)	2026-05-07	14.20807075	7.9045867919921875	7.870540618896484	Good	Good	
86	SPO-SE0072A_00005_100	Södertälje Turingegatan 26	Sweden	traffic	59.1981	17.6211	European Envioronmental Agency (EEA)	2026-05-07	13.164979166666669	8.465631484985352	8.080950736999512	Good	Good	
87	SPO-SE0087A_00005_100	Stockholm E4/E20 Lilla Essingen	Sweden	traffic	59.3255	18.0044	European Envioronmental Agency (EEA)	2026-05-07	20.496620625	26.083694458007812	23.862401962280273	Moderate	Good	
88	SPO-SE0117A_00005_101	Visby Österväg 17	Sweden	traffic	57.6369	18.3036	European Envioronmental Agency (EEA)	2026-05-07	8.622050000000002	2.5376737117767334	7.762637615203857	Good	Good	
89	SPO-SE156417_00005_100	Uppsala Kungsgatan 67	Sweden	traffic	59.8571	17.6463	European Envioronmental Agency (EEA)	2026-05-07	19.043958208333336	18.36014747619629	17.476842880249023	Good	Good	
90	SPO-SE157992_00005_100	Stockholm St Eriksgatan 83	Sweden	traffic	59.3405	18.037	European Envioronmental Agency (EEA)	2026-05-07	14.906949875	9.124499320983887	8.520925521850586	Good	Good	
91	SPO-SE159402_00005_100	Sollentuna Danderydsvägen	Sweden	traffic	59.4459	17.955	European Envioronmental Agency (EEA)	2026-05-07	17.80109579166667	7.7856574058532715	7.785309314727783	Good	Good	
92	SPO-SE159404_00005_100	Uppsala Dragarbrunnsgatan 23 tak	Sweden	background	59.8605	17.6376	European Envioronmental Agency (EEA)	2026-05-07	6.670779083333334	5.548622131347656	5.680760860443115	Good	Good	
93	SPO-SE274652_00005_100	Sollentuna Sollentunavägen 192	Sweden	traffic	59.4336	17.9497	European Envioronmental Agency (EEA)	2026-05-07	19.421391625000002	10.238473892211914	10.264728546142578	Good	Good	
94	SPO-SE301111_00005_100	Norrköping Kungsgatan 32	Sweden	traffic	58.5915	16.1779	European Envioronmental Agency (EEA)	2026-05-07	8.058499958333334	6.439762592315674	7.347339630126953	Good	Good	
95	SPO-SE301113_00005_100	Norrköping Trädgårdsgatan 21	Sweden	background	58.592	16.1893	European Envioronmental Agency (EEA)	2026-05-07	5.0448625	4.860861778259277	5.360791206359863	Good	Good	
96	SPO-SE301757_00005_100	Sundbyberg Tulegatan 9	Sweden	traffic	59.3643	17.9763	European Envioronmental Agency (EEA)	2026-05-07	18.115908166666667	7.813439846038818	9.15317153930664	Good	Good	
97	SPO-SE313381_00005_100	Visby Brömsebroväg 8	Sweden	background	57.6399	18.3097	European Envioronmental Agency (EEA)	2026-05-07	5.266345833333333	4.361425876617432	5.735955715179443	Good	Good	
98	SPO-SE338683_00005_100	Gävle Staketgatan 22	Sweden	traffic	60.6762	17.1376	European Envioronmental Agency (EEA)	2026-05-07	26.379037333333333	15.296844482421875	12.306302070617676	Good	Good	
99	SPO-SE338685_00005_100	Linköping Hamngatan 10	Sweden	traffic	58.4124	15.6301	European Envioronmental Agency (EEA)	2026-05-07	13.346966541666665	5.7039031982421875	5.634016036987305	Good	Good	
100	SPO-SE37479_00005_100	Sollentuna Ekmans Väg 11	Sweden	traffic	59.489	17.9199	European Envioronmental Agency (EEA)	2026-05-07	11.871049958333332	7.693264007568359	7.824453830718994	Good	Good	
101	SPO-SE0004A_00005_100	Göteborg Femman	Sweden	background	57.709	11.9702	European Envioronmental Agency (EEA)	2026-05-07	9.776975	10.583968162536621	11.332539558410645	Good	Good	
102	SPO-SE0005R_00005_101	Bredkälen	Sweden	background	63.8455	15.3197	European Envioronmental Agency (EEA)	2026-05-07	0.5125000000000001	-0.09473716467618942	0.14006955921649933	Good	Good	
103	SPO-SE0014R_00005_100	Råö	Sweden	background	57.3936	11.9142	European Envioronmental Agency (EEA)	2026-05-07	2.591666666666667	8.362998962402344	9.636246681213379	Good	Good	
104	SPO-SE159388_00005_101	Norunda Stenen	Sweden	background	60.0858	17.5053	European Envioronmental Agency (EEA)	2026-05-07	4.392269521739131	3.4986045360565186	3.5378689765930176	Good	Good	
105	SPO-SE0021A_00005_100	Göteborg Gårda	Sweden	traffic	57.7009	11.9946	European Envioronmental Agency (EEA)	2026-05-07	13.137500000000001	15.408064842224121	17.618267059326172	Good	Good	
106	SPO-SE0067A_00005_100	Göteborg Haga	Sweden	traffic	57.6979	11.9605	European Envioronmental Agency (EEA)	2026-05-07	16.0028125	17.665956497192383	17.781034469604492	Good	Good	
107	SPO-SE274590_00005_100	Göteborg Övre Husargatan	Sweden	traffic	57.6937	11.9568	European Envioronmental Agency (EEA)	2026-05-07	15.549558333333335	18.45782470703125	18.362876892089844	Good	Good	
108	SPO-SE165095_00005_100	Hedemora Gussarvsgatan	Sweden	traffic	60.2814	15.9891	European Envioronmental Agency (EEA)	2026-05-07	14.222666666666669	6.764163494110107	5.3246331214904785	Good	Good	
109	SPO-SE0095A_00005_100	Sundsvall Köpmangatan	Sweden	traffic	62.3886	17.3089	European Envioronmental Agency (EEA)	2026-05-07	21.14891666666667	6.361448764801025	5.795303821563721	Good	Good	
110	SPO-SE09569_00005_100	Sundsvall Bergsgatan	Sweden	traffic	62.3865	17.3032	European Envioronmental Agency (EEA)	2026-05-07	27.700708333333335	9.00108814239502	8.014833450317383	Good	Good	
111	SPO-SE313140_00005_100	Örnsköldsvik Centralesplanaden - Nygatan 24	Sweden	traffic	63.2918	18.7175	European Envioronmental Agency (EEA)	2026-05-07	14.574999999999998	14.234715461730957	14.856422424316406	Good	Good	
112	SPO-SE181002_00005_100	Växjö Liedbergsgatan 11	Sweden	traffic	56.8799	14.7993	European Envioronmental Agency (EEA)	2026-05-07	7.3	7.032901287078857	7.962459564208984	Good	Good	
113	SPO-SE32288_00005_100	Karlskrona N Smedjegatan Ö Köpmansgatan	Sweden	traffic	56.164	15.5889	European Envioronmental Agency (EEA)	2026-05-07	9.458333333333334	9.181999206542969	8.948689460754395	Good	Good	
114	SPO-SE181993_00005_100	Kalmar Södra Vägen	Sweden	traffic	56.6642	16.3336	European Envioronmental Agency (EEA)	2026-05-07	10.845833333333333	9.81554126739502	9.553820610046387	Good	Good	
115	SPO-SE181259_00005_100	Östersund Rådhusgatan	Sweden	traffic	63.1739	14.6411	European Envioronmental Agency (EEA)	2026-05-07	37.09583333333334	22.701292037963867	11.51707649230957	Good	Good	
116	SPO-SE0059A_00005_100	Umeå Västra Esplanaden	Sweden	traffic	63.8289	20.2585	European Envioronmental Agency (EEA)	2026-05-07	16.241666666666667	2.882422685623169	5.484755992889404	Good	Good	
117	SPO-SE274953_00005_100	Skellefteå Kv Pantern	Sweden	traffic	64.7495	20.9601	European Envioronmental Agency (EEA)	2026-05-07	26.699750000000005	-0.6603953838348389	3.4875741004943848	Good	Good	
118	FI_5_101983	Muonio Sammaltunturi	Finland		67.97	24.12	Finnish Meteorological Institute (FMI)	2026-05-07	1.9083333333333332	3.008732557296753	2.798281192779541	Good	Good	
