	Station Code	Station Name	Country	Station type	Latitude	Longitude	Network	PM10 measured concentration (microg/m^3)	PM10 today forecast mean concentration (microg/m^3)	PM10 tomorrow forecast mean concentration (microg/m^3)	Today air quality	Tomorrow air quality	Actions
0	SPO-DK0034A_00005_100	Copenhagen/1103	Denmark	traffic	55.6743	12.5711	European Envioronmental Agency (EEA)	21.56041666666667	20.851788189100184	19.506763624108356	Good	Good	
1	SPO-DK0012R_00005_101	Risoe	Denmark	background	55.6942	12.0889	European Envioronmental Agency (EEA)	11.441666666666668	12.34915708458942	11.763166883717412	Good	Good	
2	SPO-FI00570_00005_100	Raahen keskusta 2	Finland	traffic	64.6834	24.4816	European Envioronmental Agency (EEA)	18.99561	18.196094056834344	14.67681704396787	Good	Good	
3	SPO-FI00349_00005_100	Utö	Finland	background	59.7792	21.374	European Envioronmental Agency (EEA)	2.18627025	2.2797754381013955	3.7078316108040186	Good	Good	
4	SPO-FI00427_00005_100	Matorova	Finland	background	68.0005	24.2457	European Envioronmental Agency (EEA)	2.501627875	2.407527788825657	3.063290570093238	Good	Good	
5	SPO-FI00893_00005_100	Virolahti 2	Finland	background	60.53	27.6754	European Envioronmental Agency (EEA)				Very unhealthy	Very unhealthy	
6	SPO-FI00549_00005_100	Pirkankatu	Finland	traffic	61.4987	23.7357	European Envioronmental Agency (EEA)	12.104920416666667	20.076902140741762	14.670861119809357	Good	Good	
7	SPO-FI00838_00005_100	Epila 2	Finland	traffic	61.5085	23.6758	European Envioronmental Agency (EEA)	13.527508625000001	18.04154690452244	13.743165213128794	Good	Good	
8	SPO-FI00208_00005_101	Luukki	Finland	background	60.3144	24.6849	European Envioronmental Agency (EEA)	5.587301416666667	6.373107578443444	6.75363014055335	Good	Good	
9	SPO-FI00370_00005_100	Tikkurila 3	Finland	traffic	60.2899	25.0395	European Envioronmental Agency (EEA)	12.86094175	25.35258500472359	20.847085040548574	Moderate	Good	
10	SPO-FI00425_00005_100	Kallio 2	Finland	background	60.1874	24.9506	European Envioronmental Agency (EEA)	8.977910791666668	14.501265277033268	13.693999788035518	Good	Good	
11	SPO-FI00564_00005_100	Mannerheimintie	Finland	traffic	60.1696	24.9392	European Envioronmental Agency (EEA)	30.298031458333337	33.191406084143594	28.468883182691492	Moderate	Moderate	
12	SPO-FI00781_00005_100	Vartiokylä Huivipolku	Finland	background	60.2239	25.1024	European Envioronmental Agency (EEA)	6.546026416666668	12.922982713450557	11.763031627820885	Good	Good	
13	SPO-FI00841_00005_100	Leppävaara 4	Finland	traffic	60.2202	24.8113	European Envioronmental Agency (EEA)	18.679313333333333	23.059304693470832	18.69710047348686	Good	Good	
14	SPO-FI00902_00005_100	Mäkelänkatu	Finland	traffic	60.1964	24.952	European Envioronmental Agency (EEA)				Very unhealthy	Very unhealthy	
15	SPO-FI00301_00005_100	Pyykösjärvi	Finland	background	65.0434	25.4979	European Envioronmental Agency (EEA)	19.640216666666667	19.492314546004586	14.075270590574846	Good	Good	
16	SPO-FI00446_00005_100	Oulun keskusta 2	Finland	traffic	65.01	25.4713	European Envioronmental Agency (EEA)	41.928870499999995	26.232726967853047	20.07800807123599	Moderate	Good	
17	SPO-FI00952_00005_100	Jyväskylä Hannikaisenkatu	Finland	traffic	62.2382	25.7479	European Envioronmental Agency (EEA)	19.045339833333333	35.6078696872877	27.99316223807957	Moderate	Moderate	
18	SPO-FI00455_00005_100	Laune	Finland	traffic	60.967	25.6549	European Envioronmental Agency (EEA)	15.424598583333333	22.68854220017143	17.902950328329336	Good	Good	
19	SPO-FI00889_00005_100	Saimaankatu	Finland	traffic	60.9913	25.6658	European Envioronmental Agency (EEA)	10.219195291666665	14.219104683917502	13.966751264489215	Good	Good	
20	SPO-FI00444_00005_100	Naantalin keskusta	Finland	traffic	60.4674	22.0284	European Envioronmental Agency (EEA)	5.057197625000001	7.425404113271962	7.6352159873298975	Good	Good	
21	SPO-FI00558_00005_100	Maaherrankatu	Finland	traffic	62.8933	27.6869	European Envioronmental Agency (EEA)	15.693002375	30.76192582171896	24.346731600554094	Moderate	Good	
22	SPO-FI00839_00005_100	Tasavallankatu	Finland	traffic	62.882	27.6619	European Envioronmental Agency (EEA)	21.049515666666668	21.500518093938414	21.445209129996922	Good	Good	
23	SPO-FI00928_00005_100	Pori Paanakedonkatu	Finland	traffic	61.4823	21.8133	European Envioronmental Agency (EEA)	14.423766166666667	7.756380454353664	10.481670939404031	Good	Good	
24	SPO-FI00080_00005_100	Rautionkylä	Finland	traffic	61.2381	28.8737	European Envioronmental Agency (EEA)				Very unhealthy	Very unhealthy	
25	SPO-FI00378_00005_100	Lauritsala	Finland	traffic	61.0719	28.2641	European Envioronmental Agency (EEA)				Very unhealthy	Very unhealthy	
26	SPO-FI00424_00005_100	Mansikkala	Finland	traffic	61.1889	28.7701	European Envioronmental Agency (EEA)	7.371031250000001	15.302233695983887	13.357415282207986	Good	Good	
27	SPO-FI00433_00005_100	Teppanala	Finland	industrial	61.153	28.8101	European Envioronmental Agency (EEA)	5.597006416666667	8.158505025117293	8.625418745953104	Good	Good	
28	SPO-FI00434_00005_100	Joutsenon keskusta	Finland	traffic	61.1171	28.4985	European Envioronmental Agency (EEA)	4.280902291666667	4.622641926226408	5.452277359755143	Good	Good	
29	SPO-FI00606_00005_100	Lappeenrannan keskusta 4	Finland	traffic	61.0558	28.1843	European Envioronmental Agency (EEA)	13.854274708333335	19.569839684859566	14.43522432576055	Good	Good	
30	SPO-FI00972_00005_100	Lohja Harjula	Finland	background	60.249	24.0695	European Envioronmental Agency (EEA)	6.545847125000001	7.679951605589493	8.741047983584197	Good	Good	
31	SPO-FI00404_00005_100	Keskusta Pitkänsillankatu	Finland	traffic	63.8376	23.1316	European Envioronmental Agency (EEA)				Very unhealthy	Very unhealthy	
32	SPO-FI00892_00005_100	Kankaan Koulu	Finland	traffic	60.8704	26.701	European Envioronmental Agency (EEA)	10.895729791666668	17.200890043507453	14.779378103173297	Good	Good	
33	SPO-FI00179_00005_100	Pirkkala	Finland	industrial	61.3316	22.1431	European Envioronmental Agency (EEA)	5.250778375	7.064782308495563	7.33247649151346	Good	Good	
34	SPO-FI00184_00005_100	Kaleva	Finland	industrial	61.3135	22.135	European Envioronmental Agency (EEA)	6.388985541666667	9.068713851596998	9.181915324667226	Good	Good	
35	SPO-FI00465_00005_100	Vaasan keskusta	Finland	traffic	63.0951	21.6183	European Envioronmental Agency (EEA)	12.419654708333335	15.20855240199877	14.030096012613047	Good	Good	
36	SPO-FI00586_00005_100	Vaasa vesitorni	Finland	background	63.0935	21.6127	European Envioronmental Agency (EEA)				Very unhealthy	Very unhealthy	
37	SPO-FI00397_00005_100	Bottenviksvägen	Finland	traffic	63.6791	22.7184	European Envioronmental Agency (EEA)	23.95647879166667	27.309921845145848	19.57381891167682	Moderate	Good	
38	SPO-IS0005A_00005_103	Reykjavik Grensas	Iceland	traffic	64.1301	-21.8747	European Envioronmental Agency (EEA)				Very unhealthy	Very unhealthy	
39	SPO-IS0052A_00005_100	Akureyri Strandgata (við Hof)	Iceland	traffic	65.6841	-18.0882	European Envioronmental Agency (EEA)	25.166666666666668	18.505721423936926	17.207159560659658	Good	Good	
40	SPO-IS0025A_00005_100	Grundartangi Kríuvarða	Iceland	industrial	64.3736	-21.7591	European Envioronmental Agency (EEA)				Very unhealthy	Very unhealthy	
41	SPO-IS0041A_00005_100	Grundartangi Gröf	Iceland	industrial	64.3342	-21.8357	European Envioronmental Agency (EEA)				Very unhealthy	Very unhealthy	
42	SPO-IS0037A_00005_100	Kópavogur Dalsmári	Iceland	background	64.105	-21.889	European Envioronmental Agency (EEA)	9.4533	9.235583346822988	10.132725985153861	Good	Good	
43	SPO-IS0046A_00005_101	Hafnarfjörður Norðurhella	Iceland	background	64.0442	-21.9854	European Envioronmental Agency (EEA)	7.050833333333333	8.146185937135115	7.127498294996179	Good	Good	
44	SPO-IS0049A_00005_100	PCC norður	Iceland	industrial	66.0793	-17.3422	European Envioronmental Agency (EEA)				Very unhealthy	Very unhealthy	
45	SPO-IS0050A_00005_100	PCC suður	Iceland	industrial	66.0549	-17.3476	European Envioronmental Agency (EEA)	5.141581	6.983385407406351	6.0256311893463135	Good	Good	
46	SPO_NO0071A_5_38	Manglerud	Norway	traffic	59.8986	10.8149	European Envioronmental Agency (EEA)	24.690416666666668	22.29250190569007	16.595357003419295	Good	Good	
47	SPO_NO0093A_5_1039	Hjortnes	Norway	traffic	59.9113	10.704	European Envioronmental Agency (EEA)	27.921666666666667	31.626666773920473	26.124005110367484	Moderate	Moderate	
48	SPO_NO0095A_5_934	Smestad	Norway	traffic	59.9325	10.6699	European Envioronmental Agency (EEA)	30.591975583333333	24.395408837691598	20.35158522232719	Good	Good	
49	SPO_NO0101A_5_332	Rv 4 Aker sykehus	Norway	traffic	59.941	10.798	European Envioronmental Agency (EEA)				Very unhealthy	Very unhealthy	
50	SPO_NO0122A_5_2945	E6 Alna senter	Norway	traffic	59.9256	10.8504	European Envioronmental Agency (EEA)	53.83171195833334	34.62768214681874	23.572361241216246	Moderate	Good	
51	SPO_NO0002R_5_1572	Birkenesobservatoriet	Norway	background	58.3885	8.2519	European Envioronmental Agency (EEA)				Very unhealthy	Very unhealthy	
52	SPO_NO0039R_5_1546	Kårvatn	Norway	background	62.7825	8.8766	European Envioronmental Agency (EEA)				Very unhealthy	Very unhealthy	
53	SPO_NO0056R_5_1539	Hurdal25	Norway	background	60.3729	11.0741	European Envioronmental Agency (EEA)				Very unhealthy	Very unhealthy	
54	SPO_NO0011A_5_19	Kirkeveien	Norway	traffic	59.9323	10.7245	European Envioronmental Agency (EEA)	12.233085454545458			Very unhealthy	Very unhealthy	
55	SPO_NO0057A_5_41	Alnabru	Norway	traffic	59.9277	10.8466	European Envioronmental Agency (EEA)	29.809603416666665	22.323208601578422	18.91851736151654	Good	Good	
56	SPO_NO0072A_5_352	Skøyen	Norway	background	59.9197	10.6897	European Envioronmental Agency (EEA)	13.894266375	18.75231071140455	15.170908824257229	Good	Good	
57	SPO_NO0073A_5_552	Sofienbergparken	Norway	background	59.923	10.7657	European Envioronmental Agency (EEA)	9.257237291666668	12.95405445928159	11.743797405906346	Good	Good	
58	SPO_NO0083A_5_793	Bygdøy Alle	Norway	traffic	59.9193	10.6965	European Envioronmental Agency (EEA)	19.175	27.925074038298234	20.97860211911409	Moderate	Good	
59	SPO_NO0140A_5_3171	Spikersuppa	Norway	background	59.9141	10.736	European Envioronmental Agency (EEA)	12.662242625	16.429975986480713	14.122934258502463	Good	Good	
60	SPO_NO0143A_5_3173	Vahl skole	Norway	traffic	59.9169	10.766	European Envioronmental Agency (EEA)	13.866666666666667	23.403907153917395	20.010769429414168	Good	Good	
61	SPO_NO0146A_5_3145	Loallmenningen	Norway	background	59.9031	10.7584	European Envioronmental Agency (EEA)				Very unhealthy	Very unhealthy	
62	SPO_NO0059A_5_11	Danmarks plass	Norway	traffic	60.3741	5.3404	European Envioronmental Agency (EEA)	7.565028041666667	10.010708104009213	10.68664142359858	Good	Good	
63	SPO_NO0108A_5_2071	Rolland Åsane	Norway	background	60.4627	5.3324	European Envioronmental Agency (EEA)	4.485703833333333	5.2994613854781445	6.517651785974917	Good	Good	
64	SPO_NO0109A_5_2067	Loddefjord	Norway	traffic	60.3611	5.2369	European Envioronmental Agency (EEA)	9.745930708333335	8.766873359680176	10.023997949517291	Good	Good	
65	SPO_NO0120A_5_2902	Klosterhaugen	Norway	background	60.3959	5.3127	European Envioronmental Agency (EEA)	9.628966666666665	6.777075290679932	8.766274804654328	Good	Good	
66	SPO_NO0121A_5_2888	Rådal	Norway	traffic	60.2943	5.3246	European Envioronmental Agency (EEA)	29.487078041666674	11.382357721743377	11.675422087959621	Good	Good	
67	SPO_NO0135A_5_3126	Backeparken	Norway	background	59.7495	10.1653	European Envioronmental Agency (EEA)	10.383333333333333	14.573266558025194	13.74519279728765	Good	Good	
68	SPO_NO0136A_5_3124	Vårveien	Norway	traffic	59.7536	10.1444	European Envioronmental Agency (EEA)	17.804166666666667	18.696667795595914	14.330865528272545	Good	Good	
69	SPO_NO0060A_5_1685	Elgeseter	Norway	traffic	63.4174	10.3968	European Envioronmental Agency (EEA)	18.21646785714286	22.60502744757611	19.347526508828867	Good	Good	
70	SPO_NO0089A_5_1082	Torvet	Norway	background	63.4304	10.3936	European Envioronmental Agency (EEA)				Very unhealthy	Very unhealthy	
71	SPO_NO0102A_5_1530	E6-Tiller	Norway	traffic	63.3576	10.3717	European Envioronmental Agency (EEA)	12.933613086956521	22.505661840024203	18.895279718481977	Good	Good	
72	SPO_NO0145A_5_3060	Omkjøringsvegen	Norway	traffic	63.4105	10.4444	European Envioronmental Agency (EEA)	6.245229291666668	11.280311480812404	11.685362484144127	Good	Good	
73	SPO_NO0061A_5_713	Lensmannsdalen	Norway	traffic	59.1593	9.6357	European Envioronmental Agency (EEA)	28.499166666666667	23.553231031998344	22.456514710965365	Good	Good	
74	SPO_NO0106A_5_1231	Sverresgate	Norway	traffic	59.1382	9.6522	European Envioronmental Agency (EEA)	23.59041666666667	16.26742049922114	17.003544309864875	Good	Good	
75	SPO_NO0115A_5_2473	Furulund	Norway	industrial	59.0573	9.6956	European Envioronmental Agency (EEA)	15.676475708333335	9.707165707712589	11.035910419795824	Good	Good	
76	SPO_NO0118A_5_2723	Knarrdalstranda	Norway	background	59.1335	9.6219	European Envioronmental Agency (EEA)	16.250918958333333	13.686680690101955	13.404784461726313	Good	Good	
77	SPO_NO0063A_5_192	Stener Heyerdahl	Norway	background	58.1489	7.9918	European Envioronmental Agency (EEA)	7.559906041666667	10.328467638596244	8.493448236714238	Good	Good	
78	SPO_NO0134A_5_3121	Bjørndalssletta	Norway	traffic	58.1623	8.0238	European Envioronmental Agency (EEA)	11.375025916666667	8.364917620368626	8.29421095226122	Good	Good	
79	SPO_NO0065A_5_52	Våland	Norway	background	58.9616	5.7314	European Envioronmental Agency (EEA)	8.028462541666668	9.048286811165188	10.197467451510223	Good	Good	
80	SPO_NO0076A_5_46	Kannik	Norway	traffic	58.9642	5.7279	European Envioronmental Agency (EEA)	10.484594499999998	7.87072111212689	9.449216604232788	Good	Good	
81	SPO_NO0125A_5_3017	Schancheholen	Norway	traffic	58.9519	5.7219	European Envioronmental Agency (EEA)	8.133686833333334	8.78980885381284	9.426303345224131	Good	Good	
82	SPO_NO0141A_5_3178	Vågen	Norway	background	58.9726	5.7265	European Envioronmental Agency (EEA)	7.310453416666667	7.435809508613918	7.002745130787725	Good	Good	
83	SPO_NO0074A_5_539	Bankplassen	Norway	traffic	61.1129	10.4649	European Envioronmental Agency (EEA)	18.866626916666668	21.953823877417523	13.947879708331564	Good	Good	
84	SPO_NO0075A_5_544	Lillehammer barnehage	Norway	background	61.1209	10.4656	European Envioronmental Agency (EEA)	9.714847166666667	13.499609200850777	12.604018791862156	Good	Good	
85	SPO_NO0079A_5_392	Hansjordnesbukta	Norway	traffic	69.6562	18.9637	European Envioronmental Agency (EEA)				Very unhealthy	Very unhealthy	
86	SPO_NO0124A_5_2957	Rambergan	Norway	background	69.6543	18.9564	European Envioronmental Agency (EEA)	34.066235750000004	7.179257455079452	9.032556917356407	Good	Good	
87	SPO_NO0084A_5_967	St.Croix	Norway	traffic	59.2103	10.9454	European Envioronmental Agency (EEA)	8.667880166666666	20.70547265591829	16.64988613128662	Good	Good	
88	SPO_NO0114A_5_2325	Bekkestua	Norway	background	59.9182	10.5839	European Envioronmental Agency (EEA)	15.404166666666667	19.620249001876168	17.245543884194415	Good	Good	
89	SPO_NO0142A_5_3183	E18 Høvik kirke	Norway	traffic	59.8988	10.5759	European Envioronmental Agency (EEA)				Very unhealthy	Very unhealthy	
90	SPO_NO0110A_5_2064	Alvim	Norway	traffic	59.2738	11.0892	European Envioronmental Agency (EEA)	8.578543125000001	16.453372540681258	11.843847813813582	Good	Good	
91	SPO_NO0112A_5_1221	Kransen	Norway	traffic	59.4335	10.6618	European Envioronmental Agency (EEA)	10.820420625000002	11.290938709093178	9.4784080463907	Good	Good	
92	SPO_NO0119A_5_2701	Leiret	Norway	traffic	60.8836	11.5593	European Envioronmental Agency (EEA)	15.140559000000001	17.698630332946777	14.99143357898878	Good	Good	
93	SPO_NO0104A_5_1671	Vangsveien Hamar	Norway	traffic	60.7965	11.0978	European Envioronmental Agency (EEA)				Very unhealthy	Very unhealthy	
94	SPO_NO0111A_5_1692	Vigernes	Norway	traffic	59.9555	11.074	European Envioronmental Agency (EEA)				Very unhealthy	Very unhealthy	
95	SPO_NO0128A_5_2972	Nedre Langgate	Norway	traffic	59.2637	10.4112	European Envioronmental Agency (EEA)	8.297287124999999	13.329380159792693	10.715855681377908	Good	Good	
96	SPO_NO0129A_5_2950	Solheim	Norway	traffic	59.9286	10.9532	European Envioronmental Agency (EEA)	35.52766104166667	26.52146629665209	24.08277412082838	Moderate	Good	
97	SPO_NO0127A_5_2964	Seljestad Rv83	Norway	traffic	68.7922	16.5374	European Envioronmental Agency (EEA)	82.23276545833335	5.048866842104041	5.949868160745372	Good	Good	
98	SPO_NO0130A_5_3000	Ringsakervegen	Norway	traffic	60.8859	10.9379	European Envioronmental Agency (EEA)	15.308333333333335	16.73822025630785	13.366347810496455	Good	Good	
99	SPO_NO0147A_5_3157	Vollaparken øst	Norway	background	59.9583	11.0429	European Envioronmental Agency (EEA)				Very unhealthy	Very unhealthy	
100	SPO-SE0001A_00005_100	Malmö Rådhuset	Sweden	background	55.6064	13.002	European Envioronmental Agency (EEA)	9.0675	12.808182840761932	12.135732961737592	Good	Good	
101	SPO-SE0056A_00005_101	Landskrona Eriksgatan	Sweden	traffic	55.8774	12.8336	European Envioronmental Agency (EEA)				Very unhealthy	Very unhealthy	
102	SPO-SE0058A_00005_100	Malmö Dalaplan	Sweden	traffic	55.5847	13.0062	European Envioronmental Agency (EEA)	10.580416666666666	12.360549595045006	12.87734023384426	Good	Good	
103	SPO-SE0085A_00005_101	Helsingborg Drottninggatan	Sweden	traffic	56.0472	12.6916	European Envioronmental Agency (EEA)	13.110708333333335	15.987816852072012	14.25870124153469	Good	Good	
104	SPO-SE155531_00005_100	Trelleborg Hamngatan	Sweden	traffic	55.3729	13.1575	European Envioronmental Agency (EEA)				Very unhealthy	Very unhealthy	
105	SPO-SE38350_00005_100	Lund Trollebergsvägen	Sweden	traffic	55.7033	13.1803	European Envioronmental Agency (EEA)	7.768750000000001	18.6044632040936	14.391775504402492	Good	Good	
106	SPO-SE343956_00005_100	Karlstad Jungmansgatan 8	Sweden	traffic	59.3767	13.4903	European Envioronmental Agency (EEA)				Very unhealthy	Very unhealthy	
107	SPO-SE344172_00005_100	Västerås Stora Gatan 78	Sweden	traffic	59.6077	16.5359	European Envioronmental Agency (EEA)	11.763333333333334	30.639962196350098	26.706123434978984	Moderate	Moderate	
108	SPO-SE344172_00005_101	Västerås Stora Gatan 78	Sweden	traffic	59.6077	16.5359	European Envioronmental Agency (EEA)				Very unhealthy	Very unhealthy	
109	SPO-SE0003A_00005_100	Stockholm Hornsgatan 108 Gata	Sweden	traffic	59.3172	18.0487	European Envioronmental Agency (EEA)	29.55833329166667	15.072391178296959	13.6969053019648	Good	Good	
110	SPO-SE0022A_00005_100	Stockholm Torkel Knutssongatan	Sweden	background	59.316	18.0578	European Envioronmental Agency (EEA)	10.75929090909091			Very unhealthy	Very unhealthy	
111	SPO-SE0027A_00005_100	Stockholm Sveavägen 59 Gata	Sweden	traffic	59.3408	18.0583	European Envioronmental Agency (EEA)	20.354804	23.037499593651813	19.762445118116297	Good	Good	
112	SPO-SE0066A_00005_100	Norr Malma	Sweden	background	59.8324	18.6313	European Envioronmental Agency (EEA)	2.174227875	6.952314998792565	6.281176297560982	Good	Good	
113	SPO-SE0071A_00005_100	Sollentuna E4 Häggvik	Sweden	traffic	59.4435	17.9224	European Envioronmental Agency (EEA)	15.081491583333333	12.728058483289635	13.113632575325344	Good	Good	
114	SPO-SE0072A_00005_100	Södertälje Turingegatan 26	Sweden	traffic	59.1981	17.6211	European Envioronmental Agency (EEA)	29.6047165	26.538070098213527	21.610990773076598	Moderate	Good	
115	SPO-SE0087A_00005_100	Stockholm E4/E20 Lilla Essingen	Sweden	traffic	59.3255	18.0044	European Envioronmental Agency (EEA)				Very unhealthy	Very unhealthy	
116	SPO-SE0114A_00005_100	Södertälje Birkakorset	Sweden	traffic	59.2013	17.6348	European Envioronmental Agency (EEA)				Very unhealthy	Very unhealthy	
117	SPO-SE0117A_00005_101	Visby Österväg 17	Sweden	traffic	57.6369	18.3036	European Envioronmental Agency (EEA)	12.332845749999999	16.179184872171152	17.023310630217843	Good	Good	
118	SPO-SE156417_00005_100	Uppsala Kungsgatan 67	Sweden	traffic	59.8571	17.6463	European Envioronmental Agency (EEA)	12.681270833333334	14.23717967323635	12.335942206175432	Good	Good	
119	SPO-SE157992_00005_100	Stockholm St Eriksgatan 83	Sweden	traffic	59.3405	18.037	European Envioronmental Agency (EEA)	25.580741625	18.266336109327234	17.672395457392152	Good	Good	
120	SPO-SE157993_00005_100	Stockholm E4 Skonertvägen	Sweden	traffic	59.3133	18.004	European Envioronmental Agency (EEA)				Very unhealthy	Very unhealthy	
121	SPO-SE159402_00005_100	Sollentuna Danderydsvägen	Sweden	traffic	59.4459	17.955	European Envioronmental Agency (EEA)	13.625487458333334	10.024439811706543	12.696178187494693	Good	Good	
122	SPO-SE159403_00005_100	Stockholm Folkungagatan 70	Sweden	traffic	59.3146	18.0771	European Envioronmental Agency (EEA)				Very unhealthy	Very unhealthy	
123	SPO-SE159404_00005_100	Uppsala Dragarbrunnsgatan 23 tak	Sweden	background	59.8605	17.6376	European Envioronmental Agency (EEA)	6.5948125	14.376840425574262	10.782481317934783	Good	Good	
124	SPO-SE164905_00005_100	Solna Råsundavägen 107	Sweden	traffic	59.3651	17.9969	European Envioronmental Agency (EEA)				Very unhealthy	Very unhealthy	
125	SPO-SE274652_00005_100	Sollentuna Sollentunavägen 192	Sweden	traffic	59.4336	17.9497	European Envioronmental Agency (EEA)	13.549504083333332	12.927196316097094	12.92677346519802	Good	Good	
126	SPO-SE301111_00005_100	Norrköping Kungsgatan 32	Sweden	traffic	58.5915	16.1779	European Envioronmental Agency (EEA)	8.348941666666667	8.165818836378014	8.320219330165697	Good	Good	
127	SPO-SE301113_00005_100	Norrköping Trädgårdsgatan 21	Sweden	background	58.592	16.1893	European Envioronmental Agency (EEA)	5.435116625	5.335072745447573	5.862472389055335	Good	Good	
128	SPO-SE301757_00005_100	Sundbyberg Tulegatan 9	Sweden	traffic	59.3643	17.9763	European Envioronmental Agency (EEA)	12.17927075	15.393077311308488	14.620470067729121	Good	Good	
129	SPO-SE313381_00005_100	Visby Brömsebroväg 8	Sweden	background	57.6399	18.3097	European Envioronmental Agency (EEA)	8.484716666666666	10.633169153462285	11.907866934071416	Good	Good	
130	SPO-SE338683_00005_100	Gävle Staketgatan 22	Sweden	traffic	60.6762	17.1376	European Envioronmental Agency (EEA)	12.460637458333336	33.00101230455481	25.119677502176035	Moderate	Moderate	
131	SPO-SE338685_00005_100	Linköping Hamngatan 10	Sweden	traffic	58.4124	15.6301	European Envioronmental Agency (EEA)	14.161841625	16.918632134147312	13.062328981316607	Good	Good	
132	SPO-SE344250_00005_100	Danderyd Gymnasiet	Sweden	background	59.4156	18.0424	European Envioronmental Agency (EEA)				Very unhealthy	Very unhealthy	
133	SPO-SE344252_00005_100	Danderyd Mörbyskolan	Sweden	background	59.3939	18.0441	European Envioronmental Agency (EEA)				Very unhealthy	Very unhealthy	
134	SPO-SE37479_00005_100	Sollentuna Ekmans Väg 11	Sweden	traffic	59.489	17.9199	European Envioronmental Agency (EEA)	24.45554991666667	9.974547323973283	10.347594084947005	Good	Good	
135	SPO-SE0004A_00005_100	Göteborg Femman	Sweden	background	57.709	11.9702	European Envioronmental Agency (EEA)	12.156276666666665	20.315936212954313	16.218032878378164	Good	Good	
136	SPO-SE0005R_00005_101	Bredkälen	Sweden	background	63.8455	15.3197	European Envioronmental Agency (EEA)	0.5291666666666667	1.7838058471679688	2.0883418580760127	Good	Good	
137	SPO-SE0014R_00005_100	Råö	Sweden	background	57.3936	11.9142	European Envioronmental Agency (EEA)	15.529166666666669	15.27366240128227	13.139034727345342	Good	Good	
138	SPO-SE0116A_00005_100	Hallahus	Sweden	background	56.0424	13.1486	European Envioronmental Agency (EEA)				Very unhealthy	Very unhealthy	
139	SPO-SE159388_00005_100	Norunda Stenen	Sweden	background	60.0858	17.5053	European Envioronmental Agency (EEA)				Very unhealthy	Very unhealthy	
140	SPO-SE159388_00005_101	Norunda Stenen	Sweden	background	60.0858	17.5053	European Envioronmental Agency (EEA)	2.2778130454545455	3.0597619751225347	2.6388648722482766	Good	Good	
141	SPO-SE0021A_00005_100	Göteborg Gårda	Sweden	traffic	57.7009	11.9946	European Envioronmental Agency (EEA)	14.310428571428572	24.3190568841022	21.369870268780254	Good	Good	
142	SPO-SE0067A_00005_100	Göteborg Haga	Sweden	traffic	57.6979	11.9605	European Envioronmental Agency (EEA)				Very unhealthy	Very unhealthy	
143	SPO-SE274590_00005_100	Göteborg Övre Husargatan	Sweden	traffic	57.6937	11.9568	European Envioronmental Agency (EEA)	28.6573375	28.901612240335215	21.566638448963996	Moderate	Good	
144	SPO-SE0113A_00005_100	Borås Kungsgatan	Sweden	traffic	57.7208	12.9447	European Envioronmental Agency (EEA)				Very unhealthy	Very unhealthy	
145	SPO-SE165095_00005_100	Hedemora Gussarvsgatan	Sweden	traffic	60.2814	15.9891	European Envioronmental Agency (EEA)	17.99170833333333	31.56751193170962	21.796831835871156	Moderate	Good	
146	SPO-SE157868_00005_100	Jönköping Kungsgatan 2A	Sweden	traffic	57.7782	14.1595	European Envioronmental Agency (EEA)				Very unhealthy	Very unhealthy	
147	SPO-SE36365_00005_100	Jönköping Lantmätaregränd	Sweden	background	57.7816	14.1737	European Envioronmental Agency (EEA)				Very unhealthy	Very unhealthy	
148	SPO-SE0012A_00005_101	Timrå	Sweden	background	62.4868	17.3244	European Envioronmental Agency (EEA)				Very unhealthy	Very unhealthy	
149	SPO-SE0095A_00005_100	Sundsvall Köpmangatan	Sweden	traffic	62.3886	17.3089	European Envioronmental Agency (EEA)	6.3035	23.525802985481594	16.249424768530805	Good	Good	
150	SPO-SE09569_00005_100	Sundsvall Bergsgatan	Sweden	traffic	62.3865	17.3032	European Envioronmental Agency (EEA)	17.59854166666667	25.03122914355734	18.831377526988152	Moderate	Good	
151	SPO-SE313140_00005_100	Örnsköldsvik Centralesplanaden - Nygatan 24	Sweden	traffic	63.2918	18.7175	European Envioronmental Agency (EEA)				Very unhealthy	Very unhealthy	
152	SPO-SE181002_00005_100	Växjö Liedbergsgatan 11	Sweden	traffic	56.8799	14.7993	European Envioronmental Agency (EEA)	12.820833333333335	11.290713434634002	9.656337655108908	Good	Good	
153	SPO-SE32288_00005_100	Karlskrona N Smedjegatan Ö Köpmansgatan	Sweden	traffic	56.164	15.5889	European Envioronmental Agency (EEA)				Very unhealthy	Very unhealthy	
154	SPO-SE181993_00005_100	Kalmar Södra Vägen	Sweden	traffic	56.6642	16.3336	European Envioronmental Agency (EEA)	41.60416666666667	9.768350829248844	11.098632999088453	Good	Good	
155	SPO-SE36364_00005_100	Örebro Rudbecksskolan	Sweden	traffic	59.2683	15.2149	European Envioronmental Agency (EEA)				Very unhealthy	Very unhealthy	
156	SPO-SE181259_00005_100	Östersund Rådhusgatan	Sweden	traffic	63.1739	14.6411	European Envioronmental Agency (EEA)	15.334782608695651			Very unhealthy	Very unhealthy	
157	SPO-SE0059A_00005_100	Umeå Västra Esplanaden	Sweden	traffic	63.8289	20.2585	European Envioronmental Agency (EEA)	18.533333333333335	21.09648020371147	17.228981640027918	Good	Good	
158	SPO-SE274953_00005_100	Skellefteå Kv Pantern	Sweden	traffic	64.7495	20.9601	European Envioronmental Agency (EEA)	40.337375	41.173249078833535	29.715546732363492	Moderate	Moderate	
159	SPO-SE0100A_00005_100	Luleå Sandviksgatan	Sweden	traffic	65.5806	22.1404	European Envioronmental Agency (EEA)				Very unhealthy	Very unhealthy	
160	SPO-SE31752_00005_100	Piteå Prästgårdsgatan	Sweden	traffic	65.3181	21.4792	European Envioronmental Agency (EEA)				Very unhealthy	Very unhealthy	
161	FI_5_101983	Muonio Sammaltunturi	Finland		67.97	24.12	Finnish Meteorological Institute	2.1875	2.4909241873285044	2.9645131048948867	Good	Good	
162	FI_5_100656	Virolahti Koivuniemi Ääpälä	Finland		60.53	27.68	Finnish Meteorological Institute				Very unhealthy	Very unhealthy	
