	Station Code	Station Name	Country	Station type	Latitude	Longitude	Network	Date	PM10 measured concentration (microg/m^3)	PM10 today forecast mean concentration (microg/m^3)	PM10 tomorrow forecast mean concentration (microg/m^3)	Today air quality	Tomorrow air quality	Actions
0	SPO-FI00570_00005_100	Raahen keskusta 2	Finland	traffic	64.6834	24.4816	European Envioronmental Agency (EEA)	2025-11-09	3.485328416666667	3.6579043865203857	4.239083766937256	Good	Good	
1	SPO-FI00349_00005_100	Utö	Finland	background	59.7792	21.374	European Envioronmental Agency (EEA)	2025-11-09	3.160414	6.485137462615967	4.564362049102783	Good	Good	
2	SPO-FI00427_00005_100	Matorova	Finland	background	68.0005	24.2457	European Envioronmental Agency (EEA)	2025-11-09	1.0383585	0.8541420102119446	0.9400338530540466	Good	Good	
3	SPO-FI00838_00005_100	Epila 2	Finland	traffic	61.5085	23.6758	European Envioronmental Agency (EEA)	2025-11-09	4.497638458333333	5.2156758308410645	5.116982936859131	Good	Good	
4	SPO-FI00208_00005_101	Luukki	Finland	background	60.3144	24.6849	European Envioronmental Agency (EEA)	2025-11-09	8.77690975	7.753363132476807	5.8699750900268555	Good	Good	
5	SPO-FI00370_00005_100	Tikkurila 3	Finland	traffic	60.2899	25.0395	European Envioronmental Agency (EEA)	2025-11-09	12.973958458333334	10.255173683166504	8.715988159179688	Good	Good	
6	SPO-FI00425_00005_100	Kallio 2	Finland	background	60.1874	24.9506	European Envioronmental Agency (EEA)	2025-11-09	11.017980041666668	10.614090919494629	8.75685977935791	Good	Good	
7	SPO-FI00564_00005_100	Mannerheimintie	Finland	traffic	60.1696	24.9392	European Envioronmental Agency (EEA)	2025-11-09	13.061737250000002	13.75110149383545	12.791696548461914	Good	Good	
8	SPO-FI00781_00005_100	Vartiokylä Huivipolku	Finland	background	60.2239	25.1024	European Envioronmental Agency (EEA)	2025-11-09	11.612861708333334	9.062438011169434	7.1932830810546875	Good	Good	
9	SPO-FI00841_00005_100	Leppävaara 4	Finland	traffic	60.2202	24.8113	European Envioronmental Agency (EEA)	2025-11-09	12.282806708333332	11.78801441192627	9.86745834350586	Good	Good	
10	SPO-FI00301_00005_100	Pyykösjärvi	Finland	background	65.0434	25.4979	European Envioronmental Agency (EEA)	2025-11-09	3.50025275	4.028436660766602	4.70812463760376	Good	Good	
11	SPO-FI00446_00005_100	Oulun keskusta 2	Finland	traffic	65.01	25.4713	European Envioronmental Agency (EEA)	2025-11-09	4.252751875	4.9467854499816895	5.550572872161865	Good	Good	
12	SPO-FI00952_00005_100	Jyväskylä Hannikaisenkatu	Finland	traffic	62.2382	25.7479	European Envioronmental Agency (EEA)	2025-11-09	3.676123291666667	6.647281646728516	6.461878776550293	Good	Good	
13	SPO-FI00455_00005_100	Laune	Finland	traffic	60.967	25.6549	European Envioronmental Agency (EEA)	2025-11-09	8.041970041666668	9.702474594116211	11.733787536621094	Good	Good	
14	SPO-FI00889_00005_100	Saimaankatu	Finland	traffic	60.9913	25.6658	European Envioronmental Agency (EEA)	2025-11-09	6.923184999999999	8.11402416229248	9.4202299118042	Good	Good	
15	SPO-FI00558_00005_100	Maaherrankatu	Finland	traffic	62.8933	27.6869	European Envioronmental Agency (EEA)	2025-11-09	4.810251875	6.5225653648376465	6.7375078201293945	Good	Good	
16	SPO-FI00839_00005_100	Tasavallankatu	Finland	traffic	62.882	27.6619	European Envioronmental Agency (EEA)	2025-11-09	5.570767375	9.68002986907959	8.964844703674316	Good	Good	
17	SPO-FI00928_00005_100	Pori Paanakedonkatu	Finland	traffic	61.4823	21.8133	European Envioronmental Agency (EEA)	2025-11-09	4.780293416666667	6.2895660400390625	6.8008198738098145	Good	Good	
18	SPO-FI00424_00005_100	Mansikkala	Finland	traffic	61.1889	28.7701	European Envioronmental Agency (EEA)	2025-11-09	4.711883750000001	9.268035888671875	7.857579231262207	Good	Good	
19	SPO-FI00433_00005_100	Teppanala	Finland	industrial	61.153	28.8101	European Envioronmental Agency (EEA)	2025-11-09	5.576681086956522	8.509499549865723	8.04028034210205	Good	Good	
20	SPO-FI00434_00005_100	Joutsenon keskusta	Finland	traffic	61.1171	28.4985	European Envioronmental Agency (EEA)	2025-11-09	3.225348708333333	4.624643802642822	2.9055795669555664	Good	Good	
21	SPO-FI00606_00005_100	Lappeenrannan keskusta 4	Finland	traffic	61.0558	28.1843	European Envioronmental Agency (EEA)	2025-11-09	6.072913333333335	9.691884994506836	8.180294036865234	Good	Good	
22	SPO-FI00972_00005_100	Lohja Harjula	Finland	background	60.249	24.0695	European Envioronmental Agency (EEA)	2025-11-09	9.50650075	9.201048851013184	6.221508502960205	Good	Good	
23	SPO-FI00892_00005_100	Kankaan Koulu	Finland	traffic	60.8704	26.701	European Envioronmental Agency (EEA)	2025-11-09	6.679305041666667	9.696281433105469	8.42959976196289	Good	Good	
24	SPO-FI00179_00005_100	Pirkkala	Finland	industrial	61.3316	22.1431	European Envioronmental Agency (EEA)	2025-11-09	9.870679	7.63363790512085	7.000551223754883	Good	Good	
25	SPO-FI00184_00005_100	Kaleva	Finland	industrial	61.3135	22.135	European Envioronmental Agency (EEA)	2025-11-09	5.806703416666667	7.425886631011963	6.678127765655518	Good	Good	
26	SPO-FI00397_00005_100	Bottenviksvägen	Finland	traffic	63.6791	22.7184	European Envioronmental Agency (EEA)	2025-11-09	40.119090916666664	2.8604252338409424	3.506457805633545	Good	Good	
27	SPO-IS0005A_00005_103	Reykjavik Grensas	Iceland	traffic	64.1301	-21.8747	European Envioronmental Agency (EEA)	2025-11-09		15.117992401123047	15.157517433166504	Good	Good	
28	SPO-IS0052A_00005_100	Akureyri Strandgata (við Hof)	Iceland	traffic	65.6841	-18.0882	European Envioronmental Agency (EEA)	2025-11-09	51.09090909090909	8.274928092956543	7.180593967437744	Good	Good	
29	SPO-IS0025A_00005_100	Grundartangi Kríuvarða	Iceland	industrial	64.3736	-21.7591	European Envioronmental Agency (EEA)	2025-11-09		6.713277816772461	5.971451282501221	Good	Good	
30	SPO-IS0041A_00005_100	Grundartangi Gröf	Iceland	industrial	64.3342	-21.8357	European Envioronmental Agency (EEA)	2025-11-09		0.35991621017456055	0.6083645820617676	Good	Good	
31	SPO-IS0037A_00005_100	Kópavogur Dalsmári	Iceland	background	64.105	-21.889	European Envioronmental Agency (EEA)	2025-11-09	16.797725000000003	9.625840187072754	10.167492866516113	Good	Good	
32	SPO-IS0046A_00005_101	Hafnarfjörður Norðurhella	Iceland	background	64.0442	-21.9854	European Envioronmental Agency (EEA)	2025-11-09	5.866254166666667	2.9075753688812256	3.848418951034546	Good	Good	
33	SPO-IS0049A_00005_100	PCC norður	Iceland	industrial	66.0793	-17.3422	European Envioronmental Agency (EEA)	2025-11-09	2.4735000000000005	1.8621529340744019	2.2449724674224854	Good	Good	
34	SPO-IS0050A_00005_100	PCC suður	Iceland	industrial	66.0549	-17.3476	European Envioronmental Agency (EEA)	2025-11-09		2.4825429916381836	2.799072265625	Good	Good	
35	SPO-SE0001A_00005_100	Malmö Rådhuset	Sweden	background	55.6064	13.002	European Envioronmental Agency (EEA)	2025-11-09	21.38695652173913	26.95347023010254	28.91873550415039	Moderate	Moderate	
36	SPO-SE0058A_00005_100	Malmö Dalaplan	Sweden	traffic	55.5847	13.0062	European Envioronmental Agency (EEA)	2025-11-09	22.183333333333334	30.577728271484375	32.77981948852539	Moderate	Moderate	
37	SPO-SE0085A_00005_101	Helsingborg Drottninggatan	Sweden	traffic	56.0472	12.6916	European Envioronmental Agency (EEA)	2025-11-09	22.522916666666664	31.171493530273438	28.717483520507812	Moderate	Moderate	
38	SPO-SE38350_00005_100	Lund Trollebergsvägen	Sweden	traffic	55.7033	13.1803	European Envioronmental Agency (EEA)	2025-11-09	18.441666666666666	25.360082626342773	23.997804641723633	Moderate	Good	
39	SPO-SE344172_00005_100	Västerås Stora Gatan 78	Sweden	traffic	59.6077	16.5359	European Envioronmental Agency (EEA)	2025-11-09	4.9991666666666665	10.080635070800781	10.366954803466797	Good	Good	
40	SPO-SE0003A_00005_100	Stockholm Hornsgatan 108 Gata	Sweden	traffic	59.3172	18.0487	European Envioronmental Agency (EEA)	2025-11-09	6.760795791666667	10.712149620056152	15.116808891296387	Good	Good	
41	SPO-SE0022A_00005_100	Stockholm Torkel Knutssongatan	Sweden	background	59.316	18.0578	European Envioronmental Agency (EEA)	2025-11-09	5.8481332916666675	8.509310722351074	9.610313415527344	Good	Good	
42	SPO-SE0027A_00005_100	Stockholm Sveavägen 59 Gata	Sweden	traffic	59.3408	18.0583	European Envioronmental Agency (EEA)	2025-11-09	13.891141500000003	17.681062698364258	22.109846115112305	Good	Good	
43	SPO-SE0066A_00005_100	Norr Malma	Sweden	background	59.8324	18.6313	European Envioronmental Agency (EEA)	2025-11-09	4.724925	5.807572841644287	3.3194680213928223	Good	Good	
44	SPO-SE0071A_00005_100	Sollentuna E4 Häggvik	Sweden	traffic	59.4435	17.9224	European Envioronmental Agency (EEA)	2025-11-09	5.245679166666666	8.081709861755371	9.557085990905762	Good	Good	
45	SPO-SE0072A_00005_100	Södertälje Turingegatan 26	Sweden	traffic	59.1981	17.6211	European Envioronmental Agency (EEA)	2025-11-09	7.790083291666666	11.909979820251465	11.626678466796875	Good	Good	
46	SPO-SE0117A_00005_101	Visby Österväg 17	Sweden	traffic	57.6369	18.3036	European Envioronmental Agency (EEA)	2025-11-09	17.869874958333337	23.670425415039062	20.189184188842773	Good	Good	
47	SPO-SE156417_00005_100	Uppsala Kungsgatan 67	Sweden	traffic	59.8571	17.6463	European Envioronmental Agency (EEA)	2025-11-09	6.240004125000001	9.255233764648438	9.278965950012207	Good	Good	
48	SPO-SE157992_00005_100	Stockholm St Eriksgatan 83	Sweden	traffic	59.3405	18.037	European Envioronmental Agency (EEA)	2025-11-09	8.599512458333335	12.586997985839844	16.290172576904297	Good	Good	
49	SPO-SE159402_00005_100	Sollentuna Danderydsvägen	Sweden	traffic	59.4459	17.955	European Envioronmental Agency (EEA)	2025-11-09	6.403445791666667	9.829617500305176	10.776966094970703	Good	Good	
50	SPO-SE159404_00005_100	Uppsala Dragarbrunnsgatan 23 tak	Sweden	background	59.8605	17.6376	European Envioronmental Agency (EEA)	2025-11-09	4.173570833333334	6.714334011077881	6.395806789398193	Good	Good	
51	SPO-SE274652_00005_100	Sollentuna Sollentunavägen 192	Sweden	traffic	59.4336	17.9497	European Envioronmental Agency (EEA)	2025-11-09	6.14648325	9.914158821105957	11.646904945373535	Good	Good	
52	SPO-SE301111_00005_100	Norrköping Kungsgatan 32	Sweden	traffic	58.5915	16.1779	European Envioronmental Agency (EEA)	2025-11-09	12.807670750000002	17.616249084472656	14.23955249786377	Good	Good	
53	SPO-SE301113_00005_100	Norrköping Trädgårdsgatan 21	Sweden	background	58.592	16.1893	European Envioronmental Agency (EEA)	2025-11-09	11.357270666666665	13.41247272491455	10.898092269897461	Good	Good	
54	SPO-SE301757_00005_100	Sundbyberg Tulegatan 9	Sweden	traffic	59.3643	17.9763	European Envioronmental Agency (EEA)	2025-11-09	7.536512458333334	11.294391632080078	14.425078392028809	Good	Good	
55	SPO-SE313381_00005_100	Visby Brömsebroväg 8	Sweden	background	57.6399	18.3097	European Envioronmental Agency (EEA)	2025-11-09	14.204874916666668	12.709736824035645	11.024882316589355	Good	Good	
56	SPO-SE338683_00005_100	Gävle Staketgatan 22	Sweden	traffic	60.6762	17.1376	European Envioronmental Agency (EEA)	2025-11-09	5.315570791666667	2.674535036087036	2.110933303833008	Good	Good	
57	SPO-SE338685_00005_100	Linköping Hamngatan 10	Sweden	traffic	58.4124	15.6301	European Envioronmental Agency (EEA)	2025-11-09	13.158649958333333	15.695929527282715	15.047347068786621	Good	Good	
58	SPO-SE37479_00005_100	Sollentuna Ekmans Väg 11	Sweden	traffic	59.489	17.9199	European Envioronmental Agency (EEA)	2025-11-09	7.050708333333334	10.109749794006348	10.739789962768555	Good	Good	
59	SPO-SE0004A_00005_100	Göteborg Femman	Sweden	background	57.709	11.9702	European Envioronmental Agency (EEA)	2025-11-09	17.08405541666667	17.78702735900879	18.890056610107422	Good	Good	
60	SPO-SE0005R_00005_101	Bredkälen	Sweden	background	63.8455	15.3197	European Envioronmental Agency (EEA)	2025-11-09	2.754166666666667	2.278411865234375	1.2753698825836182	Good	Good	
61	SPO-SE0014R_00005_100	Råö	Sweden	background	57.3936	11.9142	European Envioronmental Agency (EEA)	2025-11-09	13.920833333333334	14.719653129577637	15.671808242797852	Good	Good	
62	SPO-SE159388_00005_101	Norunda Stenen	Sweden	background	60.0858	17.5053	European Envioronmental Agency (EEA)	2025-11-09	3.309878842105263	4.839626789093018	3.66158127784729	Good	Good	
63	SPO-SE0021A_00005_100	Göteborg Gårda	Sweden	traffic	57.7009	11.9946	European Envioronmental Agency (EEA)	2025-11-09	21.31641666666667	24.640396118164062	30.10517120361328	Good	Moderate	
64	SPO-SE0067A_00005_100	Göteborg Haga	Sweden	traffic	57.6979	11.9605	European Envioronmental Agency (EEA)	2025-11-09	16.2285475	16.666898727416992	16.892475128173828	Good	Good	
65	SPO-SE274590_00005_100	Göteborg Övre Husargatan	Sweden	traffic	57.6937	11.9568	European Envioronmental Agency (EEA)	2025-11-09	16.098636250000002	18.37383270263672	20.021631240844727	Good	Good	
66	SPO-SE165095_00005_100	Hedemora Gussarvsgatan	Sweden	traffic	60.2814	15.9891	European Envioronmental Agency (EEA)	2025-11-09	7.308291666666666	5.054193019866943	2.9080121517181396	Good	Good	
67	SPO-SE0095A_00005_100	Sundsvall Köpmangatan	Sweden	traffic	62.3886	17.3089	European Envioronmental Agency (EEA)	2025-11-09	2.9137500000000003	2.7765467166900635	2.668795108795166	Good	Good	
68	SPO-SE09569_00005_100	Sundsvall Bergsgatan	Sweden	traffic	62.3865	17.3032	European Envioronmental Agency (EEA)	2025-11-09	13.593166666666667	2.221719264984131	2.0226712226867676	Good	Good	
69	SPO-SE313140_00005_100	Örnsköldsvik Centralesplanaden - Nygatan 24	Sweden	traffic	63.2918	18.7175	European Envioronmental Agency (EEA)	2025-11-09	4.112500000000001	1.203161358833313	5.172943115234375	Good	Good	
70	SPO-SE181002_00005_100	Växjö Liedbergsgatan 11	Sweden	traffic	56.8799	14.7993	European Envioronmental Agency (EEA)	2025-11-09	23.308333333333334	24.912939071655273	26.086336135864258	Good	Moderate	
71	SPO-SE181993_00005_100	Kalmar Södra Vägen	Sweden	traffic	56.6642	16.3336	European Envioronmental Agency (EEA)	2025-11-09	33.40833333333333	24.718515396118164	22.718446731567383	Good	Good	
72	SPO-SE181259_00005_100	Östersund Rådhusgatan	Sweden	traffic	63.1739	14.6411	European Envioronmental Agency (EEA)	2025-11-09	3.591666666666667	-2.500763177871704	-5.583967208862305	Good	Good	
73	SPO-SE0059A_00005_100	Umeå Västra Esplanaden	Sweden	traffic	63.8289	20.2585	European Envioronmental Agency (EEA)	2025-11-09	6.320833333333334	4.327795505523682	6.667590618133545	Good	Good	
74	SPO-SE274953_00005_100	Skellefteå Kv Pantern	Sweden	traffic	64.7495	20.9601	European Envioronmental Agency (EEA)	2025-11-09	9.360576250000001	4.64677095413208	7.494969844818115	Good	Good	
75	FI_5_101983	Muonio Sammaltunturi	Finland		67.97	24.12	Finnish Meteorological Institute (FMI)	2025-11-09	0.6416666666666666	0.8435463905334473	0.9100705981254578	Good	Good	
