	Station Code	Station Name	Country	Station type	Latitude	Longitude	Network	Date	PM10 measured concentration (microg/m^3)	PM10 today forecast mean concentration (microg/m^3)	PM10 tomorrow forecast mean concentration (microg/m^3)	Today air quality	Tomorrow air quality	Actions
0	SPO-DK0034A_00005_100	Copenhagen/1103	Denmark	traffic	55.6743	12.5711	European Envioronmental Agency (EEA)	2026-02-15		51.2118034362793	46.74995040893555	Unhealthy	Unhealthy	
1	SPO-DK0012R_00005_101	Risoe	Denmark	background	55.6942	12.0889	European Envioronmental Agency (EEA)	2026-02-15		16.975204467773438	16.018115997314453	Good	Good	
2	SPO-FI00570_00005_100	Raahen keskusta 2	Finland	traffic	64.6834	24.4816	European Envioronmental Agency (EEA)	2026-02-15	10.4568195	4.418254852294922	4.731034278869629	Good	Good	
3	SPO-FI00349_00005_100	Utö	Finland	background	59.7792	21.374	European Envioronmental Agency (EEA)	2026-02-15	3.1797714999999998	1.8554363250732422	2.65544056892395	Good	Good	
4	SPO-FI00427_00005_100	Matorova	Finland	background	68.0005	24.2457	European Envioronmental Agency (EEA)	2026-02-15	1.2564959166666667	2.8197860717773438	2.638371467590332	Good	Good	
5	SPO-FI00549_00005_100	Pirkankatu	Finland	traffic	61.4987	23.7357	European Envioronmental Agency (EEA)	2026-02-15	5.916170208333334	3.639779806137085	6.259793281555176	Good	Good	
6	SPO-FI00838_00005_100	Epila 2	Finland	traffic	61.5085	23.6758	European Envioronmental Agency (EEA)	2026-02-15	5.1367155	3.689868211746216	6.65164852142334	Good	Good	
7	SPO-FI00208_00005_101	Luukki	Finland	background	60.3144	24.6849	European Envioronmental Agency (EEA)	2026-02-15	3.7471405000000004	4.470714569091797	6.01617431640625	Good	Good	
8	SPO-FI00370_00005_100	Tikkurila 3	Finland	traffic	60.2899	25.0395	European Envioronmental Agency (EEA)	2026-02-15	19.485142874999998	8.814009666442871	9.573229789733887	Good	Good	
9	SPO-FI00425_00005_100	Kallio 2	Finland	background	60.1874	24.9506	European Envioronmental Agency (EEA)	2026-02-15	7.2718581250000005	7.573571681976318	8.535353660583496	Good	Good	
10	SPO-FI00564_00005_100	Mannerheimintie	Finland	traffic	60.1696	24.9392	European Envioronmental Agency (EEA)	2026-02-15	8.754036416666667	8.460113525390625	11.36260986328125	Good	Good	
11	SPO-FI00781_00005_100	Vartiokylä Huivipolku	Finland	background	60.2239	25.1024	European Envioronmental Agency (EEA)	2026-02-15	14.689685166666669	8.261533737182617	8.741722106933594	Good	Good	
12	SPO-FI00841_00005_100	Leppävaara 4	Finland	traffic	60.2202	24.8113	European Envioronmental Agency (EEA)	2026-02-15	12.990674416666666	10.141776084899902	12.344990730285645	Good	Good	
13	SPO-FI00301_00005_100	Pyykösjärvi	Finland	background	65.0434	25.4979	European Envioronmental Agency (EEA)	2026-02-15	3.2028862608695654	1.7293506860733032	2.0523488521575928	Good	Good	
14	SPO-FI00446_00005_100	Oulun keskusta 2	Finland	traffic	65.01	25.4713	European Envioronmental Agency (EEA)	2026-02-15	5.265975458333334	2.5968849658966064	2.8857038021087646	Good	Good	
15	SPO-FI00952_00005_100	Jyväskylä Hannikaisenkatu	Finland	traffic	62.2382	25.7479	European Envioronmental Agency (EEA)	2026-02-15	4.377566333333333	2.6107966899871826	4.645918369293213	Good	Good	
16	SPO-FI00455_00005_100	Laune	Finland	traffic	60.967	25.6549	European Envioronmental Agency (EEA)	2026-02-15	13.73325604166667	9.593559265136719	12.895562171936035	Good	Good	
17	SPO-FI00889_00005_100	Saimaankatu	Finland	traffic	60.9913	25.6658	European Envioronmental Agency (EEA)	2026-02-15		5.355226039886475	8.300604820251465	Good	Good	
18	SPO-FI00444_00005_100	Naantalin keskusta	Finland	traffic	60.4674	22.0284	European Envioronmental Agency (EEA)	2026-02-15	6.226654583333333	4.4283766746521	5.7999653816223145	Good	Good	
19	SPO-FI00558_00005_100	Maaherrankatu	Finland	traffic	62.8933	27.6869	European Envioronmental Agency (EEA)	2026-02-15	4.6882107500000005	5.351044178009033	7.341540336608887	Good	Good	
20	SPO-FI00839_00005_100	Tasavallankatu	Finland	traffic	62.882	27.6619	European Envioronmental Agency (EEA)	2026-02-15	5.123281958333334	9.272263526916504	11.428535461425781	Good	Good	
21	SPO-FI00928_00005_100	Pori Paanakedonkatu	Finland	traffic	61.4823	21.8133	European Envioronmental Agency (EEA)	2026-02-15	5.966721041666666	6.547171115875244	12.288378715515137	Good	Good	
22	SPO-FI00424_00005_100	Mansikkala	Finland	traffic	61.1889	28.7701	European Envioronmental Agency (EEA)	2026-02-15	9.116226458333333	8.258221626281738	8.758813858032227	Good	Good	
23	SPO-FI00433_00005_100	Teppanala	Finland	industrial	61.153	28.8101	European Envioronmental Agency (EEA)	2026-02-15	7.522672791666667	7.855278015136719	8.32474422454834	Good	Good	
24	SPO-FI00606_00005_100	Lappeenrannan keskusta 4	Finland	traffic	61.0558	28.1843	European Envioronmental Agency (EEA)	2026-02-15	10.522362166666666	7.454072952270508	7.934637546539307	Good	Good	
25	SPO-FI00972_00005_100	Lohja Harjula	Finland	background	60.249	24.0695	European Envioronmental Agency (EEA)	2026-02-15	16.99584391666667	7.617822647094727	9.28195571899414	Good	Good	
26	SPO-FI00892_00005_100	Kankaan Koulu	Finland	traffic	60.8704	26.701	European Envioronmental Agency (EEA)	2026-02-15	11.806775333333334	11.27029800415039	12.228680610656738	Good	Good	
27	SPO-FI00179_00005_100	Pirkkala	Finland	industrial	61.3316	22.1431	European Envioronmental Agency (EEA)	2026-02-15	5.9306533749999994	6.002469539642334	7.821238040924072	Good	Good	
28	SPO-FI00184_00005_100	Kaleva	Finland	industrial	61.3135	22.135	European Envioronmental Agency (EEA)	2026-02-15	4.990914166666667	5.438960552215576	7.643520355224609	Good	Good	
29	SPO-FI00397_00005_100	Bottenviksvägen	Finland	traffic	63.6791	22.7184	European Envioronmental Agency (EEA)	2026-02-15	6.016546250000001	1.2815566062927246	4.681692600250244	Good	Good	
30	SPO-IS0005A_00005_103	Reykjavik Grensas	Iceland	traffic	64.1301	-21.8747	European Envioronmental Agency (EEA)	2026-02-15	63.22245833333333	23.196935653686523	27.085142135620117	Good	Moderate	
31	SPO-IS0052A_00005_100	Akureyri Strandgata (við Hof)	Iceland	traffic	65.6841	-18.0882	European Envioronmental Agency (EEA)	2026-02-15	17.208333333333332	19.443716049194336	21.95561981201172	Good	Good	
32	SPO-IS0025A_00005_100	Grundartangi Kríuvarða	Iceland	industrial	64.3736	-21.7591	European Envioronmental Agency (EEA)	2026-02-15		8.004924774169922	8.487804412841797	Good	Good	
33	SPO-IS0041A_00005_100	Grundartangi Gröf	Iceland	industrial	64.3342	-21.8357	European Envioronmental Agency (EEA)	2026-02-15	8.029270833333333	4.025787830352783	5.521225452423096	Good	Good	
34	SPO-IS0037A_00005_100	Kópavogur Dalsmári	Iceland	background	64.105	-21.889	European Envioronmental Agency (EEA)	2026-02-15	34.618770833333336	21.05341339111328	22.11033821105957	Good	Good	
35	SPO-IS0046A_00005_101	Hafnarfjörður Norðurhella	Iceland	background	64.0442	-21.9854	European Envioronmental Agency (EEA)	2026-02-15	17.493958333333335	9.041071891784668	9.243417739868164	Good	Good	
36	SPO-IS0049A_00005_100	PCC norður	Iceland	industrial	66.0793	-17.3422	European Envioronmental Agency (EEA)	2026-02-15		3.169412612915039	2.86562180519104	Good	Good	
37	SPO-IS0050A_00005_100	PCC suður	Iceland	industrial	66.0549	-17.3476	European Envioronmental Agency (EEA)	2026-02-15	3.7378008333333335	4.21884298324585	3.8553543090820312	Good	Good	
38	SPO_NO0093A_5_1039	Hjortnes	Norway	traffic	59.9113	10.704	European Envioronmental Agency (EEA)	2026-02-15	28.4075	36.38582229614258	32.017295837402344	Moderate	Moderate	
39	SPO_NO0095A_5_934	Smestad	Norway	traffic	59.9325	10.6699	European Envioronmental Agency (EEA)	2026-02-15	19.496143791666668	25.89312744140625	21.174406051635742	Moderate	Good	
40	SPO_NO0122A_5_2945	E6 Alna senter	Norway	traffic	59.9256	10.8504	European Envioronmental Agency (EEA)	2026-02-15	23.97154041666667	20.03745460510254	16.42486000061035	Good	Good	
41	SPO_NO0011A_5_19	Kirkeveien	Norway	traffic	59.9323	10.7245	European Envioronmental Agency (EEA)	2026-02-15	23.3263305	24.7946720123291	19.383155822753906	Good	Good	
42	SPO_NO0057A_5_41	Alnabru	Norway	traffic	59.9277	10.8466	European Envioronmental Agency (EEA)	2026-02-15	22.720438708333333	21.586158752441406	18.007463455200195	Good	Good	
43	SPO_NO0072A_5_352	Skøyen	Norway	background	59.9197	10.6897	European Envioronmental Agency (EEA)	2026-02-15	27.03909354166667	21.45406150817871	18.230131149291992	Good	Good	
44	SPO_NO0073A_5_552	Sofienbergparken	Norway	background	59.923	10.7657	European Envioronmental Agency (EEA)	2026-02-15	22.452502583333338	15.087119102478027	12.90054988861084	Good	Good	
45	SPO_NO0083A_5_793	Bygdøy Alle	Norway	traffic	59.9193	10.6965	European Envioronmental Agency (EEA)	2026-02-15	29.26666666666667	23.33039665222168	18.889577865600586	Good	Good	
46	SPO_NO0140A_5_3171	Spikersuppa	Norway	background	59.9141	10.736	European Envioronmental Agency (EEA)	2026-02-15	21.834319333333337	15.990937232971191	14.11418628692627	Good	Good	
47	SPO_NO0059A_5_11	Danmarks plass	Norway	traffic	60.3741	5.3404	European Envioronmental Agency (EEA)	2026-02-15	5.841256208333333	18.026107788085938	16.937631607055664	Good	Good	
48	SPO_NO0108A_5_2071	Rolland Åsane	Norway	background	60.4627	5.3324	European Envioronmental Agency (EEA)	2026-02-15	2.2210878333333333	4.627482891082764	5.383236885070801	Good	Good	
49	SPO_NO0109A_5_2067	Loddefjord	Norway	traffic	60.3611	5.2369	European Envioronmental Agency (EEA)	2026-02-15	4.5032259166666675	12.82177448272705	12.756425857543945	Good	Good	
50	SPO_NO0120A_5_2902	Klosterhaugen	Norway	background	60.3959	5.3127	European Envioronmental Agency (EEA)	2026-02-15	3.561915166666667	7.439767360687256	7.3182692527771	Good	Good	
51	SPO_NO0121A_5_2888	Rådal	Norway	traffic	60.2943	5.3246	European Envioronmental Agency (EEA)	2026-02-15	3.8246496250000006	9.891695976257324	12.732651710510254	Good	Good	
52	SPO_NO0135A_5_3126	Backeparken	Norway	background	59.7495	10.1653	European Envioronmental Agency (EEA)	2026-02-15		9.468714714050293	9.098594665527344	Good	Good	
53	SPO_NO0136A_5_3124	Vårveien	Norway	traffic	59.7536	10.1444	European Envioronmental Agency (EEA)	2026-02-15	21.875389833333333	21.759836196899414	19.7635440826416	Good	Good	
54	SPO_NO0060A_5_1685	Elgeseter	Norway	traffic	63.4174	10.3968	European Envioronmental Agency (EEA)	2026-02-15	6.416671541666667	11.460234642028809	10.806192398071289	Good	Good	
55	SPO_NO0102A_5_1530	E6-Tiller	Norway	traffic	63.3576	10.3717	European Envioronmental Agency (EEA)	2026-02-15		33.63821029663086	31.48704719543457	Moderate	Moderate	
56	SPO_NO0106A_5_1231	Sverresgate	Norway	traffic	59.1382	9.6522	European Envioronmental Agency (EEA)	2026-02-15	13.287083333333333	10.397563934326172	10.617094993591309	Good	Good	
57	SPO_NO0115A_5_2473	Furulund	Norway	industrial	59.0573	9.6956	European Envioronmental Agency (EEA)	2026-02-15	16.687449416666666	26.154260635375977	23.64585304260254	Moderate	Good	
58	SPO_NO0118A_5_2723	Knarrdalstranda	Norway	background	59.1335	9.6219	European Envioronmental Agency (EEA)	2026-02-15	21.56305479166667	18.011655807495117	16.8615779876709	Good	Good	
59	SPO_NO0063A_5_192	Stener Heyerdahl	Norway	background	58.1489	7.9918	European Envioronmental Agency (EEA)	2026-02-15	10.433824541666667	10.768333435058594	10.158126831054688	Good	Good	
60	SPO_NO0065A_5_52	Våland	Norway	background	58.9616	5.7314	European Envioronmental Agency (EEA)	2026-02-15	6.398579541666667	9.654032707214355	12.085514068603516	Good	Good	
61	SPO_NO0076A_5_46	Kannik	Norway	traffic	58.9642	5.7279	European Envioronmental Agency (EEA)	2026-02-15	5.355556958333334	10.081425666809082	11.26862621307373	Good	Good	
62	SPO_NO0125A_5_3017	Schancheholen	Norway	traffic	58.9519	5.7219	European Envioronmental Agency (EEA)	2026-02-15	4.854625541666667	12.930789947509766	14.05026626586914	Good	Good	
63	SPO_NO0074A_5_539	Bankplassen	Norway	traffic	61.1129	10.4649	European Envioronmental Agency (EEA)	2026-02-15	35.795927875000004	24.330347061157227	21.049400329589844	Good	Good	
64	SPO_NO0075A_5_544	Lillehammer barnehage	Norway	background	61.1209	10.4656	European Envioronmental Agency (EEA)	2026-02-15	37.97678212500001	12.4981050491333	11.592041015625	Good	Good	
65	SPO_NO0079A_5_392	Hansjordnesbukta	Norway	traffic	69.6562	18.9637	European Envioronmental Agency (EEA)	2026-02-15	6.424687125000001	1.9068907499313354	4.2463250160217285	Good	Good	
66	SPO_NO0124A_5_2957	Rambergan	Norway	background	69.6543	18.9564	European Envioronmental Agency (EEA)	2026-02-15	5.0121802083333336	10.62674617767334	10.574668884277344	Good	Good	
67	SPO_NO0084A_5_967	St.Croix	Norway	traffic	59.2103	10.9454	European Envioronmental Agency (EEA)	2026-02-15	16.87800279166667	20.666872024536133	17.84647560119629	Good	Good	
68	SPO_NO0114A_5_2325	Bekkestua	Norway	background	59.9182	10.5839	European Envioronmental Agency (EEA)	2026-02-15	17.570833333333333	17.38181495666504	14.724853515625	Good	Good	
69	SPO_NO0110A_5_2064	Alvim	Norway	traffic	59.2738	11.0892	European Envioronmental Agency (EEA)	2026-02-15	11.261002708333331	15.039381980895996	13.760934829711914	Good	Good	
70	SPO_NO0112A_5_1221	Kransen	Norway	traffic	59.4335	10.6618	European Envioronmental Agency (EEA)	2026-02-15	18.10290825	15.910489082336426	9.832581520080566	Good	Good	
71	SPO_NO0119A_5_2701	Leiret	Norway	traffic	60.8836	11.5593	European Envioronmental Agency (EEA)	2026-02-15	30.905736916666665	24.91758155822754	16.083663940429688	Good	Good	
72	SPO_NO0128A_5_2972	Nedre Langgate	Norway	traffic	59.2637	10.4112	European Envioronmental Agency (EEA)	2026-02-15	14.059417999999999	14.0178804397583	7.9216108322143555	Good	Good	
73	SPO_NO0129A_5_2950	Solheim	Norway	traffic	59.9286	10.9532	European Envioronmental Agency (EEA)	2026-02-15	23.02567816666667	24.24201011657715	21.031139373779297	Good	Good	
74	SPO_NO0127A_5_2964	Seljestad Rv83	Norway	traffic	68.7922	16.5374	European Envioronmental Agency (EEA)	2026-02-15	5.650239333333334	11.974620819091797	10.93629264831543	Good	Good	
75	SPO_NO0130A_5_3000	Ringsakervegen	Norway	traffic	60.8859	10.9379	European Envioronmental Agency (EEA)	2026-02-15	22.704166666666666	16.66623306274414	12.845922470092773	Good	Good	
76	SPO-SE0001A_00005_100	Malmö Rådhuset	Sweden	background	55.6064	13.002	European Envioronmental Agency (EEA)	2026-02-15	8.793750000000001	12.87248706817627	12.113704681396484	Good	Good	
77	SPO-SE0058A_00005_100	Malmö Dalaplan	Sweden	traffic	55.5847	13.0062	European Envioronmental Agency (EEA)	2026-02-15	24.378333333333334	16.981626510620117	15.488787651062012	Good	Good	
78	SPO-SE0085A_00005_101	Helsingborg Drottninggatan	Sweden	traffic	56.0472	12.6916	European Envioronmental Agency (EEA)	2026-02-15	13.810375000000002	16.35932731628418	14.940667152404785	Good	Good	
79	SPO-SE38350_00005_100	Lund Trollebergsvägen	Sweden	traffic	55.7033	13.1803	European Envioronmental Agency (EEA)	2026-02-15	28.32541666666667	11.087897300720215	10.494361877441406	Good	Good	
80	SPO-SE344172_00005_100	Västerås Stora Gatan 78	Sweden	traffic	59.6077	16.5359	European Envioronmental Agency (EEA)	2026-02-15	66.13304347826087	41.782928466796875	44.30316925048828	Moderate	Moderate	
81	SPO-SE0003A_00005_100	Stockholm Hornsgatan 108 Gata	Sweden	traffic	59.3172	18.0487	European Envioronmental Agency (EEA)	2026-02-15	11.213275000000001	13.551265716552734	16.342897415161133	Good	Good	
82	SPO-SE0022A_00005_100	Stockholm Torkel Knutssongatan	Sweden	background	59.316	18.0578	European Envioronmental Agency (EEA)	2026-02-15	8.332629166666669	9.006368637084961	10.063446998596191	Good	Good	
83	SPO-SE0027A_00005_100	Stockholm Sveavägen 59 Gata	Sweden	traffic	59.3408	18.0583	European Envioronmental Agency (EEA)	2026-02-15	34.77800820833334	17.177045822143555	18.333053588867188	Good	Good	
84	SPO-SE0066A_00005_100	Norr Malma	Sweden	background	59.8324	18.6313	European Envioronmental Agency (EEA)	2026-02-15	6.403891625	7.960188388824463	8.31704044342041	Good	Good	
85	SPO-SE0071A_00005_100	Sollentuna E4 Häggvik	Sweden	traffic	59.4435	17.9224	European Envioronmental Agency (EEA)	2026-02-15	14.462491625	12.201889038085938	15.572015762329102	Good	Good	
86	SPO-SE0072A_00005_100	Södertälje Turingegatan 26	Sweden	traffic	59.1981	17.6211	European Envioronmental Agency (EEA)	2026-02-15	12.28295825	8.556831359863281	6.804913520812988	Good	Good	
87	SPO-SE0117A_00005_101	Visby Österväg 17	Sweden	traffic	57.6369	18.3036	European Envioronmental Agency (EEA)	2026-02-15	35.016174875	32.86033248901367	26.262554168701172	Moderate	Moderate	
88	SPO-SE156417_00005_100	Uppsala Kungsgatan 67	Sweden	traffic	59.8571	17.6463	European Envioronmental Agency (EEA)	2026-02-15	8.305024958333334	15.7147216796875	16.57541847229004	Good	Good	
89	SPO-SE157992_00005_100	Stockholm St Eriksgatan 83	Sweden	traffic	59.3405	18.037	European Envioronmental Agency (EEA)	2026-02-15	42.26203745833334	13.109920501708984	15.694308280944824	Good	Good	
90	SPO-SE159402_00005_100	Sollentuna Danderydsvägen	Sweden	traffic	59.4459	17.955	European Envioronmental Agency (EEA)	2026-02-15	8.328212458333335	15.478671073913574	20.3482608795166	Good	Good	
91	SPO-SE159404_00005_100	Uppsala Dragarbrunnsgatan 23 tak	Sweden	background	59.8605	17.6376	European Envioronmental Agency (EEA)	2026-02-15	8.099533291666667	11.053744316101074	10.956613540649414	Good	Good	
92	SPO-SE274652_00005_100	Sollentuna Sollentunavägen 192	Sweden	traffic	59.4336	17.9497	European Envioronmental Agency (EEA)	2026-02-15	7.6197874583333345	13.142616271972656	17.654211044311523	Good	Good	
93	SPO-SE301111_00005_100	Norrköping Kungsgatan 32	Sweden	traffic	58.5915	16.1779	European Envioronmental Agency (EEA)	2026-02-15	22.95125	17.34421730041504	13.827661514282227	Good	Good	
94	SPO-SE301113_00005_100	Norrköping Trädgårdsgatan 21	Sweden	background	58.592	16.1893	European Envioronmental Agency (EEA)	2026-02-15	19.215916583333335	12.186851501464844	10.350624084472656	Good	Good	
95	SPO-SE301757_00005_100	Sundbyberg Tulegatan 9	Sweden	traffic	59.3643	17.9763	European Envioronmental Agency (EEA)	2026-02-15	8.476183208333333	12.315302848815918	17.25351333618164	Good	Good	
96	SPO-SE313381_00005_100	Visby Brömsebroväg 8	Sweden	background	57.6399	18.3097	European Envioronmental Agency (EEA)	2026-02-15	10.191762500000001	8.60218620300293	7.758143424987793	Good	Good	
97	SPO-SE338683_00005_100	Gävle Staketgatan 22	Sweden	traffic	60.6762	17.1376	European Envioronmental Agency (EEA)	2026-02-15	7.236937500000001	20.67055892944336	23.277742385864258	Good	Good	
98	SPO-SE338685_00005_100	Linköping Hamngatan 10	Sweden	traffic	58.4124	15.6301	European Envioronmental Agency (EEA)	2026-02-15	16.64172075	12.024027824401855	5.307324409484863	Good	Good	
99	SPO-SE37479_00005_100	Sollentuna Ekmans Väg 11	Sweden	traffic	59.489	17.9199	European Envioronmental Agency (EEA)	2026-02-15	11.366658208333334	13.510798454284668	16.55405044555664	Good	Good	
100	SPO-SE0004A_00005_100	Göteborg Femman	Sweden	background	57.709	11.9702	European Envioronmental Agency (EEA)	2026-02-15	14.220792083333336	13.9747314453125	11.31399917602539	Good	Good	
101	SPO-SE0005R_00005_101	Bredkälen	Sweden	background	63.8455	15.3197	European Envioronmental Agency (EEA)	2026-02-15	1.054166666666667	0.36814364790916443	1.0948323011398315	Good	Good	
102	SPO-SE0014R_00005_100	Råö	Sweden	background	57.3936	11.9142	European Envioronmental Agency (EEA)	2026-02-15	9.750000000000002	10.966914176940918	8.819921493530273	Good	Good	
103	SPO-SE159388_00005_101	Norunda Stenen	Sweden	background	60.0858	17.5053	European Envioronmental Agency (EEA)	2026-02-15	3.910965173913044	6.74980354309082	7.362870693206787	Good	Good	
104	SPO-SE0021A_00005_100	Göteborg Gårda	Sweden	traffic	57.7009	11.9946	European Envioronmental Agency (EEA)	2026-02-15	48.591666666666676	28.50655174255371	23.406600952148438	Moderate	Good	
105	SPO-SE0067A_00005_100	Göteborg Haga	Sweden	traffic	57.6979	11.9605	European Envioronmental Agency (EEA)	2026-02-15	11.191228333333333	15.83495044708252	12.771559715270996	Good	Good	
106	SPO-SE274590_00005_100	Göteborg Övre Husargatan	Sweden	traffic	57.6937	11.9568	European Envioronmental Agency (EEA)	2026-02-15	11.877165833333335	16.182218551635742	12.338518142700195	Good	Good	
107	SPO-SE165095_00005_100	Hedemora Gussarvsgatan	Sweden	traffic	60.2814	15.9891	European Envioronmental Agency (EEA)	2026-02-15	19.563125000000003	29.917226791381836	26.721982955932617	Moderate	Moderate	
108	SPO-SE0095A_00005_100	Sundsvall Köpmangatan	Sweden	traffic	62.3886	17.3089	European Envioronmental Agency (EEA)	2026-02-15	5.408	-0.25269588828086853	1.7517987489700317	Good	Good	
109	SPO-SE09569_00005_100	Sundsvall Bergsgatan	Sweden	traffic	62.3865	17.3032	European Envioronmental Agency (EEA)	2026-02-15	5.742208333333333	-0.9276787638664246	1.1733149290084839	Good	Good	
110	SPO-SE313140_00005_100	Örnsköldsvik Centralesplanaden - Nygatan 24	Sweden	traffic	63.2918	18.7175	European Envioronmental Agency (EEA)	2026-02-15	5.733333333333333	5.479747772216797	5.471922397613525	Good	Good	
111	SPO-SE181002_00005_100	Växjö Liedbergsgatan 11	Sweden	traffic	56.8799	14.7993	European Envioronmental Agency (EEA)	2026-02-15	31.27916666666667	17.957275390625	14.988027572631836	Good	Good	
112	SPO-SE32288_00005_100	Karlskrona N Smedjegatan Ö Köpmansgatan	Sweden	traffic	56.164	15.5889	European Envioronmental Agency (EEA)	2026-02-15	17.745833333333334	9.196109771728516	8.458404541015625	Good	Good	
113	SPO-SE181993_00005_100	Kalmar Södra Vägen	Sweden	traffic	56.6642	16.3336	European Envioronmental Agency (EEA)	2026-02-15	36.09166666666667	17.355873107910156	15.19683837890625	Good	Good	
114	SPO-SE181259_00005_100	Östersund Rådhusgatan	Sweden	traffic	63.1739	14.6411	European Envioronmental Agency (EEA)	2026-02-15	4.683333333333334	7.028327941894531	7.5530853271484375	Good	Good	
115	SPO-SE0059A_00005_100	Umeå Västra Esplanaden	Sweden	traffic	63.8289	20.2585	European Envioronmental Agency (EEA)	2026-02-15	14.741666666666667	11.524337768554688	10.682764053344727	Good	Good	
116	SPO-SE274953_00005_100	Skellefteå Kv Pantern	Sweden	traffic	64.7495	20.9601	European Envioronmental Agency (EEA)	2026-02-15	6.064900000000001	-3.5294902324676514	0.38150057196617126	Good	Good	
117	FI_5_101983	Muonio Sammaltunturi	Finland		67.97	24.12	Finnish Meteorological Institute (FMI)	2026-02-15	0.9958333333333332	3.4899158477783203	3.2164194583892822	Good	Good	
