	Station Code	Station Name	Country	Station type	Latitude	Longitude	Network	Date	PM10 measured concentration (microg/m^3)	PM10 today forecast mean concentration (microg/m^3)	PM10 tomorrow forecast mean concentration (microg/m^3)	Today air quality	Tomorrow air quality	Actions
0	SPO-DK0034A_00005_100	Copenhagen/1103	Denmark	traffic	55.6743	12.5711	European Envioronmental Agency (EEA)	2025-12-28		34.47117614746094	25.71946907043457	Moderate	Moderate	
1	SPO-DK0012R_00005_101	Risoe	Denmark	background	55.6942	12.0889	European Envioronmental Agency (EEA)	2025-12-28		12.321648597717285	10.490577697753906	Good	Good	
2	SPO-FI00570_00005_100	Raahen keskusta 2	Finland	traffic	64.6834	24.4816	European Envioronmental Agency (EEA)	2025-12-28		2.054354667663574	2.0689291954040527	Good	Good	
3	SPO-FI00349_00005_100	Utö	Finland	background	59.7792	21.374	European Envioronmental Agency (EEA)	2025-12-28	3.3564214375	4.159008502960205	3.2794816493988037	Good	Good	
4	SPO-FI00427_00005_100	Matorova	Finland	background	68.0005	24.2457	European Envioronmental Agency (EEA)	2025-12-28	2.5234106250000004	2.2708466053009033	2.0326075553894043	Good	Good	
5	SPO-FI00549_00005_100	Pirkankatu	Finland	traffic	61.4987	23.7357	European Envioronmental Agency (EEA)	2025-12-28	6.829315541666667	5.15053129196167	3.8283541202545166	Good	Good	
6	SPO-FI00838_00005_100	Epila 2	Finland	traffic	61.5085	23.6758	European Envioronmental Agency (EEA)	2025-12-28	4.7221327916666676	3.9231021404266357	2.7791903018951416	Good	Good	
7	SPO-FI00208_00005_101	Luukki	Finland	background	60.3144	24.6849	European Envioronmental Agency (EEA)	2025-12-28	4.923084666666667	3.485844850540161	3.3490381240844727	Good	Good	
8	SPO-FI00370_00005_100	Tikkurila 3	Finland	traffic	60.2899	25.0395	European Envioronmental Agency (EEA)	2025-12-28	14.189190916666668	4.006185054779053	3.8587985038757324	Good	Good	
9	SPO-FI00425_00005_100	Kallio 2	Finland	background	60.1874	24.9506	European Envioronmental Agency (EEA)	2025-12-28	10.123382041666668	3.9206314086914062	3.775926351547241	Good	Good	
10	SPO-FI00564_00005_100	Mannerheimintie	Finland	traffic	60.1696	24.9392	European Envioronmental Agency (EEA)	2025-12-28	16.250937875	5.631277561187744	5.8890533447265625	Good	Good	
11	SPO-FI00781_00005_100	Vartiokylä Huivipolku	Finland	background	60.2239	25.1024	European Envioronmental Agency (EEA)	2025-12-28	7.988838458333333	3.8342201709747314	3.90798282623291	Good	Good	
12	SPO-FI00841_00005_100	Leppävaara 4	Finland	traffic	60.2202	24.8113	European Envioronmental Agency (EEA)	2025-12-28	17.720347708333332	4.361648082733154	4.204602241516113	Good	Good	
13	SPO-FI00301_00005_100	Pyykösjärvi	Finland	background	65.0434	25.4979	European Envioronmental Agency (EEA)	2025-12-28	2.235620086956522	5.454489231109619	4.685354232788086	Good	Good	
14	SPO-FI00446_00005_100	Oulun keskusta 2	Finland	traffic	65.01	25.4713	European Envioronmental Agency (EEA)	2025-12-28	4.3016694583333335	5.670223236083984	4.941265106201172	Good	Good	
15	SPO-FI00952_00005_100	Jyväskylä Hannikaisenkatu	Finland	traffic	62.2382	25.7479	European Envioronmental Agency (EEA)	2025-12-28	5.02729275	3.607233762741089	3.012284755706787	Good	Good	
16	SPO-FI00455_00005_100	Laune	Finland	traffic	60.967	25.6549	European Envioronmental Agency (EEA)	2025-12-28	4.927984375	3.778822898864746	3.6665892601013184	Good	Good	
17	SPO-FI00889_00005_100	Saimaankatu	Finland	traffic	60.9913	25.6658	European Envioronmental Agency (EEA)	2025-12-28	5.131284458333334	4.371825218200684	4.761257648468018	Good	Good	
18	SPO-FI00444_00005_100	Naantalin keskusta	Finland	traffic	60.4674	22.0284	European Envioronmental Agency (EEA)	2025-12-28	3.747378916666667	3.7078323364257812	3.6892268657684326	Good	Good	
19	SPO-FI00558_00005_100	Maaherrankatu	Finland	traffic	62.8933	27.6869	European Envioronmental Agency (EEA)	2025-12-28	4.588615	3.5254859924316406	3.5943045616149902	Good	Good	
20	SPO-FI00839_00005_100	Tasavallankatu	Finland	traffic	62.882	27.6619	European Envioronmental Agency (EEA)	2025-12-28	4.452838333333334	3.495070219039917	3.4828872680664062	Good	Good	
21	SPO-FI00928_00005_100	Pori Paanakedonkatu	Finland	traffic	61.4823	21.8133	European Envioronmental Agency (EEA)	2025-12-28	6.798023458333334	6.793968677520752	3.8880605697631836	Good	Good	
22	SPO-FI00424_00005_100	Mansikkala	Finland	traffic	61.1889	28.7701	European Envioronmental Agency (EEA)	2025-12-28	5.0582014583333335	4.219860076904297	3.8714404106140137	Good	Good	
23	SPO-FI00433_00005_100	Teppanala	Finland	industrial	61.153	28.8101	European Envioronmental Agency (EEA)	2025-12-28	4.7481129583333335	4.9429779052734375	4.627108573913574	Good	Good	
24	SPO-FI00434_00005_100	Joutsenon keskusta	Finland	traffic	61.1171	28.4985	European Envioronmental Agency (EEA)	2025-12-28	2.045706916666667	3.507551431655884	3.7657272815704346	Good	Good	
25	SPO-FI00606_00005_100	Lappeenrannan keskusta 4	Finland	traffic	61.0558	28.1843	European Envioronmental Agency (EEA)	2025-12-28	4.3219326250000005	4.288983345031738	5.182322025299072	Good	Good	
26	SPO-FI00972_00005_100	Lohja Harjula	Finland	background	60.249	24.0695	European Envioronmental Agency (EEA)	2025-12-28	14.40925325	5.202389717102051	5.2108330726623535	Good	Good	
27	SPO-FI00892_00005_100	Kankaan Koulu	Finland	traffic	60.8704	26.701	European Envioronmental Agency (EEA)	2025-12-28	3.9096868750000002	5.112011909484863	6.108847141265869	Good	Good	
28	SPO-FI00179_00005_100	Pirkkala	Finland	industrial	61.3316	22.1431	European Envioronmental Agency (EEA)	2025-12-28	11.124506125000002	7.511360168457031	6.268725872039795	Good	Good	
29	SPO-FI00184_00005_100	Kaleva	Finland	industrial	61.3135	22.135	European Envioronmental Agency (EEA)	2025-12-28	7.4489223749999995	5.360249996185303	4.118057727813721	Good	Good	
30	SPO-FI00397_00005_100	Bottenviksvägen	Finland	traffic	63.6791	22.7184	European Envioronmental Agency (EEA)	2025-12-28	15.079303173913045	8.503689765930176	4.300187587738037	Good	Good	
31	SPO-IS0005A_00005_103	Reykjavik Grensas	Iceland	traffic	64.1301	-21.8747	European Envioronmental Agency (EEA)	2025-12-28		1.0098716020584106	-0.35577231645584106	Good	Good	
32	SPO-IS0052A_00005_100	Akureyri Strandgata (við Hof)	Iceland	traffic	65.6841	-18.0882	European Envioronmental Agency (EEA)	2025-12-28	16.73913043478261	5.616915225982666	1.2963124513626099	Good	Good	
33	SPO-IS0025A_00005_100	Grundartangi Kríuvarða	Iceland	industrial	64.3736	-21.7591	European Envioronmental Agency (EEA)	2025-12-28		5.978238582611084	5.2705912590026855	Good	Good	
34	SPO-IS0041A_00005_100	Grundartangi Gröf	Iceland	industrial	64.3342	-21.8357	European Envioronmental Agency (EEA)	2025-12-28		0.5775463581085205	0.7134518623352051	Good	Good	
35	SPO-IS0037A_00005_100	Kópavogur Dalsmári	Iceland	background	64.105	-21.889	European Envioronmental Agency (EEA)	2025-12-28	7.506279166666668	4.412522792816162	4.972733020782471	Good	Good	
36	SPO-IS0046A_00005_101	Hafnarfjörður Norðurhella	Iceland	background	64.0442	-21.9854	European Envioronmental Agency (EEA)	2025-12-28	7.0662375	5.6560845375061035	4.695324897766113	Good	Good	
37	SPO-IS0049A_00005_100	PCC norður	Iceland	industrial	66.0793	-17.3422	European Envioronmental Agency (EEA)	2025-12-28		1.4114023447036743	0.8836046457290649	Good	Good	
38	SPO-IS0050A_00005_100	PCC suður	Iceland	industrial	66.0549	-17.3476	European Envioronmental Agency (EEA)	2025-12-28	4.797567272727273	2.486712694168091	1.6779322624206543	Good	Good	
39	SPO_NO0093A_5_1039	Hjortnes	Norway	traffic	59.9113	10.704	European Envioronmental Agency (EEA)	2025-12-28	32.0375	24.538724899291992	15.38466739654541	Good	Good	
40	SPO_NO0095A_5_934	Smestad	Norway	traffic	59.9325	10.6699	European Envioronmental Agency (EEA)	2025-12-28	14.639638391304347	8.564281463623047	4.986382484436035	Good	Good	
41	SPO_NO0122A_5_2945	E6 Alna senter	Norway	traffic	59.9256	10.8504	European Envioronmental Agency (EEA)	2025-12-28	27.875777958333334	24.104848861694336	12.254373550415039	Good	Good	
42	SPO_NO0011A_5_19	Kirkeveien	Norway	traffic	59.9323	10.7245	European Envioronmental Agency (EEA)	2025-12-28	19.912328875	11.418469429016113	1.9459784030914307	Good	Good	
43	SPO_NO0057A_5_41	Alnabru	Norway	traffic	59.9277	10.8466	European Envioronmental Agency (EEA)	2025-12-28	18.353122625	13.987842559814453	8.944557189941406	Good	Good	
44	SPO_NO0072A_5_352	Skøyen	Norway	background	59.9197	10.6897	European Envioronmental Agency (EEA)	2025-12-28	20.614230375	12.583148002624512	8.510908126831055	Good	Good	
45	SPO_NO0073A_5_552	Sofienbergparken	Norway	background	59.923	10.7657	European Envioronmental Agency (EEA)	2025-12-28	28.714305500000005	13.336074829101562	6.9647369384765625	Good	Good	
46	SPO_NO0083A_5_793	Bygdøy Alle	Norway	traffic	59.9193	10.6965	European Envioronmental Agency (EEA)	2025-12-28	19.916666666666668	11.58879566192627	6.107288360595703	Good	Good	
47	SPO_NO0140A_5_3171	Spikersuppa	Norway	background	59.9141	10.736	European Envioronmental Agency (EEA)	2025-12-28	24.413810541666667	14.908099174499512	8.271707534790039	Good	Good	
48	SPO_NO0059A_5_11	Danmarks plass	Norway	traffic	60.3741	5.3404	European Envioronmental Agency (EEA)	2025-12-28	23.228200833333332	10.630595207214355	10.766973495483398	Good	Good	
49	SPO_NO0108A_5_2071	Rolland Åsane	Norway	background	60.4627	5.3324	European Envioronmental Agency (EEA)	2025-12-28	14.097466958333333	6.210279941558838	4.676332950592041	Good	Good	
50	SPO_NO0109A_5_2067	Loddefjord	Norway	traffic	60.3611	5.2369	European Envioronmental Agency (EEA)	2025-12-28	18.853332625	7.9942779541015625	7.691472053527832	Good	Good	
51	SPO_NO0120A_5_2902	Klosterhaugen	Norway	background	60.3959	5.3127	European Envioronmental Agency (EEA)	2025-12-28	16.550157916666667	7.726879119873047	7.547968864440918	Good	Good	
52	SPO_NO0121A_5_2888	Rådal	Norway	traffic	60.2943	5.3246	European Envioronmental Agency (EEA)	2025-12-28	24.82538079166667	11.164543151855469	10.426881790161133	Good	Good	
53	SPO_NO0135A_5_3126	Backeparken	Norway	background	59.7495	10.1653	European Envioronmental Agency (EEA)	2025-12-28	11.539790000000002	9.919036865234375	8.398550987243652	Good	Good	
54	SPO_NO0136A_5_3124	Vårveien	Norway	traffic	59.7536	10.1444	European Envioronmental Agency (EEA)	2025-12-28	19.918083624999998	11.207789421081543	8.282903671264648	Good	Good	
55	SPO_NO0060A_5_1685	Elgeseter	Norway	traffic	63.4174	10.3968	European Envioronmental Agency (EEA)	2025-12-28	9.247004375000001	7.634242534637451	4.406246185302734	Good	Good	
56	SPO_NO0102A_5_1530	E6-Tiller	Norway	traffic	63.3576	10.3717	European Envioronmental Agency (EEA)	2025-12-28		22.474212646484375	21.599502563476562	Good	Good	
57	SPO_NO0106A_5_1231	Sverresgate	Norway	traffic	59.1382	9.6522	European Envioronmental Agency (EEA)	2025-12-28	20.94125	13.218775749206543	9.674273490905762	Good	Good	
58	SPO_NO0115A_5_2473	Furulund	Norway	industrial	59.0573	9.6956	European Envioronmental Agency (EEA)	2025-12-28	22.182984458333333	13.943324089050293	8.022263526916504	Good	Good	
59	SPO_NO0118A_5_2723	Knarrdalstranda	Norway	background	59.1335	9.6219	European Envioronmental Agency (EEA)	2025-12-28	27.664076208333338	15.729304313659668	12.037132263183594	Good	Good	
60	SPO_NO0063A_5_192	Stener Heyerdahl	Norway	background	58.1489	7.9918	European Envioronmental Agency (EEA)	2025-12-28	34.357925375	4.2758402824401855	4.773421764373779	Good	Good	
61	SPO_NO0134A_5_3121	Bjørndalssletta	Norway	traffic	58.1623	8.0238	European Envioronmental Agency (EEA)	2025-12-28	27.602357958333332	6.570374965667725	4.019932746887207	Good	Good	
62	SPO_NO0065A_5_52	Våland	Norway	background	58.9616	5.7314	European Envioronmental Agency (EEA)	2025-12-28	10.961228749999998	5.569034576416016	4.6310811042785645	Good	Good	
63	SPO_NO0076A_5_46	Kannik	Norway	traffic	58.9642	5.7279	European Envioronmental Agency (EEA)	2025-12-28	8.495656833333333	5.599847316741943	5.600481986999512	Good	Good	
64	SPO_NO0125A_5_3017	Schancheholen	Norway	traffic	58.9519	5.7219	European Envioronmental Agency (EEA)	2025-12-28	12.428762708333332	6.164560794830322	5.98818302154541	Good	Good	
65	SPO_NO0074A_5_539	Bankplassen	Norway	traffic	61.1129	10.4649	European Envioronmental Agency (EEA)	2025-12-28	47.17434841666667	24.159666061401367	10.900267601013184	Good	Good	
66	SPO_NO0075A_5_544	Lillehammer barnehage	Norway	background	61.1209	10.4656	European Envioronmental Agency (EEA)	2025-12-28	32.959909625	14.663506507873535	9.804244041442871	Good	Good	
67	SPO_NO0079A_5_392	Hansjordnesbukta	Norway	traffic	69.6562	18.9637	European Envioronmental Agency (EEA)	2025-12-28	6.538124600000001	6.548475742340088	6.70329475402832	Good	Good	
68	SPO_NO0124A_5_2957	Rambergan	Norway	background	69.6543	18.9564	European Envioronmental Agency (EEA)	2025-12-28	7.007458	6.135181427001953	7.227323532104492	Good	Good	
69	SPO_NO0084A_5_967	St.Croix	Norway	traffic	59.2103	10.9454	European Envioronmental Agency (EEA)	2025-12-28	29.254361708333334	12.231693267822266	8.492502212524414	Good	Good	
70	SPO_NO0114A_5_2325	Bekkestua	Norway	background	59.9182	10.5839	European Envioronmental Agency (EEA)	2025-12-28	20.562500000000004	11.624293327331543	7.118869304656982	Good	Good	
71	SPO_NO0110A_5_2064	Alvim	Norway	traffic	59.2738	11.0892	European Envioronmental Agency (EEA)	2025-12-28	28.40206291666667	9.08603286743164	6.020243167877197	Good	Good	
72	SPO_NO0112A_5_1221	Kransen	Norway	traffic	59.4335	10.6618	European Envioronmental Agency (EEA)	2025-12-28	17.02916775	9.65468692779541	4.543814659118652	Good	Good	
73	SPO_NO0119A_5_2701	Leiret	Norway	traffic	60.8836	11.5593	European Envioronmental Agency (EEA)	2025-12-28	77.91303854166667	12.01311206817627	5.916649341583252	Good	Good	
74	SPO_NO0128A_5_2972	Nedre Langgate	Norway	traffic	59.2637	10.4112	European Envioronmental Agency (EEA)	2025-12-28	11.382065666666668	7.743518829345703	4.9694437980651855	Good	Good	
75	SPO_NO0129A_5_2950	Solheim	Norway	traffic	59.9286	10.9532	European Envioronmental Agency (EEA)	2025-12-28	27.507365375000003	19.218338012695312	11.854918479919434	Good	Good	
76	SPO_NO0127A_5_2964	Seljestad Rv83	Norway	traffic	68.7922	16.5374	European Envioronmental Agency (EEA)	2025-12-28	7.634271125000001	2.9048659801483154	2.462455987930298	Good	Good	
77	SPO_NO0130A_5_3000	Ringsakervegen	Norway	traffic	60.8859	10.9379	European Envioronmental Agency (EEA)	2025-12-28	48.42500000000001	31.967493057250977	12.991281509399414	Moderate	Good	
78	FI_5_101983	Muonio Sammaltunturi	Finland		67.97	24.12	Finnish Meteorological Institute (FMI)	2025-12-28	3.758333333333333	1.9661717414855957	1.5722848176956177	Good	Good	
