	Station Code	Station Name	Country	Station type	Latitude	Longitude	Network	Date	PM10 measured concentration (microg/m^3)	PM10 today forecast mean concentration (microg/m^3)	PM10 tomorrow forecast mean concentration (microg/m^3)	Today air quality	Tomorrow air quality	Actions
0	SPO-DK0034A_00005_100	Copenhagen/1103	Denmark	traffic	55.6743	12.5711	European Envioronmental Agency (EEA)	2026-01-30		57.453369140625	57.00041580200195	Unhealthy	Unhealthy	
1	SPO-DK0012R_00005_101	Risoe	Denmark	background	55.6942	12.0889	European Envioronmental Agency (EEA)	2026-01-30		20.449026107788086	22.76849365234375	Good	Good	
2	SPO-FI00349_00005_100	Utö	Finland	background	59.7792	21.374	European Envioronmental Agency (EEA)	2026-01-30	2.5078875833333334	2.8523101806640625	4.193819522857666	Good	Good	
3	SPO-FI00427_00005_100	Matorova	Finland	background	68.0005	24.2457	European Envioronmental Agency (EEA)	2026-01-30	0.5834537083333333	1.8693513870239258	2.030519962310791	Good	Good	
4	SPO-FI00549_00005_100	Pirkankatu	Finland	traffic	61.4987	23.7357	European Envioronmental Agency (EEA)	2026-01-30	18.554104250000005	7.663620471954346	6.177332878112793	Good	Good	
5	SPO-FI00838_00005_100	Epila 2	Finland	traffic	61.5085	23.6758	European Envioronmental Agency (EEA)	2026-01-30	15.899361625000003	5.593025207519531	5.794160842895508	Good	Good	
6	SPO-FI00208_00005_101	Luukki	Finland	background	60.3144	24.6849	European Envioronmental Agency (EEA)	2026-01-30	6.235328750000001	4.781976222991943	5.159305095672607	Good	Good	
7	SPO-FI00370_00005_100	Tikkurila 3	Finland	traffic	60.2899	25.0395	European Envioronmental Agency (EEA)	2026-01-30	19.5619135	8.053017616271973	8.57646656036377	Good	Good	
8	SPO-FI00425_00005_100	Kallio 2	Finland	background	60.1874	24.9506	European Envioronmental Agency (EEA)	2026-01-30	14.250806500000001	7.324359893798828	7.315463542938232	Good	Good	
9	SPO-FI00564_00005_100	Mannerheimintie	Finland	traffic	60.1696	24.9392	European Envioronmental Agency (EEA)	2026-01-30	13.927921375000002	6.858808994293213	7.597782135009766	Good	Good	
10	SPO-FI00781_00005_100	Vartiokylä Huivipolku	Finland	background	60.2239	25.1024	European Envioronmental Agency (EEA)	2026-01-30	13.203483416666666	7.12506628036499	8.160329818725586	Good	Good	
11	SPO-FI00841_00005_100	Leppävaara 4	Finland	traffic	60.2202	24.8113	European Envioronmental Agency (EEA)	2026-01-30	18.7618405	8.450129508972168	9.199516296386719	Good	Good	
12	SPO-FI00301_00005_100	Pyykösjärvi	Finland	background	65.0434	25.4979	European Envioronmental Agency (EEA)	2026-01-30	3.891472333333333	3.1083412170410156	3.003610610961914	Good	Good	
13	SPO-FI00446_00005_100	Oulun keskusta 2	Finland	traffic	65.01	25.4713	European Envioronmental Agency (EEA)	2026-01-30	5.173221708333334	3.4373016357421875	3.2656309604644775	Good	Good	
14	SPO-FI00952_00005_100	Jyväskylä Hannikaisenkatu	Finland	traffic	62.2382	25.7479	European Envioronmental Agency (EEA)	2026-01-30	32.15890375	8.294962882995605	8.362905502319336	Good	Good	
15	SPO-FI00455_00005_100	Laune	Finland	traffic	60.967	25.6549	European Envioronmental Agency (EEA)	2026-01-30	15.185230833333335	4.557693958282471	5.867819786071777	Good	Good	
16	SPO-FI00889_00005_100	Saimaankatu	Finland	traffic	60.9913	25.6658	European Envioronmental Agency (EEA)	2026-01-30	10.771403083333333	4.955984592437744	5.747697353363037	Good	Good	
17	SPO-FI00444_00005_100	Naantalin keskusta	Finland	traffic	60.4674	22.0284	European Envioronmental Agency (EEA)	2026-01-30	19.192993750000003	6.695310592651367	7.349875450134277	Good	Good	
18	SPO-FI00558_00005_100	Maaherrankatu	Finland	traffic	62.8933	27.6869	European Envioronmental Agency (EEA)	2026-01-30	10.449368458333334	7.2326178550720215	7.384881019592285	Good	Good	
19	SPO-FI00839_00005_100	Tasavallankatu	Finland	traffic	62.882	27.6619	European Envioronmental Agency (EEA)	2026-01-30	8.863248833333333	12.169215202331543	11.73835277557373	Good	Good	
20	SPO-FI00928_00005_100	Pori Paanakedonkatu	Finland	traffic	61.4823	21.8133	European Envioronmental Agency (EEA)	2026-01-30	53.413562375	20.416658401489258	19.911836624145508	Good	Good	
21	SPO-FI00424_00005_100	Mansikkala	Finland	traffic	61.1889	28.7701	European Envioronmental Agency (EEA)	2026-01-30	8.872666583333332	5.890852451324463	6.359617710113525	Good	Good	
22	SPO-FI00433_00005_100	Teppanala	Finland	industrial	61.153	28.8101	European Envioronmental Agency (EEA)	2026-01-30	8.841586291666667	9.248902320861816	8.841767311096191	Good	Good	
23	SPO-FI00606_00005_100	Lappeenrannan keskusta 4	Finland	traffic	61.0558	28.1843	European Envioronmental Agency (EEA)	2026-01-30	9.807483458333333	7.184181213378906	8.063233375549316	Good	Good	
24	SPO-FI00972_00005_100	Lohja Harjula	Finland	background	60.249	24.0695	European Envioronmental Agency (EEA)	2026-01-30	20.968703291666667	7.127236843109131	7.135202884674072	Good	Good	
25	SPO-FI00892_00005_100	Kankaan Koulu	Finland	traffic	60.8704	26.701	European Envioronmental Agency (EEA)	2026-01-30	10.506302333333334	6.173360347747803	6.281088352203369	Good	Good	
26	SPO-FI00179_00005_100	Pirkkala	Finland	industrial	61.3316	22.1431	European Envioronmental Agency (EEA)	2026-01-30	12.977030541666666	5.389825344085693	6.015291213989258	Good	Good	
27	SPO-FI00184_00005_100	Kaleva	Finland	industrial	61.3135	22.135	European Envioronmental Agency (EEA)	2026-01-30	11.882460291666668	5.720792293548584	6.401308059692383	Good	Good	
28	SPO-FI00397_00005_100	Bottenviksvägen	Finland	traffic	63.6791	22.7184	European Envioronmental Agency (EEA)	2026-01-30	15.543244916666668	1.3380489349365234	5.675028324127197	Good	Good	
29	SPO-IS0005A_00005_103	Reykjavik Grensas	Iceland	traffic	64.1301	-21.8747	European Envioronmental Agency (EEA)	2026-01-30	117.56034166666667	22.888761520385742	24.20383644104004	Good	Good	
30	SPO-IS0052A_00005_100	Akureyri Strandgata (við Hof)	Iceland	traffic	65.6841	-18.0882	European Envioronmental Agency (EEA)	2026-01-30	48.166666666666664	15.151408195495605	12.78005313873291	Good	Good	
31	SPO-IS0025A_00005_100	Grundartangi Kríuvarða	Iceland	industrial	64.3736	-21.7591	European Envioronmental Agency (EEA)	2026-01-30		8.356169700622559	8.212903022766113	Good	Good	
32	SPO-IS0041A_00005_100	Grundartangi Gröf	Iceland	industrial	64.3342	-21.8357	European Envioronmental Agency (EEA)	2026-01-30	13.844991666666665	6.368410587310791	6.531723499298096	Good	Good	
33	SPO-IS0037A_00005_100	Kópavogur Dalsmári	Iceland	background	64.105	-21.889	European Envioronmental Agency (EEA)	2026-01-30	55.92668750000001	17.200597763061523	17.7253475189209	Good	Good	
34	SPO-IS0046A_00005_101	Hafnarfjörður Norðurhella	Iceland	background	64.0442	-21.9854	European Envioronmental Agency (EEA)	2026-01-30	5.5903583333333335	12.203059196472168	12.234161376953125	Good	Good	
35	SPO-IS0049A_00005_100	PCC norður	Iceland	industrial	66.0793	-17.3422	European Envioronmental Agency (EEA)	2026-01-30		2.333838701248169	1.6702615022659302	Good	Good	
36	SPO-IS0050A_00005_100	PCC suður	Iceland	industrial	66.0549	-17.3476	European Envioronmental Agency (EEA)	2026-01-30	2.2047494117647055	2.4977779388427734	1.5695499181747437	Good	Good	
37	SPO_NO0093A_5_1039	Hjortnes	Norway	traffic	59.9113	10.704	European Envioronmental Agency (EEA)	2026-01-30	24.4475	24.743865966796875	22.48414421081543	Good	Good	
38	SPO_NO0095A_5_934	Smestad	Norway	traffic	59.9325	10.6699	European Envioronmental Agency (EEA)	2026-01-30	5.399619291666667	12.38679027557373	11.729278564453125	Good	Good	
39	SPO_NO0122A_5_2945	E6 Alna senter	Norway	traffic	59.9256	10.8504	European Envioronmental Agency (EEA)	2026-01-30	5.306544833333334	3.5995140075683594	3.495314598083496	Good	Good	
40	SPO_NO0011A_5_19	Kirkeveien	Norway	traffic	59.9323	10.7245	European Envioronmental Agency (EEA)	2026-01-30	5.164475875000001	10.53207015991211	7.423676013946533	Good	Good	
41	SPO_NO0057A_5_41	Alnabru	Norway	traffic	59.9277	10.8466	European Envioronmental Agency (EEA)	2026-01-30	5.1045075833333335	5.137887477874756	5.089556694030762	Good	Good	
42	SPO_NO0072A_5_352	Skøyen	Norway	background	59.9197	10.6897	European Envioronmental Agency (EEA)	2026-01-30	4.321345	9.469794273376465	9.693411827087402	Good	Good	
43	SPO_NO0073A_5_552	Sofienbergparken	Norway	background	59.923	10.7657	European Envioronmental Agency (EEA)	2026-01-30	6.008557541666668	8.942839622497559	8.16154670715332	Good	Good	
44	SPO_NO0083A_5_793	Bygdøy Alle	Norway	traffic	59.9193	10.6965	European Envioronmental Agency (EEA)	2026-01-30	8.675	36.018558502197266	31.643617630004883	Moderate	Moderate	
45	SPO_NO0140A_5_3171	Spikersuppa	Norway	background	59.9141	10.736	European Envioronmental Agency (EEA)	2026-01-30	7.059927375	9.889020919799805	9.273566246032715	Good	Good	
46	SPO_NO0059A_5_11	Danmarks plass	Norway	traffic	60.3741	5.3404	European Envioronmental Agency (EEA)	2026-01-30	133.36281916666667	24.611886978149414	21.6584415435791	Good	Good	
47	SPO_NO0108A_5_2071	Rolland Åsane	Norway	background	60.4627	5.3324	European Envioronmental Agency (EEA)	2026-01-30	11.926095583333336	14.410319328308105	12.792998313903809	Good	Good	
48	SPO_NO0109A_5_2067	Loddefjord	Norway	traffic	60.3611	5.2369	European Envioronmental Agency (EEA)	2026-01-30	29.833242583333334	14.767085075378418	12.795226097106934	Good	Good	
49	SPO_NO0120A_5_2902	Klosterhaugen	Norway	background	60.3959	5.3127	European Envioronmental Agency (EEA)	2026-01-30	50.38625662500001	12.786209106445312	11.264966011047363	Good	Good	
50	SPO_NO0121A_5_2888	Rådal	Norway	traffic	60.2943	5.3246	European Envioronmental Agency (EEA)	2026-01-30	54.06443433333334	14.458613395690918	14.390893936157227	Good	Good	
51	SPO_NO0135A_5_3126	Backeparken	Norway	background	59.7495	10.1653	European Envioronmental Agency (EEA)	2026-01-30		8.015205383300781	8.231435775756836	Good	Good	
52	SPO_NO0136A_5_3124	Vårveien	Norway	traffic	59.7536	10.1444	European Envioronmental Agency (EEA)	2026-01-30	10.285013208333334	5.278076648712158	6.193960666656494	Good	Good	
53	SPO_NO0060A_5_1685	Elgeseter	Norway	traffic	63.4174	10.3968	European Envioronmental Agency (EEA)	2026-01-30	17.622466083333336	23.951950073242188	16.57001304626465	Good	Good	
54	SPO_NO0102A_5_1530	E6-Tiller	Norway	traffic	63.3576	10.3717	European Envioronmental Agency (EEA)	2026-01-30		33.018592834472656	27.895751953125	Moderate	Moderate	
55	SPO_NO0106A_5_1231	Sverresgate	Norway	traffic	59.1382	9.6522	European Envioronmental Agency (EEA)	2026-01-30	6.398333333333333	4.431835651397705	1.9031962156295776	Good	Good	
56	SPO_NO0115A_5_2473	Furulund	Norway	industrial	59.0573	9.6956	European Envioronmental Agency (EEA)	2026-01-30	6.4872456666666665	5.437314510345459	3.7174012660980225	Good	Good	
57	SPO_NO0118A_5_2723	Knarrdalstranda	Norway	background	59.1335	9.6219	European Envioronmental Agency (EEA)	2026-01-30	5.802802	9.220623970031738	6.505077362060547	Good	Good	
58	SPO_NO0063A_5_192	Stener Heyerdahl	Norway	background	58.1489	7.9918	European Envioronmental Agency (EEA)	2026-01-30	6.8723396249999995	6.547405242919922	8.84481430053711	Good	Good	
59	SPO_NO0065A_5_52	Våland	Norway	background	58.9616	5.7314	European Envioronmental Agency (EEA)	2026-01-30	9.9350715	10.04234790802002	8.07858657836914	Good	Good	
60	SPO_NO0076A_5_46	Kannik	Norway	traffic	58.9642	5.7279	European Envioronmental Agency (EEA)	2026-01-30	32.665984916666666	13.015501976013184	11.476247787475586	Good	Good	
61	SPO_NO0125A_5_3017	Schancheholen	Norway	traffic	58.9519	5.7219	European Envioronmental Agency (EEA)	2026-01-30	10.775142	11.947569847106934	10.608428001403809	Good	Good	
62	SPO_NO0074A_5_539	Bankplassen	Norway	traffic	61.1129	10.4649	European Envioronmental Agency (EEA)	2026-01-30	20.515324958333334	13.25765609741211	7.4263529777526855	Good	Good	
63	SPO_NO0075A_5_544	Lillehammer barnehage	Norway	background	61.1209	10.4656	European Envioronmental Agency (EEA)	2026-01-30	35.334750250000006	9.835003852844238	7.24793004989624	Good	Good	
64	SPO_NO0079A_5_392	Hansjordnesbukta	Norway	traffic	69.6562	18.9637	European Envioronmental Agency (EEA)	2026-01-30	10.751659375000001	0.5057846307754517	-1.332697868347168	Good	Good	
65	SPO_NO0124A_5_2957	Rambergan	Norway	background	69.6543	18.9564	European Envioronmental Agency (EEA)	2026-01-30	6.457381666666667	9.597527503967285	8.15482234954834	Good	Good	
66	SPO_NO0084A_5_967	St.Croix	Norway	traffic	59.2103	10.9454	European Envioronmental Agency (EEA)	2026-01-30	36.428732375	5.664244174957275	4.971681118011475	Good	Good	
67	SPO_NO0114A_5_2325	Bekkestua	Norway	background	59.9182	10.5839	European Envioronmental Agency (EEA)	2026-01-30	4.733333333333333	4.823702812194824	4.856953144073486	Good	Good	
68	SPO_NO0110A_5_2064	Alvim	Norway	traffic	59.2738	11.0892	European Envioronmental Agency (EEA)	2026-01-30	22.086374958333334	3.9777419567108154	2.6178290843963623	Good	Good	
69	SPO_NO0112A_5_1221	Kransen	Norway	traffic	59.4335	10.6618	European Envioronmental Agency (EEA)	2026-01-30	7.823194291666667	0.531304657459259	0.7074682712554932	Good	Good	
70	SPO_NO0119A_5_2701	Leiret	Norway	traffic	60.8836	11.5593	European Envioronmental Agency (EEA)	2026-01-30	6.783994333333333	2.6570558547973633	3.9798965454101562	Good	Good	
71	SPO_NO0128A_5_2972	Nedre Langgate	Norway	traffic	59.2637	10.4112	European Envioronmental Agency (EEA)	2026-01-30	6.928307333333334	1.8874402046203613	2.143077850341797	Good	Good	
72	SPO_NO0129A_5_2950	Solheim	Norway	traffic	59.9286	10.9532	European Envioronmental Agency (EEA)	2026-01-30	7.299247083333334	3.934389114379883	2.366663694381714	Good	Good	
73	SPO_NO0127A_5_2964	Seljestad Rv83	Norway	traffic	68.7922	16.5374	European Envioronmental Agency (EEA)	2026-01-30	17.717620833333335	22.265207290649414	17.898681640625	Good	Good	
74	SPO_NO0130A_5_3000	Ringsakervegen	Norway	traffic	60.8859	10.9379	European Envioronmental Agency (EEA)	2026-01-30	15.154166666666667	11.910908699035645	7.694146633148193	Good	Good	
75	SPO-SE0001A_00005_100	Malmö Rådhuset	Sweden	background	55.6064	13.002	European Envioronmental Agency (EEA)	2026-01-30	9.051666666666668	11.155349731445312	11.22896671295166	Good	Good	
76	SPO-SE0058A_00005_100	Malmö Dalaplan	Sweden	traffic	55.5847	13.0062	European Envioronmental Agency (EEA)	2026-01-30	8.842500000000001	13.239994049072266	14.429069519042969	Good	Good	
77	SPO-SE0085A_00005_101	Helsingborg Drottninggatan	Sweden	traffic	56.0472	12.6916	European Envioronmental Agency (EEA)	2026-01-30	7.912833333333334	9.974462509155273	9.52772045135498	Good	Good	
78	SPO-SE38350_00005_100	Lund Trollebergsvägen	Sweden	traffic	55.7033	13.1803	European Envioronmental Agency (EEA)	2026-01-30	8.605833333333335	9.704896926879883	9.244937896728516	Good	Good	
79	SPO-SE344172_00005_100	Västerås Stora Gatan 78	Sweden	traffic	59.6077	16.5359	European Envioronmental Agency (EEA)	2026-01-30	63.770833333333336	8.835538864135742	8.272098541259766	Good	Good	
80	SPO-SE0003A_00005_100	Stockholm Hornsgatan 108 Gata	Sweden	traffic	59.3172	18.0487	European Envioronmental Agency (EEA)	2026-01-30	13.505087458333334	-0.4282186031341553	1.266048789024353	Good	Good	
81	SPO-SE0022A_00005_100	Stockholm Torkel Knutssongatan	Sweden	background	59.316	18.0578	European Envioronmental Agency (EEA)	2026-01-30	4.388279083333334	1.3830510377883911	2.1494686603546143	Good	Good	
82	SPO-SE0027A_00005_100	Stockholm Sveavägen 59 Gata	Sweden	traffic	59.3408	18.0583	European Envioronmental Agency (EEA)	2026-01-30	20.726354083333337	3.598057508468628	4.844959735870361	Good	Good	
83	SPO-SE0066A_00005_100	Norr Malma	Sweden	background	59.8324	18.6313	European Envioronmental Agency (EEA)	2026-01-30	2.4313625	2.823645830154419	3.768970012664795	Good	Good	
84	SPO-SE0071A_00005_100	Sollentuna E4 Häggvik	Sweden	traffic	59.4435	17.9224	European Envioronmental Agency (EEA)	2026-01-30	9.099995708333333	4.990339756011963	5.473250389099121	Good	Good	
85	SPO-SE0072A_00005_100	Södertälje Turingegatan 26	Sweden	traffic	59.1981	17.6211	European Envioronmental Agency (EEA)	2026-01-30	11.028245833333335	-3.1976184844970703	-2.900158405303955	Good	Good	
86	SPO-SE0117A_00005_101	Visby Österväg 17	Sweden	traffic	57.6369	18.3036	European Envioronmental Agency (EEA)	2026-01-30	43.82408333333334	17.060277938842773	21.071788787841797	Good	Good	
87	SPO-SE156417_00005_100	Uppsala Kungsgatan 67	Sweden	traffic	59.8571	17.6463	European Envioronmental Agency (EEA)	2026-01-30	11.56052075	6.576587677001953	5.445033073425293	Good	Good	
88	SPO-SE157992_00005_100	Stockholm St Eriksgatan 83	Sweden	traffic	59.3405	18.037	European Envioronmental Agency (EEA)	2026-01-30	20.040879125	-2.4474594593048096	-0.6117720603942871	Good	Good	
89	SPO-SE159402_00005_100	Sollentuna Danderydsvägen	Sweden	traffic	59.4459	17.955	European Envioronmental Agency (EEA)	2026-01-30	6.134741625	-0.8003180623054504	0.617351770401001	Good	Good	
90	SPO-SE159404_00005_100	Uppsala Dragarbrunnsgatan 23 tak	Sweden	background	59.8605	17.6376	European Envioronmental Agency (EEA)	2026-01-30	14.316087458333334	5.758238315582275	5.181201934814453	Good	Good	
91	SPO-SE274652_00005_100	Sollentuna Sollentunavägen 192	Sweden	traffic	59.4336	17.9497	European Envioronmental Agency (EEA)	2026-01-30	9.578983291666667	2.7663962841033936	3.6721465587615967	Good	Good	
92	SPO-SE301111_00005_100	Norrköping Kungsgatan 32	Sweden	traffic	58.5915	16.1779	European Envioronmental Agency (EEA)	2026-01-30	8.568512416666666	-1.63760507106781	-1.5415737628936768	Good	Good	
93	SPO-SE301113_00005_100	Norrköping Trädgårdsgatan 21	Sweden	background	58.592	16.1893	European Envioronmental Agency (EEA)	2026-01-30	7.015099916666668	1.9533189535140991	2.036292314529419	Good	Good	
94	SPO-SE301757_00005_100	Sundbyberg Tulegatan 9	Sweden	traffic	59.3643	17.9763	European Envioronmental Agency (EEA)	2026-01-30	6.596837458333334	-3.22383975982666	-2.3521738052368164	Good	Good	
95	SPO-SE313381_00005_100	Visby Brömsebroväg 8	Sweden	background	57.6399	18.3097	European Envioronmental Agency (EEA)	2026-01-30	15.603974833333334	8.295130729675293	9.378556251525879	Good	Good	
96	SPO-SE338683_00005_100	Gävle Staketgatan 22	Sweden	traffic	60.6762	17.1376	European Envioronmental Agency (EEA)	2026-01-30	7.238533291666667	3.2444257736206055	5.018065929412842	Good	Good	
97	SPO-SE338685_00005_100	Linköping Hamngatan 10	Sweden	traffic	58.4124	15.6301	European Envioronmental Agency (EEA)	2026-01-30	31.258479083333338	0.4362381398677826	-1.3277995586395264	Good	Good	
98	SPO-SE37479_00005_100	Sollentuna Ekmans Väg 11	Sweden	traffic	59.489	17.9199	European Envioronmental Agency (EEA)	2026-01-30	5.763691666666667	3.200961112976074	4.045906066894531	Good	Good	
99	SPO-SE0004A_00005_100	Göteborg Femman	Sweden	background	57.709	11.9702	European Envioronmental Agency (EEA)	2026-01-30	15.570828333333333	11.076054573059082	10.372322082519531	Good	Good	
100	SPO-SE0005R_00005_101	Bredkälen	Sweden	background	63.8455	15.3197	European Envioronmental Agency (EEA)	2026-01-30	1.8	1.0628958940505981	1.1469738483428955	Good	Good	
101	SPO-SE0014R_00005_100	Råö	Sweden	background	57.3936	11.9142	European Envioronmental Agency (EEA)	2026-01-30	3.1374999999999997	3.9512665271759033	4.31277322769165	Good	Good	
102	SPO-SE159388_00005_101	Norunda Stenen	Sweden	background	60.0858	17.5053	European Envioronmental Agency (EEA)	2026-01-30	9.128991260869565	3.9252281188964844	3.795614719390869	Good	Good	
103	SPO-SE0021A_00005_100	Göteborg Gårda	Sweden	traffic	57.7009	11.9946	European Envioronmental Agency (EEA)	2026-01-30	38.49583333333334	29.866586685180664	27.27448272705078	Moderate	Moderate	
104	SPO-SE0067A_00005_100	Göteborg Haga	Sweden	traffic	57.6979	11.9605	European Envioronmental Agency (EEA)	2026-01-30	40.75697458333333	18.56342124938965	17.425931930541992	Good	Good	
105	SPO-SE274590_00005_100	Göteborg Övre Husargatan	Sweden	traffic	57.6937	11.9568	European Envioronmental Agency (EEA)	2026-01-30	18.66118125	14.947311401367188	14.25624942779541	Good	Good	
106	SPO-SE165095_00005_100	Hedemora Gussarvsgatan	Sweden	traffic	60.2814	15.9891	European Envioronmental Agency (EEA)	2026-01-30	6.211958333333334	4.280807971954346	9.170071601867676	Good	Good	
107	SPO-SE313140_00005_100	Örnsköldsvik Centralesplanaden - Nygatan 24	Sweden	traffic	63.2918	18.7175	European Envioronmental Agency (EEA)	2026-01-30	3.1	2.6823508739471436	6.07871675491333	Good	Good	
108	SPO-SE181002_00005_100	Växjö Liedbergsgatan 11	Sweden	traffic	56.8799	14.7993	European Envioronmental Agency (EEA)	2026-01-30	19.558333333333337	9.902604103088379	8.667314529418945	Good	Good	
109	SPO-SE32288_00005_100	Karlskrona N Smedjegatan Ö Köpmansgatan	Sweden	traffic	56.164	15.5889	European Envioronmental Agency (EEA)	2026-01-30	7.441666666666667	5.786498546600342	5.199111461639404	Good	Good	
110	SPO-SE181993_00005_100	Kalmar Södra Vägen	Sweden	traffic	56.6642	16.3336	European Envioronmental Agency (EEA)	2026-01-30	27.675	9.417357444763184	7.500308990478516	Good	Good	
111	SPO-SE181259_00005_100	Östersund Rådhusgatan	Sweden	traffic	63.1739	14.6411	European Envioronmental Agency (EEA)	2026-01-30	2.6374999999999997	-4.680324554443359	-6.501034736633301	Good	Good	
112	SPO-SE0059A_00005_100	Umeå Västra Esplanaden	Sweden	traffic	63.8289	20.2585	European Envioronmental Agency (EEA)	2026-01-30	4.170833333333333	1.6905630826950073	5.590915679931641	Good	Good	
113	FI_5_101983	Muonio Sammaltunturi	Finland		67.97	24.12	Finnish Meteorological Institute (FMI)	2026-01-30	1.2041666666666666	2.161944627761841	2.2294118404388428	Good	Good	
