	Station Code	Station Name	Country	Station type	Latitude	Longitude	Network	Date	PM10 measured concentration (microg/m^3)	PM10 today forecast mean concentration (microg/m^3)	PM10 tomorrow forecast mean concentration (microg/m^3)	Today air quality	Tomorrow air quality	Actions
0	SPO-DK0034A_00005_100	Copenhagen/1103	Denmark	traffic	55.6743	12.5711	European Envioronmental Agency (EEA)	2025-05-11		32.06149673461914	28.51708221435547	Moderate	Moderate	
1	SPO-DK0012R_00005_101	Risoe	Denmark	background	55.6942	12.0889	European Envioronmental Agency (EEA)	2025-05-11	5.962500000000001	5.594850063323975	8.340051651000977	Good	Good	
2	SPO-FI00570_00005_100	Raahen keskusta 2	Finland	traffic	64.6834	24.4816	European Envioronmental Agency (EEA)	2025-05-11	9.899415791666668	10.061298370361328	6.09820032119751	Good	Good	
3	SPO-FI00349_00005_100	Utö	Finland	background	59.7792	21.374	European Envioronmental Agency (EEA)	2025-05-11	4.071074333333334	3.2653026580810547	3.5325138568878174	Good	Good	
4	SPO-FI00427_00005_100	Matorova	Finland	background	68.0005	24.2457	European Envioronmental Agency (EEA)	2025-05-11	2.3227485	2.1642510890960693	1.9998070001602173	Good	Good	
5	SPO-FI00838_00005_100	Epila 2	Finland	traffic	61.5085	23.6758	European Envioronmental Agency (EEA)	2025-05-11	10.585169375000001	10.184819221496582	10.884342193603516	Good	Good	
6	SPO-FI00208_00005_101	Luukki	Finland	background	60.3144	24.6849	European Envioronmental Agency (EEA)	2025-05-11	5.853101875	4.440072536468506	4.551141262054443	Good	Good	
7	SPO-FI00370_00005_100	Tikkurila 3	Finland	traffic	60.2899	25.0395	European Envioronmental Agency (EEA)	2025-05-11	8.835059166666667	7.529325008392334	7.261569499969482	Good	Good	
8	SPO-FI00425_00005_100	Kallio 2	Finland	background	60.1874	24.9506	European Envioronmental Agency (EEA)	2025-05-11	7.782079708333335	6.7097601890563965	7.163450717926025	Good	Good	
9	SPO-FI00564_00005_100	Mannerheimintie	Finland	traffic	60.1696	24.9392	European Envioronmental Agency (EEA)	2025-05-11	16.76618875	16.38076400756836	16.769140243530273	Good	Good	
10	SPO-FI00781_00005_100	Vartiokylä Huivipolku	Finland	background	60.2239	25.1024	European Envioronmental Agency (EEA)	2025-05-11	8.193438375000001	6.662790775299072	6.308255195617676	Good	Good	
11	SPO-FI00841_00005_100	Leppävaara 4	Finland	traffic	60.2202	24.8113	European Envioronmental Agency (EEA)	2025-05-11	10.546386583333332	10.646626472473145	9.784056663513184	Good	Good	
12	SPO-FI00301_00005_100	Pyykösjärvi	Finland	background	65.0434	25.4979	European Envioronmental Agency (EEA)	2025-05-11	9.939333750000001	8.24223804473877	7.928544998168945	Good	Good	
13	SPO-FI00446_00005_100	Oulun keskusta 2	Finland	traffic	65.01	25.4713	European Envioronmental Agency (EEA)	2025-05-11	16.449182708333336	14.765950202941895	12.57215404510498	Good	Good	
14	SPO-FI00952_00005_100	Jyväskylä Hannikaisenkatu	Finland	traffic	62.2382	25.7479	European Envioronmental Agency (EEA)	2025-05-11	8.891503833333333	7.7525787353515625	8.793929100036621	Good	Good	
15	SPO-FI00455_00005_100	Laune	Finland	traffic	60.967	25.6549	European Envioronmental Agency (EEA)	2025-05-11	10.568291375000001	11.184898376464844	10.301324844360352	Good	Good	
16	SPO-FI00889_00005_100	Saimaankatu	Finland	traffic	60.9913	25.6658	European Envioronmental Agency (EEA)	2025-05-11	7.094838916666667	7.08923864364624	7.449254035949707	Good	Good	
17	SPO-FI00444_00005_100	Naantalin keskusta	Finland	traffic	60.4674	22.0284	European Envioronmental Agency (EEA)	2025-05-11	6.6055919166666675	4.390818119049072	5.295181751251221	Good	Good	
18	SPO-FI00558_00005_100	Maaherrankatu	Finland	traffic	62.8933	27.6869	European Envioronmental Agency (EEA)	2025-05-11	7.278453083333335	9.392518997192383	9.712048530578613	Good	Good	
19	SPO-FI00839_00005_100	Tasavallankatu	Finland	traffic	62.882	27.6619	European Envioronmental Agency (EEA)	2025-05-11	7.1283295833333336	9.295507431030273	9.774225234985352	Good	Good	
20	SPO-FI00928_00005_100	Pori Paanakedonkatu	Finland	traffic	61.4823	21.8133	European Envioronmental Agency (EEA)	2025-05-11	8.241001	6.6132588386535645	7.668280124664307	Good	Good	
21	SPO-FI00424_00005_100	Mansikkala	Finland	traffic	61.1889	28.7701	European Envioronmental Agency (EEA)	2025-05-11	6.672105625	7.563601016998291	7.454142093658447	Good	Good	
22	SPO-FI00433_00005_100	Teppanala	Finland	industrial	61.153	28.8101	European Envioronmental Agency (EEA)	2025-05-11	5.917514416666667	6.478983402252197	6.75985050201416	Good	Good	
23	SPO-FI00434_00005_100	Joutsenon keskusta	Finland	traffic	61.1171	28.4985	European Envioronmental Agency (EEA)	2025-05-11	3.6366573750000004	6.3639960289001465	6.612689018249512	Good	Good	
24	SPO-FI00606_00005_100	Lappeenrannan keskusta 4	Finland	traffic	61.0558	28.1843	European Envioronmental Agency (EEA)	2025-05-11	5.804184500000001	7.261924743652344	7.309787750244141	Good	Good	
25	SPO-FI00972_00005_100	Lohja Harjula	Finland	background	60.249	24.0695	European Envioronmental Agency (EEA)	2025-05-11	7.842826416666668	6.861692905426025	6.623050689697266	Good	Good	
26	SPO-FI00892_00005_100	Kankaan Koulu	Finland	traffic	60.8704	26.701	European Envioronmental Agency (EEA)	2025-05-11	6.8646282916666665	8.543722152709961	8.149797439575195	Good	Good	
27	SPO-FI00179_00005_100	Pirkkala	Finland	industrial	61.3316	22.1431	European Envioronmental Agency (EEA)	2025-05-11	7.123987708333334	5.402149200439453	5.591329097747803	Good	Good	
28	SPO-FI00184_00005_100	Kaleva	Finland	industrial	61.3135	22.135	European Envioronmental Agency (EEA)	2025-05-11	8.659331625	6.996756076812744	6.544745922088623	Good	Good	
29	SPO-FI00465_00005_100	Vaasan keskusta	Finland	traffic	63.0951	21.6183	European Envioronmental Agency (EEA)	2025-05-11	6.419402333333333	4.540738582611084	4.63625955581665	Good	Good	
30	SPO-FI00397_00005_100	Bottenviksvägen	Finland	traffic	63.6791	22.7184	European Envioronmental Agency (EEA)	2025-05-11	11.160541291666668	8.088950157165527	6.294644355773926	Good	Good	
31	SPO-IS0005A_00005_103	Reykjavik Grensas	Iceland	traffic	64.1301	-21.8747	European Envioronmental Agency (EEA)	2025-05-11		14.514775276184082	26.65680694580078	Good	Moderate	
32	SPO-IS0052A_00005_100	Akureyri Strandgata (við Hof)	Iceland	traffic	65.6841	-18.0882	European Envioronmental Agency (EEA)	2025-05-11	4.956521739130435	8.237950325012207	19.738037109375	Good	Good	
33	SPO-IS0025A_00005_100	Grundartangi Kríuvarða	Iceland	industrial	64.3736	-21.7591	European Envioronmental Agency (EEA)	2025-05-11		6.175169467926025	9.75003433227539	Good	Good	
34	SPO-IS0041A_00005_100	Grundartangi Gröf	Iceland	industrial	64.3342	-21.8357	European Envioronmental Agency (EEA)	2025-05-11		0.23356996476650238	1.9282697439193726	Good	Good	
35	SPO-IS0037A_00005_100	Kópavogur Dalsmári	Iceland	background	64.105	-21.889	European Envioronmental Agency (EEA)	2025-05-11	3.5925041666666666	4.100771427154541	14.802666664123535	Good	Good	
36	SPO-IS0046A_00005_101	Hafnarfjörður Norðurhella	Iceland	background	64.0442	-21.9854	European Envioronmental Agency (EEA)	2025-05-11	5.644120833333335	4.848174571990967	7.156187057495117	Good	Good	
37	SPO-IS0049A_00005_100	PCC norður	Iceland	industrial	66.0793	-17.3422	European Envioronmental Agency (EEA)	2025-05-11		0.6467089653015137	1.4537001848220825	Good	Good	
38	SPO-IS0050A_00005_100	PCC suður	Iceland	industrial	66.0549	-17.3476	European Envioronmental Agency (EEA)	2025-05-11	1.433715	2.0837314128875732	7.115418910980225	Good	Good	
39	SPO_NO0071A_5_38	Manglerud	Norway	traffic	59.8986	10.8149	European Envioronmental Agency (EEA)	2025-05-11	12.805833333333334	14.120488166809082	17.364282608032227	Good	Good	
40	SPO_NO0093A_5_1039	Hjortnes	Norway	traffic	59.9113	10.704	European Envioronmental Agency (EEA)	2025-05-11	11.792916666666668	16.286863327026367	17.874969482421875	Good	Good	
41	SPO_NO0095A_5_934	Smestad	Norway	traffic	59.9325	10.6699	European Envioronmental Agency (EEA)	2025-05-11	15.621354625	17.20493507385254	22.581775665283203	Good	Good	
42	SPO_NO0122A_5_2945	E6 Alna senter	Norway	traffic	59.9256	10.8504	European Envioronmental Agency (EEA)	2025-05-11	12.83291029166667	13.707453727722168	18.807147979736328	Good	Good	
43	SPO_NO0057A_5_41	Alnabru	Norway	traffic	59.9277	10.8466	European Envioronmental Agency (EEA)	2025-05-11	10.288996708333334	13.600228309631348	17.99846839904785	Good	Good	
44	SPO_NO0072A_5_352	Skøyen	Norway	background	59.9197	10.6897	European Envioronmental Agency (EEA)	2025-05-11	12.235546833333332	12.293169975280762	13.335297584533691	Good	Good	
45	SPO_NO0073A_5_552	Sofienbergparken	Norway	background	59.923	10.7657	European Envioronmental Agency (EEA)	2025-05-11	11.512175083333332	13.387451171875	14.244690895080566	Good	Good	
46	SPO_NO0083A_5_793	Bygdøy Alle	Norway	traffic	59.9193	10.6965	European Envioronmental Agency (EEA)	2025-05-11	12.183333333333332	13.367222785949707	15.365401268005371	Good	Good	
47	SPO_NO0140A_5_3171	Spikersuppa	Norway	background	59.9141	10.736	European Envioronmental Agency (EEA)	2025-05-11	11.092759875	12.642291069030762	12.711957931518555	Good	Good	
48	SPO_NO0143A_5_3173	Vahl skole	Norway	traffic	59.9169	10.766	European Envioronmental Agency (EEA)	2025-05-11	9.895833333333334	11.502238273620605	12.051599502563477	Good	Good	
49	SPO_NO0059A_5_11	Danmarks plass	Norway	traffic	60.3741	5.3404	European Envioronmental Agency (EEA)	2025-05-11	10.707757291666667	7.943725109100342	11.40975284576416	Good	Good	
50	SPO_NO0108A_5_2071	Rolland Åsane	Norway	background	60.4627	5.3324	European Envioronmental Agency (EEA)	2025-05-11	11.845120041666666	5.487008571624756	8.009035110473633	Good	Good	
51	SPO_NO0109A_5_2067	Loddefjord	Norway	traffic	60.3611	5.2369	European Envioronmental Agency (EEA)	2025-05-11	11.330413958333333	8.661760330200195	11.250635147094727	Good	Good	
52	SPO_NO0120A_5_2902	Klosterhaugen	Norway	background	60.3959	5.3127	European Envioronmental Agency (EEA)	2025-05-11	11.022754083333332	7.612687587738037	9.321301460266113	Good	Good	
53	SPO_NO0121A_5_2888	Rådal	Norway	traffic	60.2943	5.3246	European Envioronmental Agency (EEA)	2025-05-11	12.397524666666667	10.074963569641113	12.05005168914795	Good	Good	
54	SPO_NO0135A_5_3126	Backeparken	Norway	background	59.7495	10.1653	European Envioronmental Agency (EEA)	2025-05-11	13.104166666666666	12.359161376953125	11.766695976257324	Good	Good	
55	SPO_NO0136A_5_3124	Vårveien	Norway	traffic	59.7536	10.1444	European Envioronmental Agency (EEA)	2025-05-11	12.383333333333335	14.382052421569824	15.185995101928711	Good	Good	
56	SPO_NO0060A_5_1685	Elgeseter	Norway	traffic	63.4174	10.3968	European Envioronmental Agency (EEA)	2025-05-11	21.206666583333334	17.30300521850586	18.06352424621582	Good	Good	
57	SPO_NO0102A_5_1530	E6-Tiller	Norway	traffic	63.3576	10.3717	European Envioronmental Agency (EEA)	2025-05-11	23.67654625	13.7716703414917	15.393206596374512	Good	Good	
58	SPO_NO0145A_5_3060	Omkjøringsvegen	Norway	traffic	63.4105	10.4444	European Envioronmental Agency (EEA)	2025-05-11	13.545761916666669	8.654346466064453	10.678764343261719	Good	Good	
59	SPO_NO0061A_5_713	Lensmannsdalen	Norway	traffic	59.1593	9.6357	European Envioronmental Agency (EEA)	2025-05-11	19.415000000000003	20.887035369873047	22.72112274169922	Good	Good	
60	SPO_NO0106A_5_1231	Sverresgate	Norway	traffic	59.1382	9.6522	European Envioronmental Agency (EEA)	2025-05-11	16.70625	17.881593704223633	17.724096298217773	Good	Good	
61	SPO_NO0115A_5_2473	Furulund	Norway	industrial	59.0573	9.6956	European Envioronmental Agency (EEA)	2025-05-11	14.325143166666669	13.129291534423828	12.894287109375	Good	Good	
62	SPO_NO0118A_5_2723	Knarrdalstranda	Norway	background	59.1335	9.6219	European Envioronmental Agency (EEA)	2025-05-11	22.68222029166667	19.310253143310547	20.329639434814453	Good	Good	
63	SPO_NO0063A_5_192	Stener Heyerdahl	Norway	background	58.1489	7.9918	European Envioronmental Agency (EEA)	2025-05-11	14.695571125	15.005030632019043	11.478689193725586	Good	Good	
64	SPO_NO0134A_5_3121	Bjørndalssletta	Norway	traffic	58.1623	8.0238	European Envioronmental Agency (EEA)	2025-05-11	13.211926666666665	12.329681396484375	10.120282173156738	Good	Good	
65	SPO_NO0065A_5_52	Våland	Norway	background	58.9616	5.7314	European Envioronmental Agency (EEA)	2025-05-11	19.014492083333334	12.894744873046875	10.60326099395752	Good	Good	
66	SPO_NO0076A_5_46	Kannik	Norway	traffic	58.9642	5.7279	European Envioronmental Agency (EEA)	2025-05-11	17.78571008333333	13.470181465148926	10.861520767211914	Good	Good	
67	SPO_NO0125A_5_3017	Schancheholen	Norway	traffic	58.9519	5.7219	European Envioronmental Agency (EEA)	2025-05-11	16.001052833333336	11.222683906555176	9.55787181854248	Good	Good	
68	SPO_NO0141A_5_3178	Vågen	Norway	background	58.9726	5.7265	European Envioronmental Agency (EEA)	2025-05-11	18.521502833333333	12.889495849609375	9.278044700622559	Good	Good	
69	SPO_NO0075A_5_544	Lillehammer barnehage	Norway	background	61.1209	10.4656	European Envioronmental Agency (EEA)	2025-05-11	10.284821291666669	10.281140327453613	10.897943496704102	Good	Good	
70	SPO_NO0079A_5_392	Hansjordnesbukta	Norway	traffic	69.6562	18.9637	European Envioronmental Agency (EEA)	2025-05-11		61.317081451416016	39.86283874511719	Unhealthy	Moderate	
71	SPO_NO0124A_5_2957	Rambergan	Norway	background	69.6543	18.9564	European Envioronmental Agency (EEA)	2025-05-11	17.491833041666666	13.378483772277832	11.219600677490234	Good	Good	
72	SPO_NO0084A_5_967	St.Croix	Norway	traffic	59.2103	10.9454	European Envioronmental Agency (EEA)	2025-05-11	9.067607416666666	9.021931648254395	9.776080131530762	Good	Good	
73	SPO_NO0114A_5_2325	Bekkestua	Norway	background	59.9182	10.5839	European Envioronmental Agency (EEA)	2025-05-11	11.266666666666666	11.492321014404297	13.353074073791504	Good	Good	
74	SPO_NO0110A_5_2064	Alvim	Norway	traffic	59.2738	11.0892	European Envioronmental Agency (EEA)	2025-05-11	10.026672958333334	8.523211479187012	9.14932632446289	Good	Good	
75	SPO_NO0112A_5_1221	Kransen	Norway	traffic	59.4335	10.6618	European Envioronmental Agency (EEA)	2025-05-11	11.075763791666667	11.028542518615723	11.37147331237793	Good	Good	
76	SPO_NO0119A_5_2701	Leiret	Norway	traffic	60.8836	11.5593	European Envioronmental Agency (EEA)	2025-05-11	10.153020916666666	8.412386894226074	13.50547981262207	Good	Good	
77	SPO_NO0128A_5_2972	Nedre Langgate	Norway	traffic	59.2637	10.4112	European Envioronmental Agency (EEA)	2025-05-11	9.899918958333334	12.939480781555176	13.329523086547852	Good	Good	
78	SPO_NO0129A_5_2950	Solheim	Norway	traffic	59.9286	10.9532	European Envioronmental Agency (EEA)	2025-05-11	11.7697565	12.5205659866333	17.915298461914062	Good	Good	
79	SPO_NO0127A_5_2964	Seljestad Rv83	Norway	traffic	68.7922	16.5374	European Envioronmental Agency (EEA)	2025-05-11	16.471554208333334	11.664090156555176	11.499102592468262	Good	Good	
80	SPO_NO0130A_5_3000	Ringsakervegen	Norway	traffic	60.8859	10.9379	European Envioronmental Agency (EEA)	2025-05-11	9.354166666666666	12.442416191101074	20.357961654663086	Good	Good	
81	SPO-SE0001A_00005_100	Malmö Rådhuset	Sweden	background	55.6064	13.002	European Envioronmental Agency (EEA)	2025-05-11	5.510416666666667	7.3009514808654785	9.362275123596191	Good	Good	
82	SPO-SE0058A_00005_100	Malmö Dalaplan	Sweden	traffic	55.5847	13.0062	European Envioronmental Agency (EEA)	2025-05-11	5.710833333333334	7.432684421539307	9.783352851867676	Good	Good	
83	SPO-SE0085A_00005_101	Helsingborg Drottninggatan	Sweden	traffic	56.0472	12.6916	European Envioronmental Agency (EEA)	2025-05-11	6.278041666666667	7.119089603424072	10.59410572052002	Good	Good	
84	SPO-SE38350_00005_100	Lund Trollebergsvägen	Sweden	traffic	55.7033	13.1803	European Envioronmental Agency (EEA)	2025-05-11	4.465041666666667	4.5880045890808105	7.185302257537842	Good	Good	
85	SPO-SE344172_00005_100	Västerås Stora Gatan 78	Sweden	traffic	59.6077	16.5359	European Envioronmental Agency (EEA)	2025-05-11	7.536041666666667	9.496813774108887	10.380178451538086	Good	Good	
86	SPO-SE0003A_00005_100	Stockholm Hornsgatan 108 Gata	Sweden	traffic	59.3172	18.0487	European Envioronmental Agency (EEA)	2025-05-11	15.968941500000001	16.866008758544922	16.911527633666992	Good	Good	
87	SPO-SE0022A_00005_100	Stockholm Torkel Knutssongatan	Sweden	background	59.316	18.0578	European Envioronmental Agency (EEA)	2025-05-11	8.372385666666668	7.601095676422119	8.754044532775879	Good	Good	
88	SPO-SE0027A_00005_100	Stockholm Sveavägen 59 Gata	Sweden	traffic	59.3408	18.0583	European Envioronmental Agency (EEA)	2025-05-11	12.203995791666665	13.282493591308594	14.247533798217773	Good	Good	
89	SPO-SE0066A_00005_100	Norr Malma	Sweden	background	59.8324	18.6313	European Envioronmental Agency (EEA)	2025-05-11	3.625058333333334	2.843092918395996	3.6662726402282715	Good	Good	
90	SPO-SE0071A_00005_100	Sollentuna E4 Häggvik	Sweden	traffic	59.4435	17.9224	European Envioronmental Agency (EEA)	2025-05-11	8.149029125	6.095345973968506	7.0911712646484375	Good	Good	
91	SPO-SE0072A_00005_100	Södertälje Turingegatan 26	Sweden	traffic	59.1981	17.6211	European Envioronmental Agency (EEA)	2025-05-11	7.325066666666667	10.423521995544434	10.652654647827148	Good	Good	
92	SPO-SE0117A_00005_101	Visby Österväg 17	Sweden	traffic	57.6369	18.3036	European Envioronmental Agency (EEA)	2025-05-11	11.255454166666667	10.920269966125488	8.31653118133545	Good	Good	
93	SPO-SE156417_00005_100	Uppsala Kungsgatan 67	Sweden	traffic	59.8571	17.6463	European Envioronmental Agency (EEA)	2025-05-11	18.392741583333336	11.429335594177246	12.315954208374023	Good	Good	
94	SPO-SE157992_00005_100	Stockholm St Eriksgatan 83	Sweden	traffic	59.3405	18.037	European Envioronmental Agency (EEA)	2025-05-11	13.262104124999999	13.150700569152832	13.189155578613281	Good	Good	
95	SPO-SE159402_00005_100	Sollentuna Danderydsvägen	Sweden	traffic	59.4459	17.955	European Envioronmental Agency (EEA)	2025-05-11	15.287062375	12.478519439697266	11.969888687133789	Good	Good	
96	SPO-SE159404_00005_100	Uppsala Dragarbrunnsgatan 23 tak	Sweden	background	59.8605	17.6376	European Envioronmental Agency (EEA)	2025-05-11	5.895483250000001	5.644233703613281	6.327075958251953	Good	Good	
97	SPO-SE274652_00005_100	Sollentuna Sollentunavägen 192	Sweden	traffic	59.4336	17.9497	European Envioronmental Agency (EEA)	2025-05-11	8.807624875	10.647335052490234	11.792516708374023	Good	Good	
98	SPO-SE301111_00005_100	Norrköping Kungsgatan 32	Sweden	traffic	58.5915	16.1779	European Envioronmental Agency (EEA)	2025-05-11	6.164862416666668	5.209584712982178	6.916067600250244	Good	Good	
99	SPO-SE301113_00005_100	Norrköping Trädgårdsgatan 21	Sweden	background	58.592	16.1893	European Envioronmental Agency (EEA)	2025-05-11	4.832045833333333	4.6620402336120605	5.745627403259277	Good	Good	
100	SPO-SE301757_00005_100	Sundbyberg Tulegatan 9	Sweden	traffic	59.3643	17.9763	European Envioronmental Agency (EEA)	2025-05-11	9.729620708333334	9.739739418029785	9.141838073730469	Good	Good	
101	SPO-SE313381_00005_100	Visby Brömsebroväg 8	Sweden	background	57.6399	18.3097	European Envioronmental Agency (EEA)	2025-05-11	5.5355416250000005	5.37338399887085	5.33028507232666	Good	Good	
102	SPO-SE338683_00005_100	Gävle Staketgatan 22	Sweden	traffic	60.6762	17.1376	European Envioronmental Agency (EEA)	2025-05-11	7.8215416666666675	7.4622416496276855	11.806933403015137	Good	Good	
103	SPO-SE338685_00005_100	Linköping Hamngatan 10	Sweden	traffic	58.4124	15.6301	European Envioronmental Agency (EEA)	2025-05-11	6.6210125	6.063034534454346	11.189852714538574	Good	Good	
104	SPO-SE37479_00005_100	Sollentuna Ekmans Väg 11	Sweden	traffic	59.489	17.9199	European Envioronmental Agency (EEA)	2025-05-11	8.171733208333334	7.694942474365234	8.405035018920898	Good	Good	
105	SPO-SE0004A_00005_100	Göteborg Femman	Sweden	background	57.709	11.9702	European Envioronmental Agency (EEA)	2025-05-11	9.095794166666666	12.486018180847168	11.686136245727539	Good	Good	
106	SPO-SE0005R_00005_101	Bredkälen	Sweden	background	63.8455	15.3197	European Envioronmental Agency (EEA)	2025-05-11	2.5375	2.0154616832733154	2.451784610748291	Good	Good	
107	SPO-SE0014R_00005_100	Råö	Sweden	background	57.3936	11.9142	European Envioronmental Agency (EEA)	2025-05-11	6.295833333333334	9.99785041809082	10.060378074645996	Good	Good	
108	SPO-SE159388_00005_101	Norunda Stenen	Sweden	background	60.0858	17.5053	European Envioronmental Agency (EEA)	2025-05-11	3.332127272727273	3.139089822769165	3.6121108531951904	Good	Good	
109	SPO-SE0021A_00005_100	Göteborg Gårda	Sweden	traffic	57.7009	11.9946	European Envioronmental Agency (EEA)	2025-05-11	3.4285714285714284	8.968917846679688	11.703268051147461	Good	Good	
110	SPO-SE274590_00005_100	Göteborg Övre Husargatan	Sweden	traffic	57.6937	11.9568	European Envioronmental Agency (EEA)	2025-05-11	9.462917083333332	13.603425025939941	14.261680603027344	Good	Good	
111	SPO-SE165095_00005_100	Hedemora Gussarvsgatan	Sweden	traffic	60.2814	15.9891	European Envioronmental Agency (EEA)	2025-05-11	7.548166666666667	8.976177215576172	10.60897159576416	Good	Good	
112	SPO-SE0095A_00005_100	Sundsvall Köpmangatan	Sweden	traffic	62.3886	17.3089	European Envioronmental Agency (EEA)	2025-05-11	13.484375	7.990082263946533	6.669593334197998	Good	Good	
113	SPO-SE09569_00005_100	Sundsvall Bergsgatan	Sweden	traffic	62.3865	17.3032	European Envioronmental Agency (EEA)	2025-05-11	15.389782608695654	12.22228717803955	9.712306022644043	Good	Good	
114	SPO-SE181002_00005_100	Växjö Liedbergsgatan 11	Sweden	traffic	56.8799	14.7993	European Envioronmental Agency (EEA)	2025-05-11	6.216666666666666	7.58870267868042	8.456498146057129	Good	Good	
115	SPO-SE181993_00005_100	Kalmar Södra Vägen	Sweden	traffic	56.6642	16.3336	European Envioronmental Agency (EEA)	2025-05-11	7.4958333333333345	7.948514461517334	8.479710578918457	Good	Good	
116	SPO-SE181259_00005_100	Östersund Rådhusgatan	Sweden	traffic	63.1739	14.6411	European Envioronmental Agency (EEA)	2025-05-11	5.720833333333334	5.260995388031006	9.446895599365234	Good	Good	
117	SPO-SE0059A_00005_100	Umeå Västra Esplanaden	Sweden	traffic	63.8289	20.2585	European Envioronmental Agency (EEA)	2025-05-11	19.3	20.705041885375977	16.9897403717041	Good	Good	
118	SPO-SE274953_00005_100	Skellefteå Kv Pantern	Sweden	traffic	64.7495	20.9601	European Envioronmental Agency (EEA)	2025-05-11	12.890033333333335	17.631999969482422	14.56717586517334	Good	Good	
119	FI_5_101983	Muonio Sammaltunturi	Finland		67.97	24.12	Finnish Meteorological Institute (FMI)	2025-05-11	2.329166666666667	1.863356590270996	1.6484366655349731	Good	Good	
