	Station Code	Station Name	Country	Station type	Latitude	Longitude	Network	Date	PM10 measured concentration (microg/m^3)	PM10 today forecast mean concentration (microg/m^3)	PM10 tomorrow forecast mean concentration (microg/m^3)	Today air quality	Tomorrow air quality	Actions
0	SPO-DK0034A_00005_100	Copenhagen/1103	Denmark	traffic	55.6743	12.5711	European Envioronmental Agency (EEA)	2025-12-26		43.03127670288086	26.72178077697754	Moderate	Moderate	
1	SPO-DK0012R_00005_101	Risoe	Denmark	background	55.6942	12.0889	European Envioronmental Agency (EEA)	2025-12-26		12.928062438964844	9.813653945922852	Good	Good	
2	SPO-FI00570_00005_100	Raahen keskusta 2	Finland	traffic	64.6834	24.4816	European Envioronmental Agency (EEA)	2025-12-26		1.9811900854110718	2.7249228954315186	Good	Good	
3	SPO-FI00349_00005_100	Utö	Finland	background	59.7792	21.374	European Envioronmental Agency (EEA)	2025-12-26	2.3993487083333336	3.878419876098633	3.43546724319458	Good	Good	
4	SPO-FI00427_00005_100	Matorova	Finland	background	68.0005	24.2457	European Envioronmental Agency (EEA)	2025-12-26	5.97504	2.626311779022217	1.6069644689559937	Good	Good	
5	SPO-FI00549_00005_100	Pirkankatu	Finland	traffic	61.4987	23.7357	European Envioronmental Agency (EEA)	2025-12-26	3.079287416666667	4.648430824279785	5.346489429473877	Good	Good	
6	SPO-FI00838_00005_100	Epila 2	Finland	traffic	61.5085	23.6758	European Envioronmental Agency (EEA)	2025-12-26	3.2255206666666667	3.9527180194854736	4.589296340942383	Good	Good	
7	SPO-FI00208_00005_101	Luukki	Finland	background	60.3144	24.6849	European Envioronmental Agency (EEA)	2025-12-26	2.6363006666666666	3.079150438308716	3.6294519901275635	Good	Good	
8	SPO-FI00370_00005_100	Tikkurila 3	Finland	traffic	60.2899	25.0395	European Envioronmental Agency (EEA)	2025-12-26	3.667117708333334	4.342597961425781	4.324217319488525	Good	Good	
9	SPO-FI00425_00005_100	Kallio 2	Finland	background	60.1874	24.9506	European Envioronmental Agency (EEA)	2025-12-26	3.3485239166666667	3.983799695968628	4.374359607696533	Good	Good	
10	SPO-FI00564_00005_100	Mannerheimintie	Finland	traffic	60.1696	24.9392	European Envioronmental Agency (EEA)	2025-12-26	3.758913916666667	6.4884867668151855	7.565383434295654	Good	Good	
11	SPO-FI00781_00005_100	Vartiokylä Huivipolku	Finland	background	60.2239	25.1024	European Envioronmental Agency (EEA)	2025-12-26	3.7215740000000004	4.188777446746826	4.56113338470459	Good	Good	
12	SPO-FI00841_00005_100	Leppävaara 4	Finland	traffic	60.2202	24.8113	European Envioronmental Agency (EEA)	2025-12-26	3.1296558749999996	4.944040775299072	5.513333320617676	Good	Good	
13	SPO-FI00301_00005_100	Pyykösjärvi	Finland	background	65.0434	25.4979	European Envioronmental Agency (EEA)	2025-12-26	6.880753666666667	6.411515712738037	4.124135971069336	Good	Good	
14	SPO-FI00446_00005_100	Oulun keskusta 2	Finland	traffic	65.01	25.4713	European Envioronmental Agency (EEA)	2025-12-26	6.198146	7.682632923126221	4.9722514152526855	Good	Good	
15	SPO-FI00952_00005_100	Jyväskylä Hannikaisenkatu	Finland	traffic	62.2382	25.7479	European Envioronmental Agency (EEA)	2025-12-26	4.808238875	5.766933441162109	5.380737781524658	Good	Good	
16	SPO-FI00455_00005_100	Laune	Finland	traffic	60.967	25.6549	European Envioronmental Agency (EEA)	2025-12-26	4.0610208750000005	5.757887363433838	6.305601119995117	Good	Good	
17	SPO-FI00889_00005_100	Saimaankatu	Finland	traffic	60.9913	25.6658	European Envioronmental Agency (EEA)	2025-12-26	4.030933833333333	5.840996265411377	6.616024494171143	Good	Good	
18	SPO-FI00444_00005_100	Naantalin keskusta	Finland	traffic	60.4674	22.0284	European Envioronmental Agency (EEA)	2025-12-26	2.400229916666667	4.792409420013428	4.672629356384277	Good	Good	
19	SPO-FI00558_00005_100	Maaherrankatu	Finland	traffic	62.8933	27.6869	European Envioronmental Agency (EEA)	2025-12-26	9.555952041666668	7.0634765625	5.629817962646484	Good	Good	
20	SPO-FI00839_00005_100	Tasavallankatu	Finland	traffic	62.882	27.6619	European Envioronmental Agency (EEA)	2025-12-26	6.3815135	6.4701619148254395	5.210700035095215	Good	Good	
21	SPO-FI00928_00005_100	Pori Paanakedonkatu	Finland	traffic	61.4823	21.8133	European Envioronmental Agency (EEA)	2025-12-26	3.280751291666667	4.192509174346924	3.6329119205474854	Good	Good	
22	SPO-FI00424_00005_100	Mansikkala	Finland	traffic	61.1889	28.7701	European Envioronmental Agency (EEA)	2025-12-26	7.596015416666667	5.471092224121094	5.542457103729248	Good	Good	
23	SPO-FI00433_00005_100	Teppanala	Finland	industrial	61.153	28.8101	European Envioronmental Agency (EEA)	2025-12-26	7.988819666666667	5.6521735191345215	5.416997909545898	Good	Good	
24	SPO-FI00434_00005_100	Joutsenon keskusta	Finland	traffic	61.1171	28.4985	European Envioronmental Agency (EEA)	2025-12-26	2.843840666666667	5.646337985992432	6.41458797454834	Good	Good	
25	SPO-FI00606_00005_100	Lappeenrannan keskusta 4	Finland	traffic	61.0558	28.1843	European Envioronmental Agency (EEA)	2025-12-26	12.670240958333332	6.963140964508057	7.990562915802002	Good	Good	
26	SPO-FI00972_00005_100	Lohja Harjula	Finland	background	60.249	24.0695	European Envioronmental Agency (EEA)	2025-12-26	2.9674747500000005	5.731863021850586	5.748667240142822	Good	Good	
27	SPO-FI00892_00005_100	Kankaan Koulu	Finland	traffic	60.8704	26.701	European Envioronmental Agency (EEA)	2025-12-26	5.5696468333333335	6.932206630706787	7.99955415725708	Good	Good	
28	SPO-FI00179_00005_100	Pirkkala	Finland	industrial	61.3316	22.1431	European Envioronmental Agency (EEA)	2025-12-26	4.892430333333333	5.938300609588623	4.946105480194092	Good	Good	
29	SPO-FI00184_00005_100	Kaleva	Finland	industrial	61.3135	22.135	European Envioronmental Agency (EEA)	2025-12-26	4.770069041666667	3.9104678630828857	3.5817694664001465	Good	Good	
30	SPO-FI00397_00005_100	Bottenviksvägen	Finland	traffic	63.6791	22.7184	European Envioronmental Agency (EEA)	2025-12-26	3.388228541666667	4.325074195861816	4.8093671798706055	Good	Good	
31	SPO-IS0005A_00005_103	Reykjavik Grensas	Iceland	traffic	64.1301	-21.8747	European Envioronmental Agency (EEA)	2025-12-26		1.2388455867767334	0.21376530826091766	Good	Good	
32	SPO-IS0052A_00005_100	Akureyri Strandgata (við Hof)	Iceland	traffic	65.6841	-18.0882	European Envioronmental Agency (EEA)	2025-12-26	19.91304347826087	4.68217658996582	0.6711450219154358	Good	Good	
33	SPO-IS0025A_00005_100	Grundartangi Kríuvarða	Iceland	industrial	64.3736	-21.7591	European Envioronmental Agency (EEA)	2025-12-26		6.343740463256836	5.7972869873046875	Good	Good	
34	SPO-IS0041A_00005_100	Grundartangi Gröf	Iceland	industrial	64.3342	-21.8357	European Envioronmental Agency (EEA)	2025-12-26		0.4091930687427521	0.4046627879142761	Good	Good	
35	SPO-IS0037A_00005_100	Kópavogur Dalsmári	Iceland	background	64.105	-21.889	European Envioronmental Agency (EEA)	2025-12-26	16.842654166666666	6.506231784820557	4.87947940826416	Good	Good	
36	SPO-IS0046A_00005_101	Hafnarfjörður Norðurhella	Iceland	background	64.0442	-21.9854	European Envioronmental Agency (EEA)	2025-12-26	11.518833333333333	5.604319095611572	4.79300594329834	Good	Good	
37	SPO-IS0049A_00005_100	PCC norður	Iceland	industrial	66.0793	-17.3422	European Envioronmental Agency (EEA)	2025-12-26		1.7014760971069336	0.6862738728523254	Good	Good	
38	SPO-IS0050A_00005_100	PCC suður	Iceland	industrial	66.0549	-17.3476	European Envioronmental Agency (EEA)	2025-12-26	11.25044347826087	2.4865965843200684	0.8993533849716187	Good	Good	
39	SPO_NO0093A_5_1039	Hjortnes	Norway	traffic	59.9113	10.704	European Envioronmental Agency (EEA)	2025-12-26	29.21695652173913	20.939594268798828	16.525192260742188	Good	Good	
40	SPO_NO0095A_5_934	Smestad	Norway	traffic	59.9325	10.6699	European Envioronmental Agency (EEA)	2025-12-26	25.750640250000004	16.072704315185547	5.534553050994873	Good	Good	
41	SPO_NO0122A_5_2945	E6 Alna senter	Norway	traffic	59.9256	10.8504	European Envioronmental Agency (EEA)	2025-12-26	21.813517958333332	20.197084426879883	8.904791831970215	Good	Good	
42	SPO_NO0011A_5_19	Kirkeveien	Norway	traffic	59.9323	10.7245	European Envioronmental Agency (EEA)	2025-12-26	36.84312166666667	15.995025634765625	3.283682346343994	Good	Good	
43	SPO_NO0057A_5_41	Alnabru	Norway	traffic	59.9277	10.8466	European Envioronmental Agency (EEA)	2025-12-26	19.39383325	17.536218643188477	9.03503704071045	Good	Good	
44	SPO_NO0072A_5_352	Skøyen	Norway	background	59.9197	10.6897	European Envioronmental Agency (EEA)	2025-12-26	38.34000566666667	17.070556640625	10.002725601196289	Good	Good	
45	SPO_NO0073A_5_552	Sofienbergparken	Norway	background	59.923	10.7657	European Envioronmental Agency (EEA)	2025-12-26	33.25593804347826	15.11003589630127	7.016479015350342	Good	Good	
46	SPO_NO0083A_5_793	Bygdøy Alle	Norway	traffic	59.9193	10.6965	European Envioronmental Agency (EEA)	2025-12-26	34.166666666666664	15.814305305480957	7.092438220977783	Good	Good	
47	SPO_NO0140A_5_3171	Spikersuppa	Norway	background	59.9141	10.736	European Envioronmental Agency (EEA)	2025-12-26	33.09370179166667	17.613510131835938	9.378632545471191	Good	Good	
48	SPO_NO0059A_5_11	Danmarks plass	Norway	traffic	60.3741	5.3404	European Envioronmental Agency (EEA)	2025-12-26	13.930992875	13.902005195617676	15.95152473449707	Good	Good	
49	SPO_NO0108A_5_2071	Rolland Åsane	Norway	background	60.4627	5.3324	European Envioronmental Agency (EEA)	2025-12-26	7.208128166666666	5.36477518081665	5.450023651123047	Good	Good	
50	SPO_NO0109A_5_2067	Loddefjord	Norway	traffic	60.3611	5.2369	European Envioronmental Agency (EEA)	2025-12-26	9.080081625	7.577813625335693	9.097689628601074	Good	Good	
51	SPO_NO0120A_5_2902	Klosterhaugen	Norway	background	60.3959	5.3127	European Envioronmental Agency (EEA)	2025-12-26	11.209587708333332	8.992964744567871	10.329930305480957	Good	Good	
52	SPO_NO0121A_5_2888	Rådal	Norway	traffic	60.2943	5.3246	European Envioronmental Agency (EEA)	2025-12-26	10.718690416666666	11.001124382019043	10.943778038024902	Good	Good	
53	SPO_NO0135A_5_3126	Backeparken	Norway	background	59.7495	10.1653	European Envioronmental Agency (EEA)	2025-12-26	11.539790000000002	10.798145294189453	8.910018920898438	Good	Good	
54	SPO_NO0136A_5_3124	Vårveien	Norway	traffic	59.7536	10.1444	European Envioronmental Agency (EEA)	2025-12-26	17.026839625	9.920208930969238	7.707423210144043	Good	Good	
55	SPO_NO0060A_5_1685	Elgeseter	Norway	traffic	63.4174	10.3968	European Envioronmental Agency (EEA)	2025-12-26	4.125251454545455	6.248479843139648	6.390389442443848	Good	Good	
56	SPO_NO0102A_5_1530	E6-Tiller	Norway	traffic	63.3576	10.3717	European Envioronmental Agency (EEA)	2025-12-26		28.82773780822754	21.821802139282227	Moderate	Good	
57	SPO_NO0106A_5_1231	Sverresgate	Norway	traffic	59.1382	9.6522	European Envioronmental Agency (EEA)	2025-12-26	27.234166666666667	16.998104095458984	11.630621910095215	Good	Good	
58	SPO_NO0115A_5_2473	Furulund	Norway	industrial	59.0573	9.6956	European Envioronmental Agency (EEA)	2025-12-26	19.59743991666667	13.477152824401855	8.052824974060059	Good	Good	
59	SPO_NO0118A_5_2723	Knarrdalstranda	Norway	background	59.1335	9.6219	European Envioronmental Agency (EEA)	2025-12-26	31.693862	17.598834991455078	12.984195709228516	Good	Good	
60	SPO_NO0063A_5_192	Stener Heyerdahl	Norway	background	58.1489	7.9918	European Envioronmental Agency (EEA)	2025-12-26	14.280897458333335	6.919658184051514	4.706192493438721	Good	Good	
61	SPO_NO0134A_5_3121	Bjørndalssletta	Norway	traffic	58.1623	8.0238	European Envioronmental Agency (EEA)	2025-12-26	12.616213375000001	6.349790573120117	4.288360595703125	Good	Good	
62	SPO_NO0065A_5_52	Våland	Norway	background	58.9616	5.7314	European Envioronmental Agency (EEA)	2025-12-26	23.36859120833334	9.563506126403809	5.4437360763549805	Good	Good	
63	SPO_NO0076A_5_46	Kannik	Norway	traffic	58.9642	5.7279	European Envioronmental Agency (EEA)	2025-12-26	30.081493875000003	7.942634582519531	6.2204694747924805	Good	Good	
64	SPO_NO0125A_5_3017	Schancheholen	Norway	traffic	58.9519	5.7219	European Envioronmental Agency (EEA)	2025-12-26	22.106414875000002	11.902287483215332	8.241188049316406	Good	Good	
65	SPO_NO0074A_5_539	Bankplassen	Norway	traffic	61.1129	10.4649	European Envioronmental Agency (EEA)	2025-12-26	15.738696291666665	13.479290962219238	7.531113147735596	Good	Good	
66	SPO_NO0075A_5_544	Lillehammer barnehage	Norway	background	61.1209	10.4656	European Envioronmental Agency (EEA)	2025-12-26	13.105045083333332	13.405417442321777	9.643354415893555	Good	Good	
67	SPO_NO0079A_5_392	Hansjordnesbukta	Norway	traffic	69.6562	18.9637	European Envioronmental Agency (EEA)	2025-12-26	16.055198095238094	14.83072280883789	7.277083873748779	Good	Good	
68	SPO_NO0124A_5_2957	Rambergan	Norway	background	69.6543	18.9564	European Envioronmental Agency (EEA)	2025-12-26	15.16856323809524	11.877601623535156	7.9803080558776855	Good	Good	
69	SPO_NO0084A_5_967	St.Croix	Norway	traffic	59.2103	10.9454	European Envioronmental Agency (EEA)	2025-12-26	41.4169295	17.45781898498535	8.690693855285645	Good	Good	
70	SPO_NO0114A_5_2325	Bekkestua	Norway	background	59.9182	10.5839	European Envioronmental Agency (EEA)	2025-12-26	36.354166666666664	15.357216835021973	8.45606803894043	Good	Good	
71	SPO_NO0110A_5_2064	Alvim	Norway	traffic	59.2738	11.0892	European Envioronmental Agency (EEA)	2025-12-26	27.241781250000003	12.764819145202637	5.154245853424072	Good	Good	
72	SPO_NO0112A_5_1221	Kransen	Norway	traffic	59.4335	10.6618	European Envioronmental Agency (EEA)	2025-12-26	25.566002750000006	11.548863410949707	5.896182060241699	Good	Good	
73	SPO_NO0119A_5_2701	Leiret	Norway	traffic	60.8836	11.5593	European Envioronmental Agency (EEA)	2025-12-26	30.797410624999998	15.693984985351562	9.0113525390625	Good	Good	
74	SPO_NO0128A_5_2972	Nedre Langgate	Norway	traffic	59.2637	10.4112	European Envioronmental Agency (EEA)	2025-12-26	11.680534	7.67657470703125	3.8223021030426025	Good	Good	
75	SPO_NO0129A_5_2950	Solheim	Norway	traffic	59.9286	10.9532	European Envioronmental Agency (EEA)	2025-12-26	21.324293541666666	18.929044723510742	8.101548194885254	Good	Good	
76	SPO_NO0127A_5_2964	Seljestad Rv83	Norway	traffic	68.7922	16.5374	European Envioronmental Agency (EEA)	2025-12-26	4.277817708333334	5.041557788848877	5.30400276184082	Good	Good	
77	SPO_NO0130A_5_3000	Ringsakervegen	Norway	traffic	60.8859	10.9379	European Envioronmental Agency (EEA)	2025-12-26	34.5125	20.214635848999023	11.00101089477539	Good	Good	
78	FI_5_101983	Muonio Sammaltunturi	Finland		67.97	24.12	Finnish Meteorological Institute (FMI)	2025-12-26	5.116666666666666	2.6439030170440674	1.1159483194351196	Good	Good	
