	Station Code	Station Name	Country	Station type	Latitude	Longitude	Network	Date	PM10 measured concentration (microg/m^3)	PM10 today forecast mean concentration (microg/m^3)	PM10 tomorrow forecast mean concentration (microg/m^3)	Today air quality	Tomorrow air quality	Actions
0	SPO-DK0034A_00005_100	Copenhagen/1103	Denmark	traffic	55.6743	12.5711	European Envioronmental Agency (EEA)	2026-03-29		50.8404541015625	43.784751892089844	Unhealthy	Moderate	
1	SPO-DK0012R_00005_101	Risoe	Denmark	background	55.6942	12.0889	European Envioronmental Agency (EEA)	2026-03-29		18.54450798034668	17.489059448242188	Good	Good	
2	SPO-FI00570_00005_100	Raahen keskusta 2	Finland	traffic	64.6834	24.4816	European Envioronmental Agency (EEA)	2026-03-29	13.171440652173915	7.921344757080078	8.307195663452148	Good	Good	
3	SPO-FI00349_00005_100	Utö	Finland	background	59.7792	21.374	European Envioronmental Agency (EEA)	2026-03-29	9.15679247826087	9.827210426330566	9.113563537597656	Good	Good	
4	SPO-FI00427_00005_100	Matorova	Finland	background	68.0005	24.2457	European Envioronmental Agency (EEA)	2026-03-29	2.139622739130435	3.3406918048858643	3.888827085494995	Good	Good	
5	SPO-FI00549_00005_100	Pirkankatu	Finland	traffic	61.4987	23.7357	European Envioronmental Agency (EEA)	2026-03-29	18.49901513043478	12.302982330322266	11.980703353881836	Good	Good	
6	SPO-FI00838_00005_100	Epila 2	Finland	traffic	61.5085	23.6758	European Envioronmental Agency (EEA)	2026-03-29	10.139486782608696	8.72065544128418	8.79594612121582	Good	Good	
7	SPO-FI00208_00005_101	Luukki	Finland	background	60.3144	24.6849	European Envioronmental Agency (EEA)	2026-03-29	8.947013875000001	7.909506320953369	7.309964179992676	Good	Good	
8	SPO-FI00370_00005_100	Tikkurila 3	Finland	traffic	60.2899	25.0395	European Envioronmental Agency (EEA)	2026-03-29	19.7577225	14.758097648620605	14.328276634216309	Good	Good	
9	SPO-FI00425_00005_100	Kallio 2	Finland	background	60.1874	24.9506	European Envioronmental Agency (EEA)	2026-03-29	12.760436083333333	8.873730659484863	9.899158477783203	Good	Good	
10	SPO-FI00564_00005_100	Mannerheimintie	Finland	traffic	60.1696	24.9392	European Envioronmental Agency (EEA)	2026-03-29	15.949554125	12.59307861328125	15.446099281311035	Good	Good	
11	SPO-FI00781_00005_100	Vartiokylä Huivipolku	Finland	background	60.2239	25.1024	European Envioronmental Agency (EEA)	2026-03-29	14.445641291666668	13.909159660339355	13.27906322479248	Good	Good	
12	SPO-FI00841_00005_100	Leppävaara 4	Finland	traffic	60.2202	24.8113	European Envioronmental Agency (EEA)	2026-03-29	32.01533916666667	15.5625	15.94704532623291	Good	Good	
13	SPO-FI00301_00005_100	Pyykösjärvi	Finland	background	65.0434	25.4979	European Envioronmental Agency (EEA)	2026-03-29	3.912281086956522	4.380008697509766	6.351021766662598	Good	Good	
14	SPO-FI00446_00005_100	Oulun keskusta 2	Finland	traffic	65.01	25.4713	European Envioronmental Agency (EEA)	2026-03-29	17.44730234782609	13.821727752685547	15.646051406860352	Good	Good	
15	SPO-FI00952_00005_100	Jyväskylä Hannikaisenkatu	Finland	traffic	62.2382	25.7479	European Envioronmental Agency (EEA)	2026-03-29	8.449262500000001	10.112321853637695	10.224212646484375	Good	Good	
16	SPO-FI00455_00005_100	Laune	Finland	traffic	60.967	25.6549	European Envioronmental Agency (EEA)	2026-03-29	34.37661029166667	21.042497634887695	17.866971969604492	Good	Good	
17	SPO-FI00889_00005_100	Saimaankatu	Finland	traffic	60.9913	25.6658	European Envioronmental Agency (EEA)	2026-03-29	22.285594333333336	17.102218627929688	15.338700294494629	Good	Good	
18	SPO-FI00444_00005_100	Naantalin keskusta	Finland	traffic	60.4674	22.0284	European Envioronmental Agency (EEA)	2026-03-29	11.556922708333333	11.543380737304688	13.638562202453613	Good	Good	
19	SPO-FI00558_00005_100	Maaherrankatu	Finland	traffic	62.8933	27.6869	European Envioronmental Agency (EEA)	2026-03-29	10.635049583333334	12.15328598022461	12.141229629516602	Good	Good	
20	SPO-FI00839_00005_100	Tasavallankatu	Finland	traffic	62.882	27.6619	European Envioronmental Agency (EEA)	2026-03-29	9.977605458333334	18.32889747619629	18.146896362304688	Good	Good	
21	SPO-FI00928_00005_100	Pori Paanakedonkatu	Finland	traffic	61.4823	21.8133	European Envioronmental Agency (EEA)	2026-03-29	13.373093791666667	12.392879486083984	12.191926002502441	Good	Good	
22	SPO-FI00424_00005_100	Mansikkala	Finland	traffic	61.1889	28.7701	European Envioronmental Agency (EEA)	2026-03-29	15.956740304347829	11.768733024597168	12.648119926452637	Good	Good	
23	SPO-FI00433_00005_100	Teppanala	Finland	industrial	61.153	28.8101	European Envioronmental Agency (EEA)	2026-03-29	10.13522052173913	6.688425064086914	7.480478763580322	Good	Good	
24	SPO-FI00606_00005_100	Lappeenrannan keskusta 4	Finland	traffic	61.0558	28.1843	European Envioronmental Agency (EEA)	2026-03-29		19.895265579223633	19.42890739440918	Good	Good	
25	SPO-FI00972_00005_100	Lohja Harjula	Finland	background	60.249	24.0695	European Envioronmental Agency (EEA)	2026-03-29	13.90954475	9.347310066223145	8.913796424865723	Good	Good	
26	SPO-FI00892_00005_100	Kankaan Koulu	Finland	traffic	60.8704	26.701	European Envioronmental Agency (EEA)	2026-03-29	18.092207565217393	13.497245788574219	15.565710067749023	Good	Good	
27	SPO-FI00179_00005_100	Pirkkala	Finland	industrial	61.3316	22.1431	European Envioronmental Agency (EEA)	2026-03-29	11.348363333333333	8.347451210021973	8.604398727416992	Good	Good	
28	SPO-FI00184_00005_100	Kaleva	Finland	industrial	61.3135	22.135	European Envioronmental Agency (EEA)	2026-03-29	11.707810458333332	8.689515113830566	9.05841064453125	Good	Good	
29	SPO-FI00397_00005_100	Bottenviksvägen	Finland	traffic	63.6791	22.7184	European Envioronmental Agency (EEA)	2026-03-29	18.44667334782609	7.983117580413818	10.410379409790039	Good	Good	
30	SPO-IS0005A_00005_103	Reykjavik Grensas	Iceland	traffic	64.1301	-21.8747	European Envioronmental Agency (EEA)	2026-03-29	13.368145833333335	21.562795639038086	23.70397186279297	Good	Good	
31	SPO-IS0052A_00005_100	Akureyri Strandgata (við Hof)	Iceland	traffic	65.6841	-18.0882	European Envioronmental Agency (EEA)	2026-03-29	7.041666666666667	4.9127349853515625	13.28487777709961	Good	Good	
32	SPO-IS0025A_00005_100	Grundartangi Kríuvarða	Iceland	industrial	64.3736	-21.7591	European Envioronmental Agency (EEA)	2026-03-29		9.393777847290039	9.544405937194824	Good	Good	
33	SPO-IS0041A_00005_100	Grundartangi Gröf	Iceland	industrial	64.3342	-21.8357	European Envioronmental Agency (EEA)	2026-03-29	9.267916666666666	7.870218753814697	8.824341773986816	Good	Good	
34	SPO-IS0037A_00005_100	Kópavogur Dalsmári	Iceland	background	64.105	-21.889	European Envioronmental Agency (EEA)	2026-03-29	10.948645833333336	14.41926097869873	15.509110450744629	Good	Good	
35	SPO-IS0046A_00005_101	Hafnarfjörður Norðurhella	Iceland	background	64.0442	-21.9854	European Envioronmental Agency (EEA)	2026-03-29	29.392375000000005	12.191956520080566	11.656839370727539	Good	Good	
36	SPO-IS0049A_00005_100	PCC norður	Iceland	industrial	66.0793	-17.3422	European Envioronmental Agency (EEA)	2026-03-29		2.62961745262146	3.2159204483032227	Good	Good	
37	SPO-IS0050A_00005_100	PCC suður	Iceland	industrial	66.0549	-17.3476	European Envioronmental Agency (EEA)	2026-03-29		14.357882499694824	14.006187438964844	Good	Good	
38	SPO-SE0001A_00005_100	Malmö Rådhuset	Sweden	background	55.6064	13.002	European Envioronmental Agency (EEA)	2026-03-29	12.047916666666666	11.802749633789062	10.491623878479004	Good	Good	
39	SPO-SE0058A_00005_100	Malmö Dalaplan	Sweden	traffic	55.5847	13.0062	European Envioronmental Agency (EEA)	2026-03-29	15.950833333333334	12.521453857421875	11.226849555969238	Good	Good	
40	SPO-SE0085A_00005_101	Helsingborg Drottninggatan	Sweden	traffic	56.0472	12.6916	European Envioronmental Agency (EEA)	2026-03-29	15.410782608695651	16.017404556274414	15.03289794921875	Good	Good	
41	SPO-SE38350_00005_100	Lund Trollebergsvägen	Sweden	traffic	55.7033	13.1803	European Envioronmental Agency (EEA)	2026-03-29	10.400833333333333	12.716796875	10.99023723602295	Good	Good	
42	SPO-SE344172_00005_100	Västerås Stora Gatan 78	Sweden	traffic	59.6077	16.5359	European Envioronmental Agency (EEA)	2026-03-29	45.21313043478261	20.574913024902344	14.08309555053711	Good	Good	
43	SPO-SE0003A_00005_100	Stockholm Hornsgatan 108 Gata	Sweden	traffic	59.3172	18.0487	European Envioronmental Agency (EEA)	2026-03-29	9.908579000000001	7.187444686889648	9.472369194030762	Good	Good	
44	SPO-SE0022A_00005_100	Stockholm Torkel Knutssongatan	Sweden	background	59.316	18.0578	European Envioronmental Agency (EEA)	2026-03-29	7.941862416666667	6.9385762214660645	7.661165237426758	Good	Good	
45	SPO-SE0027A_00005_100	Stockholm Sveavägen 59 Gata	Sweden	traffic	59.3408	18.0583	European Envioronmental Agency (EEA)	2026-03-29	28.286999833333336	21.331344604492188	21.467992782592773	Good	Good	
46	SPO-SE0066A_00005_100	Norr Malma	Sweden	background	59.8324	18.6313	European Envioronmental Agency (EEA)	2026-03-29	5.903379166666667	8.299046516418457	7.405452728271484	Good	Good	
47	SPO-SE0071A_00005_100	Sollentuna E4 Häggvik	Sweden	traffic	59.4435	17.9224	European Envioronmental Agency (EEA)	2026-03-29	18.444524916666666	12.320952415466309	12.03809928894043	Good	Good	
48	SPO-SE0072A_00005_100	Södertälje Turingegatan 26	Sweden	traffic	59.1981	17.6211	European Envioronmental Agency (EEA)	2026-03-29	20.83946225	17.178558349609375	18.203453063964844	Good	Good	
49	SPO-SE0087A_00005_100	Stockholm E4/E20 Lilla Essingen	Sweden	traffic	59.3255	18.0044	European Envioronmental Agency (EEA)	2026-03-29	28.17894575	25.27294921875	25.821857452392578	Moderate	Moderate	
50	SPO-SE0117A_00005_101	Visby Österväg 17	Sweden	traffic	57.6369	18.3036	European Envioronmental Agency (EEA)	2026-03-29	17.757849958333335	33.490360260009766	23.147502899169922	Moderate	Good	
51	SPO-SE156417_00005_100	Uppsala Kungsgatan 67	Sweden	traffic	59.8571	17.6463	European Envioronmental Agency (EEA)	2026-03-29	14.856858291666668	10.052722930908203	12.003013610839844	Good	Good	
52	SPO-SE157992_00005_100	Stockholm St Eriksgatan 83	Sweden	traffic	59.3405	18.037	European Envioronmental Agency (EEA)	2026-03-29	21.840987416666668	14.247329711914062	15.673199653625488	Good	Good	
53	SPO-SE159402_00005_100	Sollentuna Danderydsvägen	Sweden	traffic	59.4459	17.955	European Envioronmental Agency (EEA)	2026-03-29	20.023025	12.339736938476562	12.0291109085083	Good	Good	
54	SPO-SE159404_00005_100	Uppsala Dragarbrunnsgatan 23 tak	Sweden	background	59.8605	17.6376	European Envioronmental Agency (EEA)	2026-03-29	6.281591625	6.634286880493164	7.31178092956543	Good	Good	
55	SPO-SE274652_00005_100	Sollentuna Sollentunavägen 192	Sweden	traffic	59.4336	17.9497	European Envioronmental Agency (EEA)	2026-03-29	24.03496241666667	13.338200569152832	13.237475395202637	Good	Good	
56	SPO-SE301111_00005_100	Norrköping Kungsgatan 32	Sweden	traffic	58.5915	16.1779	European Envioronmental Agency (EEA)	2026-03-29	31.3161875	12.72748851776123	10.094740867614746	Good	Good	
57	SPO-SE301113_00005_100	Norrköping Trädgårdsgatan 21	Sweden	background	58.592	16.1893	European Envioronmental Agency (EEA)	2026-03-29	8.181470833333334	7.021129608154297	6.08004093170166	Good	Good	
58	SPO-SE301757_00005_100	Sundbyberg Tulegatan 9	Sweden	traffic	59.3643	17.9763	European Envioronmental Agency (EEA)	2026-03-29	36.80546245833333	12.834144592285156	14.548988342285156	Good	Good	
59	SPO-SE313381_00005_100	Visby Brömsebroväg 8	Sweden	background	57.6399	18.3097	European Envioronmental Agency (EEA)	2026-03-29	8.824716625	14.901171684265137	12.33594036102295	Good	Good	
60	SPO-SE338683_00005_100	Gävle Staketgatan 22	Sweden	traffic	60.6762	17.1376	European Envioronmental Agency (EEA)	2026-03-29	46.786708250000004	34.320499420166016	32.57259750366211	Moderate	Moderate	
61	SPO-SE338685_00005_100	Linköping Hamngatan 10	Sweden	traffic	58.4124	15.6301	European Envioronmental Agency (EEA)	2026-03-29	23.514283208333335	17.30120277404785	12.34156322479248	Good	Good	
62	SPO-SE37479_00005_100	Sollentuna Ekmans Väg 11	Sweden	traffic	59.489	17.9199	European Envioronmental Agency (EEA)	2026-03-29	22.56579166666667	11.962687492370605	11.621862411499023	Good	Good	
63	SPO-SE0004A_00005_100	Göteborg Femman	Sweden	background	57.709	11.9702	European Envioronmental Agency (EEA)	2026-03-29	18.401853181818183	18.805770874023438	18.007535934448242	Good	Good	
64	SPO-SE0005R_00005_101	Bredkälen	Sweden	background	63.8455	15.3197	European Envioronmental Agency (EEA)	2026-03-29	1.1375	0.3652653992176056	0.5580604076385498	Good	Good	
65	SPO-SE0014R_00005_100	Råö	Sweden	background	57.3936	11.9142	European Envioronmental Agency (EEA)	2026-03-29	14.666666666666666	15.869202613830566	14.40915584564209	Good	Good	
66	SPO-SE159388_00005_101	Norunda Stenen	Sweden	background	60.0858	17.5053	European Envioronmental Agency (EEA)	2026-03-29	5.490547782608696	5.636926651000977	6.01093864440918	Good	Good	
67	SPO-SE0021A_00005_100	Göteborg Gårda	Sweden	traffic	57.7009	11.9946	European Envioronmental Agency (EEA)	2026-03-29	25.504347826086963	31.054723739624023	30.255107879638672	Moderate	Moderate	
68	SPO-SE0067A_00005_100	Göteborg Haga	Sweden	traffic	57.6979	11.9605	European Envioronmental Agency (EEA)	2026-03-29	19.136569090909088	22.693845748901367	21.550382614135742	Good	Good	
69	SPO-SE274590_00005_100	Göteborg Övre Husargatan	Sweden	traffic	57.6937	11.9568	European Envioronmental Agency (EEA)	2026-03-29	22.088071818181817	31.8713436126709	29.355192184448242	Moderate	Moderate	
70	SPO-SE165095_00005_100	Hedemora Gussarvsgatan	Sweden	traffic	60.2814	15.9891	European Envioronmental Agency (EEA)	2026-03-29	13.26217391304348	13.646405220031738	11.31075668334961	Good	Good	
71	SPO-SE0095A_00005_100	Sundsvall Köpmangatan	Sweden	traffic	62.3886	17.3089	European Envioronmental Agency (EEA)	2026-03-29	22.26858333333334	12.751749992370605	14.416303634643555	Good	Good	
72	SPO-SE09569_00005_100	Sundsvall Bergsgatan	Sweden	traffic	62.3865	17.3032	European Envioronmental Agency (EEA)	2026-03-29	28.32670833333334	15.16131591796875	16.75391960144043	Good	Good	
73	SPO-SE313140_00005_100	Örnsköldsvik Centralesplanaden - Nygatan 24	Sweden	traffic	63.2918	18.7175	European Envioronmental Agency (EEA)	2026-03-29	11.904347826086957	11.02864933013916	11.377665519714355	Good	Good	
74	SPO-SE181002_00005_100	Växjö Liedbergsgatan 11	Sweden	traffic	56.8799	14.7993	European Envioronmental Agency (EEA)	2026-03-29	11.537500000000001	12.969500541687012	10.315716743469238	Good	Good	
75	SPO-SE32288_00005_100	Karlskrona N Smedjegatan Ö Köpmansgatan	Sweden	traffic	56.164	15.5889	European Envioronmental Agency (EEA)	2026-03-29	13.008695652173914	12.37561321258545	10.762882232666016	Good	Good	
76	SPO-SE181993_00005_100	Kalmar Södra Vägen	Sweden	traffic	56.6642	16.3336	European Envioronmental Agency (EEA)	2026-03-29	17.656521739130437	10.126154899597168	4.975752353668213	Good	Good	
77	SPO-SE181259_00005_100	Östersund Rådhusgatan	Sweden	traffic	63.1739	14.6411	European Envioronmental Agency (EEA)	2026-03-29	35.1	18.751384735107422	16.650985717773438	Good	Good	
78	SPO-SE0059A_00005_100	Umeå Västra Esplanaden	Sweden	traffic	63.8289	20.2585	European Envioronmental Agency (EEA)	2026-03-29	8.860869565217392	6.006028652191162	6.83496618270874	Good	Good	
79	SPO-SE274953_00005_100	Skellefteå Kv Pantern	Sweden	traffic	64.7495	20.9601	European Envioronmental Agency (EEA)	2026-03-29	21.3316875	9.980490684509277	16.7133731842041	Good	Good	
80	FI_5_101983	Muonio Sammaltunturi	Finland		67.97	24.12	Finnish Meteorological Institute (FMI)	2026-03-29	1.8826086956521737	3.786228895187378	4.3898725509643555	Good	Good	
